{"version": 0.6, "generator": "Overpass API 0.7.62.1 084b4234", "osm3s": {"timestamp_osm_base": "2024-05-17T02:04:51Z", "copyright": "The data included in this document is from www.openstreetmap.org. The data is made available under ODbL."}, "elements": [{"type": "node", "id": 5085830023, "lat": 59.8589164, "lon": 30.248086, "tags": {"amenity": "fast_food", "level": "3", "name": "Hesburger", "opening_hours": "10:00-22:00", "phone": "+7 812 6779667", "takeaway": "yes", "website": "https://www.hesburger.ru/"}}, {"type": "node", "id": 5085830024, "lat": 59.8590011, "lon": 30.2484814, "tags": {"amenity": "fast_food", "brand": "\u0412\u043a\u0443\u0441\u043d\u043e \u2014 \u0438 \u0442\u043e\u0447\u043a\u0430", "brand:ru": "\u0412\u043a\u0443\u0441\u043d\u043e \u2014 \u0438 \u0442\u043e\u0447\u043a\u0430", "brand:wikidata": "Q112406961", "breakfast": "no", "contact:email": "info@qsrsystem.ru", "contact:phone": "+7 812 3333909", "contact:vk": "https://vk.com/vkusno_itochka", "contact:website": "https://vkusnoitochka.ru", "cuisine": "burger", "drive_through": "no", "internet_access": "wlan", "level": "3", "name": "\u0412\u043a\u0443\u0441\u043d\u043e \u2014 \u0438 \u0442\u043e\u0447\u043a\u0430", "name:ru": "\u0412\u043a\u0443\u0441\u043d\u043e \u2014 \u0438 \u0442\u043e\u0447\u043a\u0430", "old_name": "\u041c\u0430\u043a\u0434\u043e\u043d\u0430\u043b\u0434\u0441", "old_name:en": "McDonald\u2019s", "opening_hours": "10:00-22:00", "smoking": "no", "takeaway": "yes"}}, {"type": "node", "id": 5085862722, "lat": 59.8588565, "lon": 30.2479683, "tags": {"amenity": "fast_food", "cuisine": "sushi", "name": "Sushi Wok"}}, {"type": "node", "id": 5085893421, "lat": 59.8589706, "lon": 30.2482064, "tags": {"alt_name": "Kentucky Fried Chicken", "amenity": "fast_food", "brand": "KFC", "brand:wikidata": "Q524757", "brand:wikipedia": "en:KFC", "cuisine": "chicken", "level": "3", "name": "Rostic`s", "takeaway": "yes"}}, {"type": "node", "id": 5250496122, "lat": 59.8592699, "lon": 30.2466689, "tags": {"addr:city": "\u0421\u0430\u043d\u043a\u0442-\u041f\u0435\u0442\u0435\u0440\u0431\u0443\u0440\u0433", "addr:housenumber": "101 \u043a1 \u043b\u0438\u0442\u0415", "addr:postcode": "198302", "addr:street": "\u043f\u0440\u043e\u0441\u043f\u0435\u043a\u0442 \u0421\u0442\u0430\u0447\u0435\u043a", "amenity": "fast_food", "contact:vk": "https://vk.com/prostovasya24", "cuisine": "kebab", "drive_through": "no", "email": "info@prostovasya.ru", "name": "\u041f\u0440\u043e\u0441\u0442\u043e \u0412\u0430\u0441\u044f", "opening_hours": "Mo-Su 07:00-05:00", "phone": "+7 (964) 349 55 06"}}, {"type": "node", "id": 7505868624, "lat": 59.8588059, "lon": 30.2484512, "tags": {"amenity": "fast_food", "contact:email": "info@burgerkingrus.ru", "contact:phone": "+7 495 5445000", "contact:vk": "https://vk.com/burgerking", "contact:website": "https://burgerkingrus.ru/", "cuisine": "burger", "name": "\u0411\u0443\u0440\u0433\u0435\u0440 \u041a\u0438\u043d\u0433", "name:en": "Burger King", "name:ru": "\u0411\u0443\u0440\u0433\u0435\u0440 \u041a\u0438\u043d\u0433", "opening_hours": "Mo-Su 10:00-21:50", "operator": "\u0411\u0423\u0420\u0413\u0415\u0420 \u0420\u0423\u0421"}}, {"type": "node", "id": 9447072916, "lat": 59.858763, "lon": 30.248071, "tags": {"amenity": "fast_food", "contact:email": "b2b@onepricecoffee.com", "contact:phone": "+7 495 0153150", "contact:website": "https://onepricecoffee.com/", "cuisine": "coffee_shop", "name": "One Price Coffee", "opening_hours": "Mo-Su 10:00-22:00"}}, {"type": "node", "id": 9889945480, "lat": 59.8588436, "lon": 30.2482045, "tags": {"amenity": "fast_food", "contact:email": "spb@teremok.ru", "contact:phone": "+7 812 2446600;+7 812 3632332", "contact:website": "https://teremok.ru/", "name": "\u0422\u0435\u0440\u0435\u043c\u043e\u043a", "opening_hours": "Mo-Su 10:00-22:00"}}]}