{"version": 0.6, "generator": "Overpass API 0.7.62.1 084b4234", "osm3s": {"timestamp_osm_base": "2024-05-17T00:26:20Z", "copyright": "The data included in this document is from www.openstreetmap.org. The data is made available under ODbL."}, "elements": [{"type": "node", "id": 630507283, "lat": 54.933821, "lon": 73.3745995}, {"type": "node", "id": 630507284, "lat": 54.933715, "lon": 73.3746548}, {"type": "node", "id": 630507285, "lat": 54.933849, "lon": 73.3747621}, {"type": "node", "id": 630507286, "lat": 54.933743, "lon": 73.3748174}, {"type": "node", "id": 630507287, "lat": 54.9337587, "lon": 73.374938}, {"type": "node", "id": 630507288, "lat": 54.9338881, "lon": 73.3748705}, {"type": "node", "id": 630507292, "lat": 54.9339185, "lon": 73.3750469}, {"type": "node", "id": 630507293, "lat": 54.9337891, "lon": 73.3751145}, {"type": "node", "id": 630507294, "lat": 54.9339931, "lon": 73.3753038}, {"type": "node", "id": 630507295, "lat": 54.9339762, "lon": 73.3752058}, {"type": "node", "id": 630507296, "lat": 54.9338784, "lon": 73.3752569}, {"type": "node", "id": 630507297, "lat": 54.9338953, "lon": 73.3753549}, {"type": "way", "id": 49578318, "nodes": [630507283, 630507285, 630507286, 630507284, 630507283], "tags": {"addr:housenumber": "32", "addr:postcode": "644121", "addr:street": "\u0443\u043b\u0438\u0446\u0430 \u0422\u0440\u0443\u0434\u0430", "amenity": "pharmacy", "building": "kiosk", "contact:vk": "farmakopeika", "name": "\u0424\u0430\u0440\u043c\u0430\u043a\u043e\u043f\u0435\u0439\u043a\u0430", "opening_hours": "Mo-Fr 08:00-21:00; Sa-Su 09:00-21:00", "phone": "+7 800 200 97 07", "website": "https://farmakopeika.ru/"}}, {"type": "way", "id": 49578319, "nodes": [630507288, 630507292, 630507293, 630507287, 630507288], "tags": {"addr:housenumber": "10\u0410", "addr:postcode": "644121", "addr:street": "\u0443\u043b\u0438\u0446\u0430 \u0422\u0440\u0443\u0434\u0430", "building": "kiosk", "name": "\u0410\u0432\u0442\u043e\u0434\u0440\u0443\u0433", "shop": "car_parts"}}, {"type": "way", "id": 49578320, "nodes": [630507295, 630507294, 630507297, 630507296, 630507295], "tags": {"addr:housenumber": "12\u0410", "addr:postcode": "644121", "addr:street": "\u0443\u043b\u0438\u0446\u0430 \u0422\u0440\u0443\u0434\u0430", "building": "kiosk", "name": "\u041f\u0440\u0438\u0432\u0435\u0442+", "shop": "kiosk"}}]}