{"version": 0.6, "generator": "Overpass API 0.7.62.1 084b4234", "osm3s": {"timestamp_osm_base": "2024-05-16T18:27:53Z", "copyright": "The data included in this document is from www.openstreetmap.org. The data is made available under ODbL."}, "elements": [{"type": "node", "id": 937909037, "lat": 55.8255592, "lon": 49.134418}, {"type": "node", "id": 937909152, "lat": 55.8255618, "lon": 49.1347024}, {"type": "node", "id": 937909294, "lat": 55.8253546, "lon": 49.1347086}, {"type": "node", "id": 937909391, "lat": 55.825352, "lon": 49.1344242}, {"type": "node", "id": 1672580357, "lat": 55.8253525, "lon": 49.1344851, "tags": {"entrance": "yes"}}, {"type": "node", "id": 1672580400, "lat": 55.8255481, "lon": 49.1344184, "tags": {"entrance": "yes"}}, {"type": "node", "id": 8850418537, "lat": 55.8259657, "lon": 49.134659, "tags": {"addr:housenumber": "71\u0410", "addr:street": "\u043f\u0440\u043e\u0441\u043f\u0435\u043a\u0442 \u042f\u043c\u0430\u0448\u0435\u0432\u0430", "amenity": "fast_food", "name": "Bbq"}}, {"type": "way", "id": 80373282, "nodes": [937909037, 937909152, 937909294, 1672580357, 937909391, 1672580400, 937909037], "tags": {"addr:country": "RU", "addr:housenumber": "69\u0411", "addr:street": "\u043f\u0440\u043e\u0441\u043f\u0435\u043a\u0442 \u042f\u043c\u0430\u0448\u0435\u0432\u0430", "air_conditioning": "yes", "alt_name": "\u041c\u0430\u043a\u0434\u043e\u043d\u0430\u043b\u044c\u0434\u0441", "amenity": "fast_food", "brand": "\u0412\u043a\u0443\u0441\u043d\u043e \u2014 \u0438 \u0442\u043e\u0447\u043a\u0430", "brand:en": "Vkusno i tochka", "brand:ru": "\u0412\u043a\u0443\u0441\u043d\u043e \u2014 \u0438 \u0442\u043e\u0447\u043a\u0430", "brand:wikidata": "Q112406961", "building": "yes", "building:levels": "1", "check_date": "2023-07-08", "contact:phone": "+7 843 2024034", "contact:website": "https://vkusnoitochka.ru", "cuisine": "burger", "drive_through": "yes", "highchair": "yes", "internet_access": "wlan", "internet_access:fee": "no", "internet_access:ssid": "APP_Free_Wi-Fi", "name": "\u0412\u043a\u0443\u0441\u043d\u043e \u2014 \u0438 \u0442\u043e\u0447\u043a\u0430", "name:en": "Vkusno i tochka", "name:ru": "\u0412\u043a\u0443\u0441\u043d\u043e \u2014 \u0438 \u0442\u043e\u0447\u043a\u0430", "opening_hours": "Mo-Su 07:00-24:00", "outdoor_seating": "yes", "payment:cards": "yes", "payment:cash": "yes", "smoking": "no", "takeaway": "yes"}}]}