{"version": 0.6, "generator": "Overpass API 0.7.62.1 084b4234", "osm3s": {"timestamp_osm_base": "2024-05-16T17:04:15Z", "copyright": "The data included in this document is from www.openstreetmap.org. The data is made available under ODbL."}, "elements": [{"type": "node", "id": 2460211098, "lat": 45.6278245, "lon": 38.9424144, "tags": {"name:en": "Rosneft", "name:ru": "\u0420\u043e\u0441\u043d\u0435\u0444\u0442\u044c"}}, {"type": "node", "id": 2460211099, "lat": 45.6276286, "lon": 38.9423688, "tags": {"name:en": "Rosneft", "name:ru": "\u0420\u043e\u0441\u043d\u0435\u0444\u0442\u044c"}}, {"type": "node", "id": 2460211100, "lat": 45.6278063, "lon": 38.9421245, "tags": {"name:en": "Rosneft", "name:ru": "\u0420\u043e\u0441\u043d\u0435\u0444\u0442\u044c"}}, {"type": "node", "id": 2460211101, "lat": 45.6278381, "lon": 38.9421636, "tags": {"name:en": "Rosneft", "name:ru": "\u0420\u043e\u0441\u043d\u0435\u0444\u0442\u044c"}}, {"type": "node", "id": 2460211103, "lat": 45.6278814, "lon": 38.9424176, "tags": {"name:en": "Rosneft", "name:ru": "\u0420\u043e\u0441\u043d\u0435\u0444\u0442\u044c"}}, {"type": "node", "id": 2460211104, "lat": 45.6278769, "lon": 38.9426358, "tags": {"name:en": "Rosneft", "name:ru": "\u0420\u043e\u0441\u043d\u0435\u0444\u0442\u044c"}}, {"type": "node", "id": 2460211105, "lat": 45.6277949, "lon": 38.9426293, "tags": {"name:en": "Rosneft", "name:ru": "\u0420\u043e\u0441\u043d\u0435\u0444\u0442\u044c"}}, {"type": "node", "id": 2460211106, "lat": 45.6277971, "lon": 38.9425023, "tags": {"name:en": "Rosneft", "name:ru": "\u0420\u043e\u0441\u043d\u0435\u0444\u0442\u044c"}}, {"type": "node", "id": 2460211107, "lat": 45.6276263, "lon": 38.9424893, "tags": {"name:en": "Rosneft", "name:ru": "\u0420\u043e\u0441\u043d\u0435\u0444\u0442\u044c"}}, {"type": "way", "id": 238166642, "nodes": [2460211099, 2460211100, 2460211101, 2460211098, 2460211103, 2460211104, 2460211105, 2460211106, 2460211107, 2460211099], "tags": {"addr:city": "\u0422\u0438\u043c\u0430\u0448\u0451\u0432\u0441\u043a", "addr:housenumber": "16", "addr:postcode": "352700", "addr:street": "\u0443\u043b\u0438\u0446\u0430 \u0411\u0440\u0430\u0442\u044c\u0435\u0432 \u0421\u0442\u0435\u043f\u0430\u043d\u043e\u0432\u044b\u0445", "amenity": "fuel", "building": "yes", "layer": "1", "name": "\u0420\u043e\u0441\u043d\u0435\u0444\u0442\u044c", "name:en": "Rosneft", "name:ru": "\u0420\u043e\u0441\u043d\u0435\u0444\u0442\u044c", "ref": "81"}}]}