{"version": 0.6, "generator": "Overpass API 0.7.62.1 084b4234", "osm3s": {"timestamp_osm_base": "2024-05-13T23:55:42Z", "copyright": "The data included in this document is from www.openstreetmap.org. The data is made available under ODbL."}, "elements": [{"type": "node", "id": 5209036324, "lat": 55.7733026, "lon": 37.6565918, "tags": {"amenity": "cafe", "level": "2", "name": "\u0421\u0430\u043c\u0430\u0440\u043a\u0430\u043d\u0434", "opening_hours": "Mo-Su 08:00-23:00"}}, {"type": "node", "id": 5460731523, "lat": 55.7737296, "lon": 37.6559856, "tags": {"amenity": "cafe", "brand": "\u041a\u043e\u0444\u0435 \u0425\u0430\u0443\u0437", "brand:wikidata": "Q4236456", "cuisine": "coffee_shop", "name": "\u041a\u043e\u0444\u0435 \u0425\u0430\u0443\u0437", "takeaway": "yes"}}, {"type": "node", "id": 5460731524, "lat": 55.7741275, "lon": 37.6556372, "tags": {"amenity": "cafe", "name": "\u0428\u0430\u0443\u0440\u043c\u0430\u043d\u0438\u044f", "opening_hours": "24/7"}}, {"type": "node", "id": 5837965685, "lat": 55.7735488, "lon": 37.6550473, "tags": {"amenity": "cafe", "contact:phone": "+7 916 9857991", "internet_access": "wlan", "name": "StarHit", "name:en": "StarHit", "opening_hours": "Mo-Su 07:00-23:00"}}, {"type": "node", "id": 7131586139, "lat": 55.773761, "lon": 37.655877, "tags": {"air_conditioning": "yes", "amenity": "cafe", "brand": "\u0428\u043e\u043a\u043e\u043b\u0430\u0434\u043d\u0438\u0446\u0430", "brand:en": "Chocolate", "brand:wikidata": "Q30891188", "check_date": "2022-09-16", "contact:phone": "+7 909 9921029", "contact:website": "https://shoko.ru", "cuisine": "coffee_shop", "diet:vegetarian": "no", "indoor_seating": "yes", "internet_access": "no", "name": "\u0428\u043e\u043a\u043e\u043b\u0430\u0434\u043d\u0438\u0446\u0430", "name:en": "Shokoladnitsa", "opening_hours": "24/7", "outdoor_seating": "no", "payment:credit_cards": "yes", "payment:debit_cards": "yes", "payment:maestro": "yes", "payment:mastercard": "yes", "payment:visa": "yes", "payment:visa_electron": "yes", "takeaway": "yes", "wheelchair": "limited"}}, {"type": "node", "id": 7131586142, "lat": 55.7737972, "lon": 37.6557952, "tags": {"amenity": "cafe", "brand": "Cofix", "brand:en": "Cofix", "brand:he": "\u05e7\u05e4\u05d5\u05d9\u05e7\u05e1", "brand:wikidata": "Q16132717", "brand:wikipedia": "he:\u05e7\u05d5\u05e4\u05d9\u05e7\u05e1", "contact:phone": "+7 800 3508418", "contact:website": "https://www.cofix.global", "cuisine": "coffee_shop", "name": "Cofix", "name:en": "Cofix", "name:he": "\u05e7\u05d5\u05e4\u05d9\u05e7\u05e1", "opening_hours": "Mo-Su 08:00-22:00", "takeaway": "yes"}}, {"type": "node", "id": 11482410972, "lat": 55.7742402, "lon": 37.6550467, "tags": {"amenity": "cafe", "check_date": "2024-01-05", "contact:email": "shchimoskva@yandex.ru", "contact:phone": "+7 936 1868488", "level": "0", "name": "\u0429\u0438", "opening_hours": "24/7"}}, {"type": "node", "id": 11493984514, "lat": 55.7739863, "lon": 37.6552653, "tags": {"amenity": "cafe", "check_date": "2024-01-05", "cuisine": "coffee_shop", "level": "0"}}, {"type": "node", "id": 11493984517, "lat": 55.772827, "lon": 37.6552772, "tags": {"amenity": "cafe", "check_date": "2024-01-05", "cuisine": "russian", "level": "0"}}, {"type": "node", "id": 11493984519, "lat": 55.773126, "lon": 37.6551182, "tags": {"amenity": "cafe", "check_date": "2024-01-05"}}]}