{"version": 0.6, "generator": "Overpass API 0.7.62.1 084b4234", "osm3s": {"timestamp_osm_base": "2024-05-17T05:56:50Z", "copyright": "The data included in this document is from www.openstreetmap.org. The data is made available under ODbL."}, "elements": [{"type": "node", "id": 330032185, "lat": 53.5186872, "lon": 49.2711876}, {"type": "node", "id": 330032190, "lat": 53.5175911, "lon": 49.2709002}, {"type": "node", "id": 330032193, "lat": 53.5174022, "lon": 49.2729383}, {"type": "node", "id": 330032194, "lat": 53.5184981, "lon": 49.2732281}, {"type": "node", "id": 1398721515, "lat": 53.5181784, "lon": 49.2731443}, {"type": "node", "id": 1398721526, "lat": 53.5180086, "lon": 49.2730982}, {"type": "node", "id": 1398721557, "lat": 53.5177288, "lon": 49.2730233}, {"type": "node", "id": 1398721723, "lat": 53.517572, "lon": 49.2729828}, {"type": "way", "id": 29979750, "nodes": [330032185, 330032190, 330032193, 1398721723, 1398721557, 1398721526, 1398721515, 330032194, 330032185], "tags": {"addr:city": "\u0422\u043e\u043b\u044c\u044f\u0442\u0442\u0438", "addr:country": "RU", "addr:housenumber": "52\u0410", "addr:postcode": "445028", "addr:street": "\u0420\u0435\u0432\u043e\u043b\u044e\u0446\u0438\u043e\u043d\u043d\u0430\u044f \u0443\u043b\u0438\u0446\u0430", "building": "retail", "contact:phone": "+7(8482)685121", "name": "\u0422\u0426 \"\u0420\u0443\u0441\u044c \u043d\u0430 \u0412\u043e\u043b\u0433\u0435\"", "opening_hours": "10:00-21:00", "shop": "mall", "website": "http://tlt.russ-na-volge.ru/"}}]}