{"version": 0.6, "generator": "Overpass API 0.7.62.1 084b4234", "osm3s": {"timestamp_osm_base": "2024-05-14T00:25:19Z", "copyright": "The data included in this document is from www.openstreetmap.org. The data is made available under ODbL."}, "elements": [{"type": "node", "id": 1015965221, "lat": 62.0322941, "lon": 129.7198625}, {"type": "node", "id": 1015965802, "lat": 62.0323878, "lon": 129.719511}, {"type": "node", "id": 1015966115, "lat": 62.0321856, "lon": 129.7204053}, {"type": "node", "id": 1015967225, "lat": 62.0318451, "lon": 129.7196296}, {"type": "node", "id": 1015967373, "lat": 62.0322556, "lon": 129.7197747}, {"type": "node", "id": 1015967783, "lat": 62.0319496, "lon": 129.7194211}, {"type": "node", "id": 1015968391, "lat": 62.0325026, "lon": 129.7197727}, {"type": "node", "id": 1015968598, "lat": 62.0322137, "lon": 129.7200229}, {"type": "way", "id": 87366508, "nodes": [1015967783, 1015968598, 1015965221, 1015967373, 1015965802, 1015968391, 1015966115, 1015967225, 1015967783], "tags": {"addr:city": "\u042f\u043a\u0443\u0442\u0441\u043a", "addr:housenumber": "25", "addr:postcode": "677027", "addr:street": "\u0443\u043b\u0438\u0446\u0430 \u041a\u0438\u0440\u043e\u0432\u0430", "amenity": "theatre", "building": "yes", "email": "smekh@inbox.ru", "name": "\u0422\u0435\u0430\u0442\u0440 \u044e\u043d\u043e\u0433\u043e \u0437\u0440\u0438\u0442\u0435\u043b\u044f", "name:en": "Young Spectator's Theatre", "opening_hours": "Mo-Fr 10:00-18:00", "operator": "\u0413\u0411\u0423 \u0420\u0421(\u042f) \u00ab\u0422\u0435\u0430\u0442\u0440 \u044e\u043d\u043e\u0433\u043e \u0437\u0440\u0438\u0442\u0435\u043b\u044f\u00bb", "phone": "+7 411 235-07-82", "ref:mkrf_theaters": "32000", "website": "https://www.tuz.ykt.ru/"}}]}