{"version": 0.6, "generator": "Overpass API 0.7.62.1 084b4234", "osm3s": {"timestamp_osm_base": "2024-05-14T12:13:25Z", "copyright": "The data included in this document is from www.openstreetmap.org. The data is made available under ODbL."}, "elements": [{"type": "node", "id": 3894063400, "lat": 55.0080264, "lon": 73.3445208, "tags": {"addr:postcode": "644033", "amenity": "pharmacy", "check_date:opening_hours": "2022-07-13", "contact:vk": "farmakopeika", "name": "\u0424\u0430\u0440\u043c\u0430\u043a\u043e\u043f\u0435\u0439\u043a\u0430", "opening_hours": "Mo-Su 08:00-21:00", "phone": "+7 800 200 97 07", "website": "https://farmakopeika.ru", "wheelchair": "limited"}}, {"type": "node", "id": 7213282642, "lat": 55.0082239, "lon": 73.345309, "tags": {"amenity": "pharmacy", "contact:vk": "farmakopeika", "name": "\u0424\u0430\u0440\u043c\u0430\u043a\u043e\u043f\u0435\u0439\u043a\u0430", "opening_hours": "Mo-Su 09:00-21:00", "phone": "+7 800 200 97 07", "website": "https://farmakopeika.ru/", "wheelchair": "no"}}, {"type": "node", "id": 7213282648, "lat": 55.0080509, "lon": 73.3449427, "tags": {"amenity": "pharmacy", "name": "\u0410\u043f\u0442\u0435\u043a\u0430 24", "opening_hours": "08:00-21:00", "operator": "\u0418\u041f \u0421\u0430\u0447\u043a\u043e\u0432\u0430"}}, {"type": "node", "id": 7213282649, "lat": 55.0080023, "lon": 73.3448397, "tags": {"addr:postcode": "644033", "amenity": "pharmacy", "contact:vk": "aptekipluc", "name": "\u0410\u043f\u0442\u0435\u043a\u0430\u041f\u043b\u044e\u0441", "opening_hours": "Mo-Su 08:00-21:00", "operator": "\u041e\u041e\u041e \u0420\u0430\u0439\u0442", "phone": "+7 3812 95 60 39", "website": "https://aptekiplus.ru/", "wheelchair": "no"}}, {"type": "node", "id": 11502466170, "lat": 55.0081438, "lon": 73.3451263, "tags": {"addr:postcode": "644033", "amenity": "pharmacy", "contact:vk": "aptekaaprel", "name": "\u0410\u043f\u0440\u0435\u043b\u044c", "opening_hours": "Mo-Su 08:00-22:00", "phone": "+7 918 200 90 01", "website": "https://apteka-april.ru"}}]}