{"version": 0.6, "generator": "Overpass API 0.7.62.1 084b4234", "osm3s": {"timestamp_osm_base": "2024-05-17T08:30:30Z", "copyright": "The data included in this document is from www.openstreetmap.org. The data is made available under ODbL."}, "elements": [{"type": "node", "id": 598558484, "lat": 55.4630446, "lon": 65.2661132}, {"type": "node", "id": 598558485, "lat": 55.4629406, "lon": 65.2662177}, {"type": "node", "id": 598558491, "lat": 55.4631877, "lon": 65.2665561}, {"type": "node", "id": 598558492, "lat": 55.4630837, "lon": 65.2666606}, {"type": "node", "id": 1305947861, "lat": 55.4631128, "lon": 65.2664808, "tags": {"amenity": "cafe"}}, {"type": "way", "id": 46881193, "nodes": [598558484, 598558491, 598558492, 598558485, 598558484], "tags": {"addr:city": "\u041a\u0443\u0440\u0433\u0430\u043d", "addr:country": "RU", "addr:housenumber": "30\u0410", "addr:place": "3-\u0439 \u043c\u0438\u043a\u0440\u043e\u0440\u0430\u0439\u043e\u043d", "addr:postcode": "640023", "amenity": "cafe", "building": "yes", "building:levels": "1", "name": "\u0421\u043a\u043e\u0432\u043e\u0440\u043e\u0434\u043a\u0430 \u0417\u0430\u043e\u0437\u0435\u0440\u043d\u044b\u0439"}}]}