{"version": 0.6, "generator": "Overpass API 0.7.62.1 084b4234", "osm3s": {"timestamp_osm_base": "2024-05-16T16:45:58Z", "copyright": "The data included in this document is from www.openstreetmap.org. The data is made available under ODbL."}, "elements": [{"type": "node", "id": 993641981, "lat": 58.221907, "lon": 68.283258}, {"type": "node", "id": 993642433, "lat": 58.2219077, "lon": 68.2836809}, {"type": "node", "id": 993642843, "lat": 58.2218456, "lon": 68.2832584}, {"type": "node", "id": 5186495250, "lat": 58.2228038, "lon": 68.2823109, "tags": {"alt_name": "\u0410\u043f\u0442\u0435\u043a\u0430", "amenity": "pharmacy", "check_date:opening_hours": "2021-05-24", "contact:website": "https://farmakopeika.ru/", "healthcare": "pharmacy", "name": "\u0424\u0430\u0440\u043c\u0430\u043a\u043e\u043f\u0435\u0439\u043a\u0430", "opening_hours": "Mo-Su 08:00-21:00"}}, {"type": "node", "id": 5192802942, "lat": 58.2227315, "lon": 68.2831734, "tags": {"alt_name": "\u0410\u043f\u0442\u0435\u043a\u0430", "amenity": "pharmacy", "brand": "\u0416\u0438\u0432\u0438\u043a\u0430", "healthcare": "pharmacy", "name": "\u0416\u0438\u0432\u0438\u043a\u0430", "opening_hours": "Mo-Su 08:00-21:00"}}, {"type": "node", "id": 5286991382, "lat": 58.2229088, "lon": 68.2816787, "tags": {"alt_name": "\u0410\u043f\u0442\u0435\u043a\u0430", "amenity": "pharmacy", "contact:email": "info@b-apteka.ru", "contact:phone": "+7 800 7004455;+7 800 7009119", "contact:website": "https://b-apteka.ru", "healthcare": "pharmacy", "name": "\u0424\u0430\u0440\u043c\u0430\u0438\u043c\u043f\u0435\u043a\u0441", "name:ru": "\u0424\u0430\u0440\u043c\u0430\u0438\u043c\u043f\u0435\u043a\u0441", "opening_hours": "Mo-Su 08:00-21:30"}}, {"type": "node", "id": 6054245209, "lat": 58.2218411, "lon": 68.2817184, "tags": {"alt_name": "\u0410\u043f\u0442\u0435\u043a\u0430", "amenity": "pharmacy", "healthcare": "pharmacy", "noname": "yes"}}, {"type": "node", "id": 10727278207, "lat": 58.2218463, "lon": 68.2836815}, {"type": "way", "id": 85646185, "nodes": [993642843, 993641981, 993642433, 10727278207]}, {"type": "way", "id": 1153416798, "nodes": [993642843, 10727278207]}, {"type": "relation", "id": 14222356, "members": [{"type": "way", "ref": 1153416798, "role": "outer"}, {"type": "way", "ref": 85646185, "role": "outer"}], "tags": {"addr:city": "\u0422\u043e\u0431\u043e\u043b\u044c\u0441\u043a", "addr:country": "RU", "addr:housenumber": "53/1", "addr:place": "4-\u0439 \u043c\u0438\u043a\u0440\u043e\u0440\u0430\u0439\u043e\u043d", "addr:quarter": "4-\u0439 \u043c\u0438\u043a\u0440\u043e\u0440\u0430\u0439\u043e\u043d", "amenity": "pharmacy", "building": "yes", "building:levels": "1", "drive_through": "no", "name": "\u0410\u043f\u0442\u0435\u043a\u0430 \u2116206", "opening_hours": "Mo-Fr 07:30-21:00; Sa, Su 09:00-17:00", "type": "multipolygon"}}]}