{"version": 0.6, "generator": "Overpass API 0.7.62.1 084b4234", "osm3s": {"timestamp_osm_base": "2024-05-18T00:27:30Z", "copyright": "The data included in this document is from www.openstreetmap.org. The data is made available under ODbL."}, "elements": [{"type": "node", "id": 6550950857, "lat": 55.8053875, "lon": 37.5900412}, {"type": "node", "id": 6550950858, "lat": 55.8055164, "lon": 37.5899378}, {"type": "node", "id": 6550950859, "lat": 55.8053321, "lon": 37.5892105}, {"type": "node", "id": 6550950860, "lat": 55.8052031, "lon": 37.589314}, {"type": "node", "id": 9986451450, "lat": 55.8052953, "lon": 37.5896776, "tags": {"access": "private", "addr:flats": "1-407", "entrance": "staircase", "ref": "1"}}, {"type": "way", "id": 697552959, "nodes": [6550950860, 6550950859, 6550950858, 6550950857, 9986451450, 6550950860], "tags": {"addr:city": "\u041c\u043e\u0441\u043a\u0432\u0430", "addr:country": "RU", "addr:housenumber": "2 \u043a1\u0410", "addr:postcode": "127015", "addr:street": "\u041d\u043e\u0432\u043e\u0434\u043c\u0438\u0442\u0440\u043e\u0432\u0441\u043a\u0430\u044f \u0443\u043b\u0438\u0446\u0430", "building": "apartments", "building:colour": "tomato", "building:flats": "407", "building:levels": "38", "name": "Whiteman", "roof:colour": "gray", "start_date": "2021-04-30"}}]}