{"version": 0.6, "generator": "Overpass API 0.7.62.1 084b4234", "osm3s": {"timestamp_osm_base": "2024-05-14T10:20:29Z", "copyright": "The data included in this document is from www.openstreetmap.org. The data is made available under ODbL."}, "elements": [{"type": "node", "id": 3908631118, "lat": 55.7898877, "lon": 49.1233484, "tags": {"addr:floor": "1", "amenity": "fast_food", "brand": "Coffee Time", "brand:wikidata": "Q5140932", "check_date": "2022-09-23", "cuisine": "coffee_shop", "level": "0", "name": "Coffee Time", "opening_hours": "Mo-Sa 07:00-20:00; Su 10:00-20:00", "operator": "\u0418\u041f \u0424\u0440\u0430\u043d\u043a\u043e\u0432 \u0410. \u0412.", "takeaway": "yes", "wheelchair": "no"}}, {"type": "node", "id": 6944531885, "lat": 55.7897533, "lon": 49.1232666, "tags": {"amenity": "fast_food", "check_date": "2022-09-23", "contact:instagram": "https://instagram.com/thesoupstation", "contact:phone": "+7 843 2072729;+7 966 1215326", "contact:website": "https://soupstation.info/", "name": "\u0421\u0443\u043f\u0441\u0442\u0430\u043d\u0446\u0438\u044f", "opening_hours": "Mo-Su 10:00-20:00", "operator": "\u041e\u041e\u041e \"\u0413\u0443\u0434\u043c\u0438\u043b\"", "wheelchair": "no"}}, {"type": "node", "id": 8479421417, "lat": 55.7884207, "lon": 49.123283, "tags": {"addr:floor": "1", "amenity": "fast_food", "check_date": "2023-03-26", "contact:website": "https://kstb.cafe/", "cuisine": "regional", "level": "0", "name": "\u041a\u044b\u0441\u0442\u044b\u0431\u044b\u0439", "name:en": "KSTB tatar food", "opening_hours": "Mo-Su 08:00-22:00", "operator": "\u0418\u041f \u041d\u0430\u0437\u043c\u0443\u0442\u0434\u0438\u043d\u043e\u0432 \u0410\u0437\u0430\u0442 \u0424\u043e\u0430\u0442\u043e\u0432\u0438\u0447", "wheelchair": "limited"}}, {"type": "node", "id": 9789086964, "lat": 55.7892645, "lon": 49.1246157, "tags": {"addr:floor": "1", "amenity": "fast_food", "check_date": "2022-08-25", "level": "0", "name": "\u0423 \u041f\u0430\u043b\u044b\u0447\u0430", "opening_hours": "09:00-21:00", "operator": "\u0418\u041f \u0423\u0441\u043c\u0430\u043d\u043e\u0432\u0430 \u0420. \u0413.", "wheelchair": "no"}}, {"type": "node", "id": 11828563056, "lat": 55.7888507, "lon": 49.1236076, "tags": {"addr:floor": "1", "amenity": "fast_food", "check_date": "2024-04-18", "level": "0", "name": "\u0428\u0435\u0439\u0445-\u0431\u0443\u0440\u0433\u0435\u0440", "name:ru": "\u0428\u0435\u0439\u0445-\u0431\u0443\u0440\u0433\u0435\u0440"}}]}