{"version": 0.6, "generator": "Overpass API 0.7.62.1 084b4234", "osm3s": {"timestamp_osm_base": "2024-05-17T17:04:40Z", "copyright": "The data included in this document is from www.openstreetmap.org. The data is made available under ODbL."}, "elements": [{"type": "node", "id": 5847446806, "lat": 59.9304125, "lon": 30.3601596, "tags": {"amenity": "fast_food", "brand": "One Price Coffee", "brand:wikidata": "Q108215010", "check_date": "2022-12-19", "contact:email": "b2b@onepricecoffee.com", "contact:phone": "+7 495 0153150", "contact:website": "https://onepricecoffee.com/", "cuisine": "coffee_shop", "name": "One Price Coffee", "opening_hours": "Mo-Su 07:00-23:00", "takeaway": "yes"}}, {"type": "node", "id": 6204086343, "lat": 59.9294447, "lon": 30.3622754, "tags": {"amenity": "fast_food", "brand": "Subway", "brand:wikidata": "Q244457", "brand:wikipedia": "en:Subway (restaurant)", "check_date": "2024-03-13", "contact:website": "https://www.subway.ru", "cuisine": "sandwich", "internet_access": "no", "name": "Subway", "payment:cash": "yes", "payment:jcb": "yes", "payment:maestro": "yes", "payment:mastercard": "yes", "payment:mir": "yes", "payment:unionpay": "yes", "payment:visa": "yes", "payment:visa_electron": "yes", "smoking": "no", "source": "local knowledge", "takeaway": "yes", "wheelchair": "yes"}}, {"type": "node", "id": 6952873765, "lat": 59.9299679, "lon": 30.3623891, "tags": {"amenity": "fast_food", "brand": "\u0411\u0443\u0440\u0433\u0435\u0440 \u041a\u0438\u043d\u0433", "brand:en": "Burger King", "brand:ru": "\u0411\u0443\u0440\u0433\u0435\u0440 \u041a\u0438\u043d\u0433", "brand:wikidata": "Q177054", "brand:wikipedia": "en:Burger King", "check_date": "2024-03-13", "contact:email": "FeedBack@burgerking.ru", "contact:phone": "+7 495 5445000", "contact:website": "https://burgerkingrus.ru/", "cuisine": "burger", "drive_through": "no", "name": "\u0411\u0443\u0440\u0433\u0435\u0440 \u041a\u0438\u043d\u0433", "name:en": "Burger King", "name:ru": "\u0411\u0443\u0440\u0433\u0435\u0440 \u041a\u0438\u043d\u0433", "opening_hours": "Mo-Su 05:00-01:00", "operator": "\u0411\u0423\u0420\u0413\u0415\u0420 \u0420\u0423\u0421", "outdoor_seating": "no", "payment:cash": "yes", "payment:jcb": "yes", "payment:maestro": "yes", "payment:mastercard": "yes", "payment:mir": "yes", "payment:sbp": "yes", "payment:unionpay": "yes", "payment:visa": "yes", "payment:visa_electron": "yes", "smoking": "no", "source": "local knowledge", "takeaway": "yes", "wheelchair": "yes"}}, {"type": "node", "id": 9231902500, "lat": 59.929349, "lon": 30.3612679}, {"type": "node", "id": 9231902501, "lat": 59.9293559, "lon": 30.3613496}, {"type": "node", "id": 9739242353, "lat": 59.9295473, "lon": 30.3625162, "tags": {"amenity": "fast_food", "brand": "\u0412\u043a\u0443\u0441\u043d\u043e \u2014 \u0438 \u0442\u043e\u0447\u043a\u0430", "brand:en": "Vkusno i tochka", "brand:ru": "\u0412\u043a\u0443\u0441\u043d\u043e \u2014 \u0438 \u0442\u043e\u0447\u043a\u0430", "brand:wikidata": "Q112406961", "check_date": "2024-03-13", "contact:email": "info@qsrsystem.ru", "contact:vk": "https://vk.com/vkusno_itochka", "contact:website": "https://vkusnoitochka.ru", "cuisine": "burger", "drive_through": "no", "name": "\u0412\u043a\u0443\u0441\u043d\u043e \u2014 \u0438 \u0442\u043e\u0447\u043a\u0430", "name:en": "Vkusno i tochka", "name:ru": "\u0412\u043a\u0443\u0441\u043d\u043e \u2014 \u0438 \u0442\u043e\u0447\u043a\u0430", "old_name": "\u041c\u0430\u043a\u0434\u043e\u043d\u0430\u043b\u0434\u0441", "old_name:en": "McDonald\u2019s", "outdoor_seating": "no", "payment:jcb": "yes", "payment:maestro": "yes", "payment:mastercard": "yes", "payment:unionpay": "yes", "payment:visa": "yes", "payment:visa_electron": "yes", "smoking": "no", "source": "local knowledge", "takeaway": "yes", "wheelchair": "yes"}}, {"type": "node", "id": 11010896154, "lat": 59.9305112, "lon": 30.3637377, "tags": {"amenity": "fast_food", "brand": "\u0421\u0443\u0448\u0438\u0448\u043e\u043f", "brand:en": "Sushishop", "brand:ru": "\u0421\u0443\u0448\u0438\u0448\u043e\u043f", "brand:wikidata": "Q104003006", "cuisine": "sushi", "name": "\u0421\u0443\u0448\u0438\u0448\u043e\u043f", "name:en": "Sushishop", "name:ru": "\u0421\u0443\u0448\u0438\u0448\u043e\u043f", "takeaway": "yes"}}, {"type": "node", "id": 11276246769, "lat": 59.9294433, "lon": 30.3613122}, {"type": "node", "id": 11276246770, "lat": 59.9294371, "lon": 30.3612383}, {"type": "node", "id": 11276246771, "lat": 59.929444, "lon": 30.36132}, {"type": "way", "id": 1000122040, "nodes": [9231902500, 9231902501, 11276246771, 11276246769, 11276246770, 9231902500], "tags": {"amenity": "fast_food", "building": "retail", "building:levels": "1"}}]}