{"version": 0.6, "generator": "Overpass API 0.7.62.1 084b4234", "osm3s": {"timestamp_osm_base": "2024-05-14T07:20:15Z", "copyright": "The data included in this document is from www.openstreetmap.org. The data is made available under ODbL."}, "elements": [{"type": "node", "id": 1708576553, "lat": 44.6353662, "lon": 40.7271261}, {"type": "node", "id": 1708576575, "lat": 44.6354254, "lon": 40.7269446}, {"type": "node", "id": 1708576589, "lat": 44.6354852, "lon": 40.7272029}, {"type": "node", "id": 1708576596, "lat": 44.6355445, "lon": 40.7270214}, {"type": "node", "id": 1989136815, "lat": 44.6354307, "lon": 40.7271697}, {"type": "way", "id": 158700911, "nodes": [1708576596, 1708576575, 1708576553, 1989136815, 1708576589, 1708576596], "tags": {"addr:city": "\u041b\u0430\u0431\u0438\u043d\u0441\u043a", "addr:country": "RU", "addr:district": "\u041b\u0430\u0431\u0438\u043d\u0441\u043a\u0438\u0439 \u0440\u0430\u0439\u043e\u043d", "addr:housenumber": "166", "addr:region": "\u041a\u0440\u0430\u0441\u043d\u043e\u0434\u0430\u0440\u0441\u043a\u0438\u0439 \u043a\u0440\u0430\u0439", "addr:street": "\u0443\u043b\u0438\u0446\u0430 \u041b\u0435\u043d\u0438\u043d\u0430", "amenity": "pharmacy", "building": "yes", "dispensing": "no", "healthcare": "pharmacy", "name": "\u041f\u0430\u043d\u0430\u0446\u0435\u044f"}}]}