{"version": 0.6, "generator": "Overpass API 0.7.62.1 084b4234", "osm3s": {"timestamp_osm_base": "2024-05-14T00:47:01Z", "copyright": "The data included in this document is from www.openstreetmap.org. The data is made available under ODbL."}, "elements": [{"type": "node", "id": 1655904697, "lat": 54.3718836, "lon": 48.5835332}, {"type": "node", "id": 1655904704, "lat": 54.3723179, "lon": 48.5836431}, {"type": "node", "id": 1655904710, "lat": 54.3717211, "lon": 48.5840535}, {"type": "node", "id": 1655904714, "lat": 54.372107, "lon": 48.5835841}, {"type": "node", "id": 1655904715, "lat": 54.3717008, "lon": 48.5844344}, {"type": "node", "id": 1655904719, "lat": 54.3717398, "lon": 48.5837021}, {"type": "node", "id": 7837029429, "lat": 54.3718953, "lon": 48.584185, "tags": {"entrance": "yes"}}, {"type": "node", "id": 7837029430, "lat": 54.372156, "lon": 48.5838508, "tags": {"entrance": "yes"}}, {"type": "node", "id": 7837029431, "lat": 54.371618, "lon": 48.58426}, {"type": "node", "id": 7837029432, "lat": 54.3717398, "lon": 48.5840884}, {"type": "node", "id": 7837029433, "lat": 54.3722133, "lon": 48.5834473}, {"type": "way", "id": 152815268, "nodes": [1655904704, 7837029430, 7837029429, 1655904715, 7837029431, 7837029432, 1655904710, 1655904719, 1655904697, 1655904714, 7837029433, 1655904704], "tags": {"addr:city": "\u0423\u043b\u044c\u044f\u043d\u043e\u0432\u0441\u043a", "addr:housenumber": "5\u0410", "addr:postcode": "432067", "addr:street": "\u0423\u043b\u044c\u044f\u043d\u043e\u0432\u0441\u043a\u0438\u0439 \u043f\u0440\u043e\u0441\u043f\u0435\u043a\u0442", "building": "retail", "name": "\u0414\u0410", "shop": "mall"}}]}