{"version": 0.6, "generator": "Overpass API 0.7.62.1 084b4234", "osm3s": {"timestamp_osm_base": "2024-05-17T07:02:00Z", "copyright": "The data included in this document is from www.openstreetmap.org. The data is made available under ODbL."}, "elements": [{"type": "node", "id": 393062941, "lat": 53.3363687, "lon": 83.6756329}, {"type": "node", "id": 393062942, "lat": 53.3363382, "lon": 83.6759667}, {"type": "node", "id": 393062943, "lat": 53.3371278, "lon": 83.6758269}, {"type": "node", "id": 393062944, "lat": 53.3371103, "lon": 83.6760192}, {"type": "node", "id": 393062945, "lat": 53.3364543, "lon": 83.6759964}, {"type": "node", "id": 393062946, "lat": 53.3364672, "lon": 83.6758549}, {"type": "way", "id": 34276447, "nodes": [393062944, 393062943, 393062941, 393062942, 393062945, 393062946, 393062944], "tags": {"addr:city": "\u0411\u0430\u0440\u043d\u0430\u0443\u043b", "addr:country": "RU", "addr:housenumber": "44", "addr:region": "\u0410\u043b\u0442\u0430\u0439\u0441\u043a\u0438\u0439 \u043a\u0440\u0430\u0439", "addr:street": "\u0443\u043b\u0438\u0446\u0430 \u0428\u0443\u043c\u0430\u043a\u043e\u0432\u0430", "building": "residential", "building:levels": "9", "height": "20"}}]}