{"version": 0.6, "generator": "Overpass API 0.7.62.1 084b4234", "osm3s": {"timestamp_osm_base": "2024-05-17T02:25:05Z", "copyright": "The data included in this document is from www.openstreetmap.org. The data is made available under ODbL."}, "elements": [{"type": "node", "id": 1328709300, "lat": 57.0021613, "lon": 40.9819275}, {"type": "node", "id": 1328709313, "lat": 57.0023378, "lon": 40.9818932}, {"type": "node", "id": 1328709798, "lat": 57.0022589, "lon": 40.9817483}, {"type": "node", "id": 1328709817, "lat": 57.0022402, "lon": 40.9820724}, {"type": "node", "id": 1586565237, "lat": 57.0016192, "lon": 40.9819791}, {"type": "node", "id": 1586565244, "lat": 57.0016896, "lon": 40.9821045}, {"type": "node", "id": 1586565246, "lat": 57.0017916, "lon": 40.9816522}, {"type": "node", "id": 1586565252, "lat": 57.0018652, "lon": 40.9817781}, {"type": "way", "id": 118064748, "nodes": [1328709313, 1328709817, 1328709300, 1328709798, 1328709313], "tags": {"addr:city": "\u0418\u0432\u0430\u043d\u043e\u0432\u043e", "addr:country": "RU", "addr:housenumber": "25", "addr:region": "\u0418\u0432\u0430\u043d\u043e\u0432\u0441\u043a\u0430\u044f \u043e\u0431\u043b\u0430\u0441\u0442\u044c", "addr:street": "\u041a\u0440\u0443\u0442\u0438\u0446\u043a\u0430\u044f \u0443\u043b\u0438\u0446\u0430", "building": "commercial", "building:levels": "2", "source": "BING"}}, {"type": "way", "id": 145225713, "nodes": [1586565252, 1586565244, 1586565237, 1586565246, 1586565252], "tags": {"addr:city": "\u0418\u0432\u0430\u043d\u043e\u0432\u043e", "addr:country": "RU", "addr:housenumber": "20\u0410", "addr:region": "\u0418\u0432\u0430\u043d\u043e\u0432\u0441\u043a\u0430\u044f \u043e\u0431\u043b\u0430\u0441\u0442\u044c", "addr:street": "\u041a\u0440\u0443\u0442\u0438\u0446\u043a\u0430\u044f \u0443\u043b\u0438\u0446\u0430", "building": "commercial", "building:levels": "3", "source": "BING"}}]}