{"version": 0.6, "generator": "Overpass API 0.7.62.1 084b4234", "osm3s": {"timestamp_osm_base": "2024-05-18T01:24:44Z", "copyright": "The data included in this document is from www.openstreetmap.org. The data is made available under ODbL."}, "elements": [{"type": "node", "id": 2012398287, "lat": 54.6740074, "lon": 20.5017135}, {"type": "node", "id": 2012398295, "lat": 54.6738924, "lon": 20.5017136}, {"type": "node", "id": 4406687464, "lat": 54.6738924, "lon": 20.5021024}, {"type": "node", "id": 4406687482, "lat": 54.6740142, "lon": 20.5021023}, {"type": "node", "id": 4491194156, "lat": 54.6738923, "lon": 20.5019212, "tags": {"addr:city": "\u041a\u0430\u043b\u0438\u043d\u0438\u043d\u0433\u0440\u0430\u0434", "addr:country": "RU", "addr:housenumber": "3", "addr:postcode": "236011", "addr:street": "\u0443\u043b\u0438\u0446\u0430 \u0423\u043b\u044c\u044f\u043d\u044b \u0413\u0440\u043e\u043c\u043e\u0432\u043e\u0439", "entrance": "main"}}, {"type": "node", "id": 4491195199, "lat": 54.6740074, "lon": 20.5017569}, {"type": "node", "id": 4491195200, "lat": 54.6740145, "lon": 20.5017569}, {"type": "node", "id": 4491195201, "lat": 54.674023, "lon": 20.5019741}, {"type": "node", "id": 4491195202, "lat": 54.674023, "lon": 20.5018843}, {"type": "node", "id": 4491195203, "lat": 54.6740142, "lon": 20.5019741}, {"type": "node", "id": 4491195204, "lat": 54.6740145, "lon": 20.5018843}, {"type": "way", "id": 443021462, "nodes": [2012398295, 4491194156, 4406687464, 4406687482, 4491195203, 4491195201, 4491195202, 4491195204, 4491195200, 4491195199, 2012398287, 2012398295], "tags": {"building": "apartments", "building:levels": "9"}}]}