{"version": 0.6, "generator": "Overpass API 0.7.62.1 084b4234", "osm3s": {"timestamp_osm_base": "2024-05-14T02:14:59Z", "copyright": "The data included in this document is from www.openstreetmap.org. The data is made available under ODbL."}, "elements": [{"type": "node", "id": 2484730018, "lat": 52.2282858, "lon": 104.3033139}, {"type": "node", "id": 2484730019, "lat": 52.2280439, "lon": 104.3028709}, {"type": "node", "id": 2484730020, "lat": 52.2267561, "lon": 104.3047831}, {"type": "node", "id": 2484730021, "lat": 52.2269737, "lon": 104.305224}, {"type": "node", "id": 3464873312, "lat": 52.2269566, "lon": 104.305144}, {"type": "node", "id": 3464873313, "lat": 52.2279443, "lon": 104.3030242}, {"type": "node", "id": 7014295081, "lat": 52.2273654, "lon": 104.3038811}, {"type": "node", "id": 7014304485, "lat": 52.2275169, "lon": 104.3036569}, {"type": "way", "id": 240768680, "nodes": [2484730018, 2484730019, 3464873313, 7014304485, 7014295081, 2484730020, 3464873312, 2484730021, 2484730018], "tags": {"addr:city": "\u0418\u0440\u043a\u0443\u0442\u0441\u043a", "addr:country": "RU", "addr:housenumber": "19/1", "addr:place": "\u042e\u0431\u0438\u043b\u0435\u0439\u043d\u044b\u0439 \u043c\u0438\u043a\u0440\u043e\u0440\u0430\u0439\u043e\u043d", "addr:postcode": "664056", "addr:region": "\u0418\u0440\u043a\u0443\u0442\u0441\u043a\u0430\u044f \u043e\u0431\u043b\u0430\u0441\u0442\u044c", "building": "commercial", "building:levels": "5", "name": "\u042e\u0431\u0438\u043b\u0435\u0439\u043d\u044b\u0439", "shop": "mall"}}]}