{"version": 0.6, "generator": "Overpass API 0.7.62.1 084b4234", "osm3s": {"timestamp_osm_base": "2024-05-14T07:17:15Z", "copyright": "The data included in this document is from www.openstreetmap.org. The data is made available under ODbL."}, "elements": [{"type": "node", "id": 2006463479, "lat": 55.7895789, "lon": 37.7484523, "tags": {"amenity": "fast_food", "brand": "Subway", "brand:wikidata": "Q244457", "brand:wikipedia": "ru:Subway (\u0441\u0435\u0442\u044c \u0440\u0435\u0441\u0442\u043e\u0440\u0430\u043d\u043e\u0432)", "contact:email": "subway@subway.ru", "contact:vk": "https://vk.com/subwayrussia", "contact:website": "http://subway.ru", "cuisine": "sandwich", "diet:vegetarian": "no", "name": "Subway", "name:en": "Subway", "takeaway": "yes"}}, {"type": "node", "id": 2006884276, "lat": 55.7885183, "lon": 37.7482939, "tags": {"amenity": "fast_food", "check_date": "2022-05-03", "cuisine": "chicken", "inscription": "\u041a\u0443\u0440\u0430-\u0433\u0440\u0438\u043b\u044c", "opening_hours": "24/7"}}, {"type": "node", "id": 3852137190, "lat": 55.7884454, "lon": 37.7482752, "tags": {"amenity": "fast_food", "brand": "\u0411\u0443\u0440\u0433\u0435\u0440 \u041a\u0438\u043d\u0433", "brand:wikidata": "Q177054", "brand:wikipedia": "ru:Burger King", "check_date": "2022-05-03", "contact:email": "info@burgerkingrus.ru", "contact:facebook": "https://www.facebook.com/BurgerKingRussia", "contact:instagram": "https://instagram.com/burgerking_russia", "contact:phone": "+7 495 5445000", "contact:vk": "https://vk.com/burgerking", "contact:website": "https://burgerkingrus.ru/", "cuisine": "burger", "diet:vegetarian": "no", "drive_through": "no", "internet_access": "wlan", "internet_access:fee": "no", "name": "\u0411\u0443\u0440\u0433\u0435\u0440 \u041a\u0438\u043d\u0433", "name:en": "Burger King", "opening_hours": "Mo-Su 05:00-02:00", "operator": "\u0411\u0423\u0420\u0413\u0415\u0420 \u0420\u0423\u0421", "operator:phone": "+7 495 5445000", "payment:cash": "yes", "payment:contactless": "yes", "payment:credit_cards": "yes", "payment:debit_cards": "yes", "payment:mastercard": "yes", "payment:visa": "yes", "ref": "282", "takeaway": "yes", "wheelchair": "limited"}}, {"type": "node", "id": 5072759322, "lat": 55.7892934, "lon": 37.7483393, "tags": {"amenity": "fast_food", "cuisine": "kebab;chicken", "name": "\u041a\u0443\u0440\u044b-\u0433\u0440\u0438\u043b\u044c \u0428\u0430\u0443\u0440\u043c\u0430"}}, {"type": "node", "id": 5599426033, "lat": 55.788657, "lon": 37.7493206, "tags": {"amenity": "fast_food", "name": "\u0411\u0438\u0441\u0442\u0440\u043e \"\u0412\u043a\u0443\u0441\u043d\u044b\u0439\""}}, {"type": "node", "id": 11397537898, "lat": 55.789214, "lon": 37.7487552, "tags": {"amenity": "fast_food", "contact:phone": "+7 916 6531482", "contact:website": "https://eazzypizza.ru", "name": "Eazzy Pizza & Gelato", "opening_hours": "Mo,Th-Su 11:00-00:00; Tu-We 11:00-23:00"}}, {"type": "node", "id": 11397746539, "lat": 55.7893512, "lon": 37.7487016, "tags": {"amenity": "fast_food", "contact:phone": "+7 916 6531482", "contact:website": "https://ramennaya.ru/restaurants", "name": "\u0420\u0430\u043c\u0435\u043d\u043d\u0430\u044f", "opening_hours": "Mo,Th-Su 11:00-00:00; Tu-We 11:00-23:00"}}, {"type": "node", "id": 11397763612, "lat": 55.7892095, "lon": 37.7487499, "tags": {"amenity": "fast_food", "contact:phone": "+7 916 6531482", "name": "Monkey Express", "opening_hours": "Mo,Th-Su 11:00-00:00; Tu-We 11:00-23:00"}}]}