{"version": 0.6, "generator": "Overpass API 0.7.62.1 084b4234", "osm3s": {"timestamp_osm_base": "2024-05-17T09:41:15Z", "copyright": "The data included in this document is from www.openstreetmap.org. The data is made available under ODbL."}, "elements": [{"type": "node", "id": 2081000612, "lat": 54.2701724, "lon": 48.2851819}, {"type": "node", "id": 2081000613, "lat": 54.2703304, "lon": 48.2845965}, {"type": "node", "id": 2081000617, "lat": 54.269758, "lon": 48.2841497}, {"type": "node", "id": 2081000618, "lat": 54.2695026, "lon": 48.2846364}, {"type": "node", "id": 3431546838, "lat": 54.2696138, "lon": 48.2842348}, {"type": "node", "id": 3433048458, "lat": 54.2701777, "lon": 48.2850832}, {"type": "node", "id": 3433048460, "lat": 54.2701957, "lon": 48.2850966}, {"type": "node", "id": 3433048462, "lat": 54.2702879, "lon": 48.2846722}, {"type": "node", "id": 3433048465, "lat": 54.2703066, "lon": 48.2846839}, {"type": "node", "id": 4960265413, "lat": 54.2695978, "lon": 48.2842927}, {"type": "node", "id": 4960265416, "lat": 54.2695753, "lon": 48.284374}, {"type": "node", "id": 10600786553, "lat": 54.2701602, "lon": 48.2851719, "tags": {"entrance": "main"}}, {"type": "way", "id": 197901182, "nodes": [2081000613, 2081000617, 3431546838, 4960265413, 4960265416, 2081000618, 10600786553, 2081000612, 3433048460, 3433048458, 3433048462, 3433048465, 2081000613], "tags": {"addr:city": "\u0423\u043b\u044c\u044f\u043d\u043e\u0432\u0441\u043a", "addr:country": "RU", "addr:housenumber": "106\u0410", "addr:postcode": "432066", "addr:street": "\u0443\u043b\u0438\u0446\u0430 \u0420\u044f\u0431\u0438\u043a\u043e\u0432\u0430", "building": "retail", "building:levels": "2", "name": "\u0414\u0410", "shop": "mall"}}]}