{"version": 0.6, "generator": "Overpass API 0.7.62.1 084b4234", "osm3s": {"timestamp_osm_base": "2024-05-14T02:10:57Z", "copyright": "The data included in this document is from www.openstreetmap.org. The data is made available under ODbL."}, "elements": [{"type": "node", "id": 3269233544, "lat": 53.2162752, "lon": 34.4200242}, {"type": "node", "id": 3269233545, "lat": 53.2163876, "lon": 34.4209255}, {"type": "node", "id": 3269233546, "lat": 53.2160889, "lon": 34.4213171}, {"type": "node", "id": 3269233547, "lat": 53.2158447, "lon": 34.4219661}, {"type": "node", "id": 3269233548, "lat": 53.2157869, "lon": 34.4219983}, {"type": "node", "id": 3269233549, "lat": 53.2154464, "lon": 34.4212902}, {"type": "node", "id": 3269233550, "lat": 53.2156295, "lon": 34.420212}, {"type": "way", "id": 320410546, "nodes": [3269233544, 3269233545, 3269233546, 3269233547, 3269233548, 3269233549, 3269233550, 3269233544], "tags": {"addr:city": "\u0411\u0440\u044f\u043d\u0441\u043a", "addr:housenumber": "49\u0412", "addr:street": "\u041c\u043e\u0441\u043a\u043e\u0432\u0441\u043a\u0438\u0439 \u043f\u0440\u043e\u0441\u043f\u0435\u043a\u0442", "building": "retail", "name": "\u0413\u0438\u043f\u0435\u0440\u043c\u0430\u0440\u043a\u0435\u0442 \u0415\u0432\u0440\u043e\u043f\u0430 46", "opening_hours": "09:00-23:00", "shop": "mall", "website": "http://europa-ts.ru/"}}]}