{"version": 0.6, "generator": "Overpass API 0.7.62.1 084b4234", "osm3s": {"timestamp_osm_base": "2024-05-17T11:42:15Z", "copyright": "The data included in this document is from www.openstreetmap.org. The data is made available under ODbL."}, "elements": [{"type": "node", "id": 5217407429, "lat": 56.4555849, "lon": 84.9517041, "tags": {"alt_name": "Kentucky Fried Chicken", "amenity": "fast_food", "brand": "KFC", "brand:wikidata": "Q524757", "brand:wikipedia": "en:KFC", "cuisine": "chicken", "name": "KFC", "opening_hours": "08:00-23:00", "phone": "+7 800 5558333-5705", "takeaway": "yes", "website": "https://www.kfc.ru/"}}, {"type": "node", "id": 5894027073, "lat": 56.4565224, "lon": 84.9516641, "tags": {"addr:city": "\u0422\u043e\u043c\u0441\u043a", "addr:housenumber": "1", "addr:street": "\u043f\u0440\u043e\u0441\u043f\u0435\u043a\u0442 \u041b\u0435\u043d\u0438\u043d\u0430", "amenity": "fast_food", "name": "\u0421\u0438\u0431\u0438\u0440\u0441\u043a\u0438\u0435 \u0431\u043b\u0438\u043d\u044b", "opening_hours": "Mo-Su 08:00-22:00"}}, {"type": "node", "id": 5934017765, "lat": 56.455524, "lon": 84.951703, "tags": {"addr:city": "\u0422\u043e\u043c\u0441\u043a", "addr:housenumber": "1\u0412", "addr:street": "\u043f\u0440\u043e\u0441\u043f\u0435\u043a\u0442 \u041b\u0435\u043d\u0438\u043d\u0430", "amenity": "fast_food", "contact:email": "hrmamadoma@gmail.com", "contact:phone": "+7 382 2550800;+7 382 2770800", "contact:website": "https://mama-ya-doma.ru/", "cuisine": "steak_house", "level": "2", "name": "\u041c\u0430\u043c\u0430, \u044f \u0434\u043e\u043c\u0430!", "opening_hours": "Fr-Sa 12:00-01:00; Mo-Th,Su 12:00-00:00"}}, {"type": "node", "id": 9318362911, "lat": 56.455922, "lon": 84.9517046, "tags": {"amenity": "fast_food", "name": "\u0428\u0430\u0443\u0440\u043c\u0430 \u0421\u0442\u0430\u043c\u0431\u0443\u043b"}}, {"type": "node", "id": 11001098452, "lat": 56.4558733, "lon": 84.9517071, "tags": {"amenity": "fast_food", "name": "\u0418\u043d\u0441\u0442\u0438\u0442\u0443\u0442 \u043f\u043b\u043e\u0432\u0430"}}]}