{"version": 0.6, "generator": "Overpass API 0.7.62.1 084b4234", "osm3s": {"timestamp_osm_base": "2024-05-16T18:58:25Z", "copyright": "The data included in this document is from www.openstreetmap.org. The data is made available under ODbL."}, "elements": [{"type": "node", "id": 2441420086, "lat": 55.7763117, "lon": 37.5815283, "tags": {"amenity": "fast_food", "name": "Lavash & vertel", "opening_hours": "24/7"}}, {"type": "node", "id": 2441420087, "lat": 55.7767789, "lon": 37.5811976, "tags": {"amenity": "fast_food", "cuisine": "kebab", "diet:vegetarian": "no", "name": "\u0414\u043e\u043d\u0435\u0440 42", "takeaway": "yes"}}, {"type": "node", "id": 3944284124, "lat": 55.7772602, "lon": 37.5817733, "tags": {"amenity": "fast_food", "cuisine": "crepe", "name": "\u0411\u043b\u0438\u043d\u043d\u0430\u044f"}}, {"type": "node", "id": 4207597016, "lat": 55.7770217, "lon": 37.5816954, "tags": {"addr:street": "\u043f\u043b\u043e\u0449\u0430\u0434\u044c \u0422\u0432\u0435\u0440\u0441\u043a\u0430\u044f \u0417\u0430\u0441\u0442\u0430\u0432\u0430", "amenity": "fast_food", "contact:instagram": "raketa.burger", "cuisine": "burger;sandwich;coffee_shop;breakfast", "email": "start@raketaburger.ru", "name": "\u0420\u0430\u043a\u0435\u0442\u0430", "name:en": "Raketa", "opening_hours": "Mo-Su 08:00-23:00", "operator": "\u0412\u0430\u0439\u043d \u044d\u043a\u0441\u043f\u0440\u0435\u0441\u0441", "payment:cash": "yes", "payment:maestro": "yes", "payment:mastercard": "yes", "payment:visa": "yes", "payment:visa_electron": "yes", "phone": "+7 499 1369196", "website": "http://raketaburger.ru"}}, {"type": "node", "id": 5326269775, "lat": 55.7764897, "lon": 37.5816046, "tags": {"amenity": "fast_food", "brand": "Subway", "brand:wikidata": "Q244457", "brand:wikipedia": "en:Subway (restaurant)", "contact:email": "subway@subway.ru", "contact:phone": "+7 800 5554449", "contact:vk": "https://vk.com/subwayrussia", "contact:website": "http://subway.ru", "cuisine": "sandwich", "diet:vegetarian": "no", "drive_through": "no", "name": "Subway", "name:en": "Subway", "outdoor_seating": "no", "takeaway": "yes"}}, {"type": "node", "id": 6821914865, "lat": 55.7761601, "lon": 37.5812023, "tags": {"amenity": "fast_food", "name": "\u0411\u0438\u0441\u0442\u0440\u043e24"}}, {"type": "node", "id": 7710157286, "lat": 55.7767698, "lon": 37.5815597, "tags": {"amenity": "fast_food", "brand": "\u0411\u0443\u0440\u0433\u0435\u0440 \u041a\u0438\u043d\u0433", "brand:en": "Burger King", "brand:ru": "\u0411\u0443\u0440\u0433\u0435\u0440 \u041a\u0438\u043d\u0433", "brand:wikidata": "Q177054", "contact:email": "info@burgerkingrus.ru", "contact:phone": "+7 495 5445000", "contact:vk": "https://vk.com/burgerking", "contact:website": "https://burgerkingrus.ru/", "cuisine": "burger", "name": "\u0411\u0443\u0440\u0433\u0435\u0440 \u041a\u0438\u043d\u0433", "name:en": "Burger King", "name:ru": "\u0411\u0443\u0440\u0433\u0435\u0440 \u041a\u0438\u043d\u0433", "opening_hours": "Fr 05:00-24:00; Mo-Tu,Th,Sa-Su 05:00-02:00; We 05:00-01:00", "takeaway": "yes"}}]}