{"version": 0.6, "generator": "Overpass API 0.7.62.1 084b4234", "osm3s": {"timestamp_osm_base": "2024-05-17T01:03:13Z", "copyright": "The data included in this document is from www.openstreetmap.org. The data is made available under ODbL."}, "elements": [{"type": "node", "id": 6037298885, "lat": 55.673732, "lon": 37.7603761, "tags": {"addr:postcode": "101 000", "amenity": "fast_food", "cuisine": "american", "name": "\u041c\u0430\u043a\u0434\u043e\u043d\u0430\u043b\u044c\u0434\u0441", "name:en": "McDonald's"}}, {"type": "node", "id": 9161050757, "lat": 55.6746242, "lon": 37.7606193, "tags": {"amenity": "fast_food", "cuisine": "shawarma"}}, {"type": "node", "id": 11185621589, "lat": 55.6738578, "lon": 37.760785, "tags": {"amenity": "fast_food", "contact:phone": "+7 800 3508418", "contact:website": "https://cofix.global", "cuisine": "coffee_shop", "name": "Cofix", "opening_hours": "Mo-Fr 07:30-21:00; Sa-Su 08:00-21:00"}}, {"type": "node", "id": 11222183587, "lat": 55.6742585, "lon": 37.7605146, "tags": {"amenity": "fast_food", "contact:email": "b2b@onepricecoffee.com", "contact:phone": "+7 495 0153150", "contact:website": "https://onepricecoffee.com", "cuisine": "coffee_shop", "name": "One Price Coffee", "opening_hours": "Mo-Fr 07:30-21:00; Sa-Su 08:00-21:00"}}, {"type": "node", "id": 11368500015, "lat": 55.6737257, "lon": 37.7601278, "tags": {"amenity": "fast_food", "contact:phone": "+7 495 1390200", "contact:website": "https://www.kartoshka.com", "cuisine": "potato", "name": "\u041a\u0440\u043e\u0448\u043a\u0430 \u041a\u0430\u0440\u0442\u043e\u0448\u043a\u0430", "opening_hours": "Mo-Su 10:00-23:00"}}]}