{"version": 0.6, "generator": "Overpass API 0.7.62.1 084b4234", "osm3s": {"timestamp_osm_base": "2024-05-17T22:33:44Z", "copyright": "The data included in this document is from www.openstreetmap.org. The data is made available under ODbL."}, "elements": [{"type": "node", "id": 2135437852, "lat": 55.769283, "lon": 37.6207988, "tags": {"amenity": "restaurant", "cuisine": "armenian", "name": "Lavash", "opening_hours": "Mo-Su 11:00-24:00", "website": "http://www.restoranlavash.ru"}}, {"type": "node", "id": 3246125626, "lat": 55.7694831, "lon": 37.620793, "tags": {"amenity": "restaurant", "contact:instagram": "https://www.instagram.com/spoki.rest", "name": "\u0421\u043f\u043e\u043a\u0438", "opening_hours": "Mo-Su 09:00-23:00"}}, {"type": "node", "id": 4053661921, "lat": 55.768912, "lon": 37.6204732, "tags": {"amenity": "restaurant", "contact:facebook": "https://www.facebook.com/\u0420\u0435\u0441\u0442\u043e\u0440\u0430\u043d-Valenok-1699510216961073", "contact:phone": "+7 499 2900215", "contact:website": "https://www.novikovgroup.ru/restaurants/valenok", "name": "Valenok", "operator": "Novikov Group"}}, {"type": "node", "id": 4883893475, "lat": 55.7692844, "lon": 37.6205209, "tags": {"amenity": "restaurant", "contact:facebook": "https://www.facebook.com/bubasushi", "contact:phone": "+7 499 4262592", "contact:website": "http://bubasushi.ru", "cuisine": "sushi", "name": "Buba by Sumosan", "opening_hours": "Mo-Su 09:00-21:00"}}, {"type": "node", "id": 7918395284, "lat": 55.7688471, "lon": 37.6208112, "tags": {"amenity": "restaurant", "brand": "\u0422\u0430\u043d\u0443\u043a\u0438", "brand:wikidata": "Q62758690", "contact:email": "T091_DLV@tanuki.ru", "contact:facebook": "https://www.facebook.com/tanuki.official/", "contact:instagram": "https://www.instagram.com/tanuki.official/", "contact:phone": "+7 499 6492223", "contact:twitter": "https://twitter.com/tanuki_rest", "contact:vk": "https://vk.com/tanuki.official", "contact:website": "https://tanukifamily.ru/tanuki/", "cuisine": "japanese", "name": "\u0422\u0430\u043d\u0443\u043a\u0438", "name:en": "Tanuki", "name:ru": "\u0422\u0430\u043d\u0443\u043a\u0438", "opening_hours": "Mo-Su 11:30-24:00", "operator": "\u0417\u041e\u0414\u0418\u0410\u041a"}}, {"type": "node", "id": 9885958897, "lat": 55.7697576, "lon": 37.6207843, "tags": {"amenity": "restaurant", "contact:phone": "+7 499 7556063", "contact:website": "http://www.varenichnaya.ru", "name": "\u0412\u0430\u0440\u0435\u043d\u0438\u0447\u043d\u0430\u044f \u21161", "name:en": "Varenichnaya #1"}}]}