{"version": 0.6, "generator": "Overpass API 0.7.62.1 084b4234", "osm3s": {"timestamp_osm_base": "2024-05-16T19:16:38Z", "copyright": "The data included in this document is from www.openstreetmap.org. The data is made available under ODbL."}, "elements": [{"type": "node", "id": 1182051297, "lat": 43.1172239, "lon": 131.8847321}, {"type": "node", "id": 1182051302, "lat": 43.1173143, "lon": 131.884668}, {"type": "node", "id": 1182051313, "lat": 43.1173982, "lon": 131.8846845}, {"type": "node", "id": 1182056690, "lat": 43.1172409, "lon": 131.8846736}, {"type": "node", "id": 1182056692, "lat": 43.1172748, "lon": 131.8846253}, {"type": "node", "id": 1182056693, "lat": 43.1174148, "lon": 131.8845926}, {"type": "node", "id": 4650953556, "lat": 43.1173563, "lon": 131.8845881}, {"type": "node", "id": 4650953557, "lat": 43.1173969, "lon": 131.8845874}, {"type": "node", "id": 5595892244, "lat": 43.117376, "lon": 131.8845878, "tags": {"entrance": "yes"}}, {"type": "node", "id": 5595892245, "lat": 43.1174046, "lon": 131.8846493, "tags": {"entrance": "yes"}}, {"type": "node", "id": 9963150047, "lat": 43.1171985, "lon": 131.8838708, "tags": {"amenity": "cafe", "check_date": "2022-08-19", "name": "Tao Asian street food"}}, {"type": "node", "id": 9963150048, "lat": 43.1172129, "lon": 131.8837563, "tags": {"amenity": "cafe", "check_date": "2022-08-19", "name": "Coffee shop"}}, {"type": "node", "id": 9963150050, "lat": 43.1174961, "lon": 131.8835275, "tags": {"amenity": "cafe", "check_date": "2022-08-19", "cuisine": "burger", "name": "\u0427\u0435\u043f\u0443\u0445\u0430", "opening_hours": "Mo-Su 11:00-23:00", "phone": "+7 423 2018300", "website": "https://taplink.cc/chepuha_vl"}}, {"type": "node", "id": 10845587850, "lat": 43.1171945, "lon": 131.8849951, "tags": {"amenity": "cafe", "contact:email": "samojar_cafe@mail.ru", "contact:phone": "+7 423 2002242;+7 924 7302242", "contact:website": "https://samojar.taplink.ws/", "name": "\u0414\u043d\u0451\u043c \u0441 \u043e\u0433\u043d\u0451\u043c", "opening_hours": "Fr-Sa 12:00-02:00; Mo-Th,Su 11:00-00:00"}}, {"type": "way", "id": 102377192, "nodes": [1182051313, 1182051302, 1182051297, 1182056690, 1182056692, 4650953556, 5595892244, 4650953557, 1182056693, 5595892245, 1182051313], "tags": {"addr:city": "\u0412\u043b\u0430\u0434\u0438\u0432\u043e\u0441\u0442\u043e\u043a", "addr:country": "RU", "addr:housenumber": "23\u0411", "addr:street": "\u0443\u043b\u0438\u0446\u0430 \u0410\u0434\u043c\u0438\u0440\u0430\u043b\u0430 \u0424\u043e\u043a\u0438\u043d\u0430", "amenity": "cafe", "building": "yes", "building:levels": "2", "cuisine": "sushi", "name": "\u0421\u0443\u0448\u0438"}}]}