{"version": 0.6, "generator": "Overpass API 0.7.62.1 084b4234", "osm3s": {"timestamp_osm_base": "2024-05-14T13:10:30Z", "copyright": "The data included in this document is from www.openstreetmap.org. The data is made available under ODbL."}, "elements": [{"type": "node", "id": 5051747922, "lat": 55.5660299, "lon": 38.2259698, "tags": {"alt_name": "Kentucky Fried Chicken", "amenity": "fast_food", "brand": "KFC", "brand:wikidata": "Q524757", "brand:wikipedia": "en:KFC", "contact:email": "yum-press@spncomms.com", "contact:facebook": "https://www.facebook.com/kfcrussia", "contact:instagram": "https://instagram.com/kfcrussia", "contact:ok": "https://ok.ru/kfcrussia", "contact:tumblr": "https://www.tumblr.com/blog/kfcrussia", "contact:twitter": "https://twitter.com/#!/kfcrussia", "contact:vk": "https://vk.com/kfcrussia", "contact:website": "https://www.kfc.ru", "contact:youtube": "https://www.youtube.com/KFCRussia", "cuisine": "chicken", "diet:vegetarian": "no", "name": "KFC", "name:en": "KFC", "opening_hours": "Mo-Fr 08:00-23:00; Sa-Su 09:00-23:00", "takeaway": "yes"}}, {"type": "node", "id": 5658979398, "lat": 55.5650778, "lon": 38.224755, "tags": {"amenity": "fast_food"}}, {"type": "node", "id": 8423332064, "lat": 55.5658262, "lon": 38.2269651, "tags": {"amenity": "fast_food", "brand": "\u0421\u0442\u0430\u0440\u0434\u043e\u0433!s", "brand:en": "Stardog!s", "brand:ru": "\u0421\u0442\u0430\u0440\u0434\u043e\u0433!s", "brand:wikidata": "Q4439856", "brand:wikipedia": "ru:\u0421\u0442\u0430\u0440\u0434\u043e\u0433\u0441", "contact:phone": "+7 967 2341876", "contact:website": "https://www.stardogs.ru/", "cuisine": "hot_dog", "name": "Stardogs", "name:en": "Stardogs", "opening_hours": "Mo-Su 10:00-22:00", "takeaway": "yes"}}, {"type": "node", "id": 10061331543, "lat": 55.565849, "lon": 38.226542, "tags": {"amenity": "fast_food", "brand": "One Price Coffee", "brand:wikidata": "Q108215010", "contact:email": "b2b@onepricecoffee.com", "contact:phone": "+7 495 0153150", "contact:website": "https://onepricecoffee.com/", "cuisine": "coffee_shop", "name": "One Price Coffee", "opening_hours": "Mo-Fr 07:30-22:00; Sa-Su 08:00-22:00", "takeaway": "yes"}}, {"type": "node", "id": 11505575643, "lat": 55.5661877, "lon": 38.2263912, "tags": {"amenity": "fast_food", "contact:phone": "+7 993 3590088", "contact:website": "https://cheburek.me/", "name": "\u0427\u0435\u0431\u0443\u0440\u0435\u043a\u041c\u0438", "opening_hours": "Mo-Sa 10:30-22:00; Su 10:30-20:00"}}]}