{"version": 0.6, "generator": "Overpass API 0.7.62.1 084b4234", "osm3s": {"timestamp_osm_base": "2024-05-17T08:31:30Z", "copyright": "The data included in this document is from www.openstreetmap.org. The data is made available under ODbL."}, "elements": [{"type": "node", "id": 1197143178, "lat": 54.1648742, "lon": 45.1501725}, {"type": "node", "id": 1197143868, "lat": 54.1653292, "lon": 45.1488236}, {"type": "node", "id": 1197144954, "lat": 54.1644886, "lon": 45.1497929}, {"type": "node", "id": 1197145422, "lat": 54.1649438, "lon": 45.1484442}, {"type": "node", "id": 4057319433, "lat": 54.1652323, "lon": 45.1491108, "tags": {"entrance": "yes"}}, {"type": "way", "id": 103691976, "nodes": [1197143868, 4057319433, 1197143178, 1197144954, 1197145422, 1197143868], "tags": {"addr:city": "\u0421\u0430\u0440\u0430\u043d\u0441\u043a", "addr:housenumber": "99", "addr:postcode": "430027", "addr:street": "\u0443\u043b\u0438\u0446\u0430 \u0413\u0430\u0433\u0430\u0440\u0438\u043d\u0430", "building": "industrial", "shop": "supermarket"}}]}