{"version": 0.6, "generator": "Overpass API 0.7.62.1 084b4234", "osm3s": {"timestamp_osm_base": "2024-05-14T12:41:58Z", "copyright": "The data included in this document is from www.openstreetmap.org. The data is made available under ODbL."}, "elements": [{"type": "node", "id": 1185859289, "lat": 50.5949495, "lon": 36.6033741}, {"type": "node", "id": 1185859445, "lat": 50.595093, "lon": 36.6032542}, {"type": "node", "id": 1185860587, "lat": 50.5950291, "lon": 36.6027884}, {"type": "node", "id": 1185863336, "lat": 50.5952091, "lon": 36.6030164}, {"type": "node", "id": 1185867806, "lat": 50.5951511, "lon": 36.6034422}, {"type": "node", "id": 1185869448, "lat": 50.5952308, "lon": 36.6028565}, {"type": "node", "id": 1185869873, "lat": 50.5951731, "lon": 36.6032812}, {"type": "node", "id": 1185872838, "lat": 50.5951291, "lon": 36.6029894}, {"type": "way", "id": 102680553, "nodes": [1185869448, 1185863336, 1185872838, 1185859445, 1185869873, 1185867806, 1185859289, 1185860587, 1185869448], "tags": {"addr:city": "\u0411\u0435\u043b\u0433\u043e\u0440\u043e\u0434", "addr:country": "RU", "addr:housenumber": "9", "addr:postcode": "308009", "addr:street": "\u043f\u0440\u043e\u0441\u043f\u0435\u043a\u0442 \u0421\u043b\u0430\u0432\u044b", "amenity": "hospital", "building": "hospital", "building:levels": "3", "building:material": "brick", "contact:email": "glvr@belgdbol.ru", "contact:phone": "+7 472 2760259;+7 472 2760364;+7 472 2760365", "contact:website": "https://www.belgdbol.ru", "height": "12.5", "name": "\u0411\u043e\u043b\u044c\u043d\u0438\u0446\u0430 \u0420\u0416\u0414-\u041c\u0435\u0434\u0438\u0446\u0438\u043d\u0430", "opening_hours": "24/7", "roof:height": "3.5", "roof:material": "eternit", "roof:shape": "hipped"}}]}