{"version": 0.6, "generator": "Overpass API 0.7.62.1 084b4234", "osm3s": {"timestamp_osm_base": "2024-05-17T09:51:30Z", "copyright": "The data included in this document is from www.openstreetmap.org. The data is made available under ODbL."}, "elements": [{"type": "node", "id": 4139946394, "lat": 56.7933115, "lon": 60.5199729, "tags": {"amenity": "fast_food", "brand:wikidata": "Q177054", "brand:wikipedia": "ru:Burger King", "contact:email": "FeedBack@burgerking.ru", "contact:phone": "+7 495 5445000", "contact:website": "https://burgerkingrus.ru/", "cuisine": "burger", "internet_access": "wlan", "internet_access:fee": "no", "name": "\u0411\u0443\u0440\u0433\u0435\u0440 \u041a\u0438\u043d\u0433", "name:en": "Burger King", "name:ru": "\u0411\u0443\u0440\u0433\u0435\u0440 \u041a\u0438\u043d\u0433", "opening_hours": "Mo-Su 10:00-21:45", "operator": "\u0411\u0423\u0420\u0413\u0415\u0420 \u0420\u0423\u0421", "operator:phone": "+7 495 5445000", "ref": "358", "takeaway": "yes"}}, {"type": "node", "id": 4139946395, "lat": 56.7934413, "lon": 60.5197225, "tags": {"amenity": "fast_food", "cuisine": "pizza", "name": "Pizza Mia"}}, {"type": "node", "id": 4139946397, "lat": 56.7935115, "lon": 60.519715, "tags": {"amenity": "fast_food", "cuisine": "regional", "name": "\u041a\u0440\u044b\u043d\u043a\u0430"}}, {"type": "node", "id": 4145959513, "lat": 56.7933728, "lon": 60.5198566, "tags": {"alt_name": "Kentucky Fried Chicken", "amenity": "fast_food", "brand": "KFC", "brand:wikidata": "Q524757", "brand:wikipedia": "en:KFC", "cuisine": "chicken", "name": "KFC", "takeaway": "yes"}}, {"type": "node", "id": 4227783804, "lat": 56.7936348, "lon": 60.5211028, "tags": {"amenity": "fast_food", "cuisine": "kebab", "name": "\u042e\u0433\u043e\u0441\u043b\u0430\u0432\u0438\u044f"}}]}