{"version": 0.6, "generator": "Overpass API 0.7.62.1 084b4234", "osm3s": {"timestamp_osm_base": "2024-05-14T09:54:51Z", "copyright": "The data included in this document is from www.openstreetmap.org. The data is made available under ODbL."}, "elements": [{"type": "node", "id": 1240605861, "lat": 54.3303991, "lon": 48.4847475}, {"type": "node", "id": 1240605866, "lat": 54.3305962, "lon": 48.4846509}, {"type": "node", "id": 1240605867, "lat": 54.3304648, "lon": 48.4845661}, {"type": "node", "id": 1240605876, "lat": 54.3305491, "lon": 48.4848513}, {"type": "node", "id": 1240605878, "lat": 54.3304224, "lon": 48.4846326}, {"type": "node", "id": 1240605879, "lat": 54.331758, "lon": 48.4854386}, {"type": "node", "id": 1240605883, "lat": 54.3315075, "lon": 48.4852747}, {"type": "node", "id": 1240605885, "lat": 54.3314674, "lon": 48.4854547}, {"type": "node", "id": 1240605932, "lat": 54.3317179, "lon": 48.4856187}, {"type": "way", "id": 108070962, "nodes": [1240605876, 1240605861, 1240605878, 1240605867, 1240605866, 1240605876], "tags": {"addr:city": "\u0423\u043b\u044c\u044f\u043d\u043e\u0432\u0441\u043a", "addr:housenumber": "16\u0410", "addr:postcode": "432007", "addr:street": "\u041a\u0440\u0430\u0441\u043d\u043e\u043f\u0440\u043e\u043b\u0435\u0442\u0430\u0440\u0441\u043a\u0430\u044f \u0443\u043b\u0438\u0446\u0430", "building": "commercial"}}, {"type": "way", "id": 108070966, "nodes": [1240605932, 1240605879, 1240605883, 1240605885, 1240605932], "tags": {"addr:city": "\u0423\u043b\u044c\u044f\u043d\u043e\u0432\u0441\u043a", "addr:country": "RU", "addr:housenumber": "20\u0410", "addr:postcode": "432007", "addr:street": "\u041a\u0440\u0430\u0441\u043d\u043e\u043f\u0440\u043e\u043b\u0435\u0442\u0430\u0440\u0441\u043a\u0430\u044f \u0443\u043b\u0438\u0446\u0430", "building": "commercial"}}]}