{"version": 0.6, "generator": "Overpass API 0.7.62.1 084b4234", "osm3s": {"timestamp_osm_base": "2024-05-13T22:14:10Z", "copyright": "The data included in this document is from www.openstreetmap.org. The data is made available under ODbL."}, "elements": [{"type": "node", "id": 1342551351, "lat": 54.8980986, "lon": 52.2722007}, {"type": "node", "id": 1342551502, "lat": 54.8980811, "lon": 52.2728186}, {"type": "node", "id": 1342551685, "lat": 54.8982443, "lon": 52.2722132}, {"type": "node", "id": 1342552051, "lat": 54.8982268, "lon": 52.2728311}, {"type": "node", "id": 7817820925, "lat": 54.8982424, "lon": 52.2713935, "tags": {"amenity": "bank", "atm": "yes", "bic": "SABRRUMM", "brand": "\u0421\u0431\u0435\u0440\u0431\u0430\u043d\u043a", "brand:wikidata": "Q205012", "brand:wikipedia": "ru:\u0421\u0431\u0435\u0440\u0431\u0430\u043d\u043a \u0420\u043e\u0441\u0441\u0438\u0438", "contact:facebook": "https://www.facebook.com/sberbank", "contact:instagram": "https://www.instagram.com/sberbank", "contact:ok": "https://ok.ru/sberbank", "contact:phone": "+7 800 5555550", "contact:twitter": "https://twitter.com/sberbank", "contact:vk": "https://vk.com/sberbank", "contact:website": "https://www.sberbank.ru", "contact:youtube": "https://www.youtube.com/sberbank", "name": "\u0421\u0431\u0435\u0440\u0431\u0430\u043d\u043a", "name:en": "Sberbank", "name:ru": "\u0421\u0431\u0435\u0440\u0431\u0430\u043d\u043a", "opening_hours": "Mo-Fr 08:00-20:00;Sa 08:00-16:30", "operator": "\u0421\u0431\u0435\u0440\u0431\u0430\u043d\u043a"}}, {"type": "way", "id": 119498988, "nodes": [1342551685, 1342552051, 1342551502, 1342551351, 1342551685], "tags": {"addr:housenumber": "113\u0410", "addr:street": "\u0443\u043b\u0438\u0446\u0430 \u041b\u0435\u043d\u0438\u043d\u0430", "amenity": "bank", "brand": "\u0410\u043a \u0411\u0430\u0440\u0441 \u0411\u0430\u043d\u043a", "brand:en": "Ak Bars Bank", "brand:ru": "\u0410\u043a \u0411\u0430\u0440\u0441 \u0411\u0430\u043d\u043a", "brand:wikidata": "Q4059103", "brand:wikipedia": "ru:\u0410\u043a \u0411\u0430\u0440\u0441 (\u0431\u0430\u043d\u043a)", "building": "yes", "contact:email": "kanc@akbars.ru", "contact:phone": "+7 843 2303303", "contact:website": "https://www.akbars.ru/", "name": "\u0410\u043a \u0411\u0430\u0440\u0441 \u0411\u0430\u043d\u043a", "name:en": "Ak Bars Bank", "name:ru": "\u0410\u043a \u0411\u0430\u0440\u0441 \u0411\u0430\u043d\u043a", "opening_hours": "Mo-Fr 08:00-19:00;Sa 09:00-16:00"}}]}