{"version": 0.6, "generator": "Overpass API 0.7.62.1 084b4234", "osm3s": {"timestamp_osm_base": "2024-05-17T17:42:00Z", "copyright": "The data included in this document is from www.openstreetmap.org. The data is made available under ODbL."}, "elements": [{"type": "node", "id": 2287610953, "lat": 43.1166167, "lon": 131.8827028, "tags": {"amenity": "cafe", "description": "\u043a\u043e\u0444\u0435\u0439\u043d\u044f", "name": "\u0428\u043e\u043a\u043e\u043b\u0430\u0434\u043d\u0438\u0446\u0430", "name:en": "Shokoladnitsa", "source": "image"}}, {"type": "node", "id": 5950610985, "lat": 43.1168448, "lon": 131.8818213, "tags": {"amenity": "cafe", "cuisine": "indonesian;russian;breakfast;french;coffee_shop", "email": "local.coffee.vl@gmail.com", "internet_access": "wlan", "name": "Local house", "note": "postcode: 690000", "opening_hours": "Mo-Su 08:00-21:00", "phone": "+7 924 3344440"}}, {"type": "node", "id": 6378350525, "lat": 43.1164447, "lon": 131.8826388, "tags": {"amenity": "cafe", "cuisine": "coffee_shop", "email": "ynmuravskaya@gmail.com", "internet_access": "wlan", "name": "Oh, my coffee!", "opening_hours": "Mo-Fr 08:00-19:00; Sa-Su 10:00-19:00", "phone": "+7 929 4295959"}}, {"type": "node", "id": 6854513185, "lat": 43.1165127, "lon": 131.8822048, "tags": {"amenity": "cafe", "contact:email": "2104@megagroup.com.ru", "contact:phone": "+7 914 6502548", "contact:website": "https://cinnabonrussia.com/", "cuisine": "cake;coffee_shop;tea", "name": "\u0421\u0438\u043d\u043d\u0430\u0431\u043e\u043d", "name:en": "Cinnabon", "opening_hours": "Fr-Su 10:00-22:00; Mo-Th 10:00-21:00"}}, {"type": "node", "id": 8509348117, "lat": 43.1162698, "lon": 131.8838604, "tags": {"amenity": "cafe", "cuisine": "russian", "internet_access": "wlan", "name": "\u0421\u0442\u043e\u043b\u043e\u0432\u0430\u044f N1", "name:ru": "\u0421\u0442\u043e\u043b\u043e\u0432\u0430\u044f N1", "opening_hours": "Mo-Su 08:00-21:00"}}, {"type": "node", "id": 9963150047, "lat": 43.1171985, "lon": 131.8838708, "tags": {"amenity": "cafe", "check_date": "2022-08-19", "name": "Tao Asian street food"}}, {"type": "node", "id": 9963150048, "lat": 43.1172129, "lon": 131.8837563, "tags": {"amenity": "cafe", "check_date": "2022-08-19", "name": "Coffee shop"}}, {"type": "node", "id": 9963150055, "lat": 43.1174242, "lon": 131.8822513, "tags": {"amenity": "cafe", "check_date": "2022-08-19", "name": "Gastro grill antrekot"}}, {"type": "node", "id": 10976261820, "lat": 43.1166834, "lon": 131.8822459, "tags": {"amenity": "cafe", "contact:email": "vld.aleutsky@cmachine.ru", "contact:phone": "+7 423 2908880", "cuisine": "coffee_shop", "name": "\u041a\u0440\u043e\u0441\u0441\u043a\u0443\u043b\u044c\u0442\u0443\u0440\u0430", "opening_hours": "Mo-Su 08:00-23:00"}}, {"type": "node", "id": 11070380800, "lat": 43.1162728, "lon": 131.8836694, "tags": {"air_conditioning": "yes", "amenity": "cafe", "contact:email": "89294094888@mail.ru", "contact:phone": "+7 423 2004880;+7 924 9392525;+7 929 4094888", "contact:website": "https://getman.2gis.biz", "cuisine": "coffee_shop", "diet:halal": "no", "diet:vegan": "no", "diet:vegetarian": "yes", "indoor_seating": "yes", "name": "Get'man", "name:en": "Get'man", "opening_hours": "Mo-Fr 08:00-21:30; Sa,Su 10:00-21:30", "outdoor_seating": "no", "payment:credit_cards": "yes", "payment:debit_cards": "yes", "smoking": "no", "wheelchair": "no"}}]}