{"version": 0.6, "generator": "Overpass API 0.7.62.1 084b4234", "osm3s": {"timestamp_osm_base": "2024-05-13T23:40:17Z", "copyright": "The data included in this document is from www.openstreetmap.org. The data is made available under ODbL."}, "elements": [{"type": "node", "id": 5321964040, "lat": 55.0020815, "lon": 73.3509728}, {"type": "node", "id": 5321964041, "lat": 55.0021048, "lon": 73.3509426}, {"type": "node", "id": 5321964042, "lat": 55.0021196, "lon": 73.3509772}, {"type": "node", "id": 5321964043, "lat": 55.0020963, "lon": 73.3510074}, {"type": "node", "id": 5321964044, "lat": 55.00209, "lon": 73.3509617, "tags": {"addr:housenumber": "68/1\u0430", "addr:street": "\u0443\u043b\u0438\u0446\u0430 \u041a\u0440\u0430\u0441\u043d\u044b\u0439 \u041f\u0443\u0442\u044c", "contact:vk": "20gr_omsk", "name": "20 \u0433\u0440\u0430\u043c\u043c", "name:en": "20 gramm", "opening_hours": "Mo-Su 10:00-23:00", "phone": "+7 950 794 98 85", "shop": "e-cigarette", "website": "https://20gramm.ru/", "wheelchair": "limited"}}, {"type": "node", "id": 5321964045, "lat": 55.0019865, "lon": 73.3511081}, {"type": "node", "id": 5321964046, "lat": 55.0020013, "lon": 73.3511428}, {"type": "node", "id": 5321964048, "lat": 55.0019632, "lon": 73.3511383}, {"type": "node", "id": 5321964051, "lat": 55.001978, "lon": 73.3511729}, {"type": "node", "id": 11179112563, "lat": 55.0019745, "lon": 73.3511237}, {"type": "way", "id": 551056416, "nodes": [5321964043, 5321964042, 5321964041, 5321964044, 5321964040, 5321964043], "tags": {"building": "kiosk", "building:levels": "1", "roof:shape": "flat"}}, {"type": "way", "id": 551056418, "nodes": [5321964051, 5321964046, 5321964045, 11179112563, 5321964048, 5321964051], "tags": {"building": "kiosk", "building:levels": "1", "roof:shape": "flat"}}]}