{"version": 0.6, "generator": "Overpass API 0.7.62.1 084b4234", "osm3s": {"timestamp_osm_base": "2024-05-13T23:18:00Z", "copyright": "The data included in this document is from www.openstreetmap.org. The data is made available under ODbL."}, "elements": [{"type": "node", "id": 473506128, "lat": 55.7181844, "lon": 37.7849727}, {"type": "node", "id": 473506129, "lat": 55.7181, "lon": 37.7855084}, {"type": "node", "id": 473506130, "lat": 55.7180156, "lon": 37.7853842}, {"type": "node", "id": 473506131, "lat": 55.7179891, "lon": 37.785221}, {"type": "node", "id": 473506132, "lat": 55.7180097, "lon": 37.7848685}, {"type": "node", "id": 3054885927, "lat": 55.7173492, "lon": 37.7854339}, {"type": "node", "id": 3054885928, "lat": 55.7174805, "lon": 37.7852695}, {"type": "node", "id": 3054885929, "lat": 55.7174966, "lon": 37.7851785}, {"type": "node", "id": 3054885930, "lat": 55.7175321, "lon": 37.7852965}, {"type": "node", "id": 3054885931, "lat": 55.7175441, "lon": 37.7856265}, {"type": "node", "id": 3054885932, "lat": 55.7175512, "lon": 37.7852234}, {"type": "node", "id": 4755903072, "lat": 55.7181422, "lon": 37.7852406, "tags": {"entrance": "yes"}}, {"type": "way", "id": 39524882, "nodes": [473506128, 4755903072, 473506129, 473506130, 473506131, 473506132, 473506128], "tags": {"addr:country": "RU", "addr:housenumber": "32 \u043a2", "addr:street": "\u0420\u044f\u0437\u0430\u043d\u0441\u043a\u0438\u0439 \u043f\u0440\u043e\u0441\u043f\u0435\u043a\u0442", "amenity": "fast_food", "building": "retail", "building:colour": "lightgrey", "building:levels": "1", "building:material": "glass", "contact:email": "info@qsrsystem.ru", "contact:phone": "+7 495 9191121", "contact:website": "https://vkusnoitochka.ru/", "cuisine": "burger", "diet:vegetarian": "no", "internet_access": "wlan", "name": "\u0412\u043a\u0443\u0441\u043d\u043e \u2014 \u0438 \u0442\u043e\u0447\u043a\u0430", "name:ru": "\u0412\u043a\u0443\u0441\u043d\u043e \u2014 \u0438 \u0442\u043e\u0447\u043a\u0430", "old_name": "\u041c\u0430\u043a\u0434\u043e\u043d\u0430\u043b\u0434\u0441", "old_name:en": "McDonald\u2019s", "roof:colour": "lightgrey", "roof:material": "tar_paper", "roof:shape": "flat", "smoking": "no", "takeaway": "yes", "toilets": "yes"}}, {"type": "way", "id": 301434397, "nodes": [3054885927, 3054885931, 3054885930, 3054885932, 3054885929, 3054885928, 3054885927], "tags": {"addr:housenumber": "32 \u043a1", "addr:street": "\u0420\u044f\u0437\u0430\u043d\u0441\u043a\u0438\u0439 \u043f\u0440\u043e\u0441\u043f\u0435\u043a\u0442", "amenity": "fast_food", "building": "retail", "building:colour": "brown", "building:levels": "1", "building:material": "wood", "cuisine": "kebab", "name": "\u0428\u0430\u043c\u043f\u0443\u0440 House", "roof:colour": "grey", "roof:material": "tar_paper", "roof:shape": "flat"}}]}