{"version": 0.6, "generator": "Overpass API 0.7.62.1 084b4234", "osm3s": {"timestamp_osm_base": "2024-05-14T10:50:15Z", "copyright": "The data included in this document is from www.openstreetmap.org. The data is made available under ODbL."}, "elements": [{"type": "node", "id": 598293018, "lat": 55.7683529, "lon": 37.6174894}, {"type": "node", "id": 598293020, "lat": 55.768204, "lon": 37.6174102}, {"type": "node", "id": 598293022, "lat": 55.7682931, "lon": 37.6178438}, {"type": "node", "id": 598293024, "lat": 55.7681443, "lon": 37.6177645}, {"type": "node", "id": 4107125889, "lat": 55.7677967, "lon": 37.6208081, "tags": {"amenity": "bank", "branch": "\u041c\u043e\u0441\u043a\u043e\u0432\u0441\u043a\u0438\u0439 \u0431\u0430\u043d\u043a", "brand": "\u0421\u0431\u0435\u0440\u0431\u0430\u043d\u043a", "brand:en": "Sberbank", "brand:ru": "\u0421\u0431\u0435\u0440\u0431\u0430\u043d\u043a", "brand:wikidata": "Q205012", "brand:wikipedia": "en:Sberbank of Russia", "check_date:opening_hours": "2022-06-06", "contact:facebook": "https://www.facebook.com/sberbank", "contact:instagram": "https://www.instagram.com/sberbank/", "contact:ok": "https://ok.ru/sberbank", "contact:phone": "+7 800 5555550", "contact:twitter": "https://twitter.com/sberbank/", "contact:vk": "https://vk.com/sberbank", "contact:website": "https://www.sberbank.ru", "contact:youtube": "https://www.youtube.com/sberbank", "name": "\u0421\u0431\u0435\u0440\u0431\u0430\u043d\u043a", "name:en": "Sberbank", "opening_hours": "Mo-Fr 08:30-19:30; Sa 11:00-15:30", "operator": "\u041f\u0410\u041e \u0421\u0431\u0435\u0440\u0431\u0430\u043d\u043a", "operator:wikidata": "Q205012", "operator:wikipedia": "ru:\u0421\u0431\u0435\u0440\u0431\u0430\u043d\u043a \u0420\u043e\u0441\u0441\u0438\u0438", "ref": "9038/096", "wheelchair": "yes"}}, {"type": "node", "id": 4344518832, "lat": 55.768142, "lon": 37.6176541}, {"type": "node", "id": 4344518834, "lat": 55.7681612, "lon": 37.6176643}, {"type": "node", "id": 4344518835, "lat": 55.7681652, "lon": 37.6175164}, {"type": "node", "id": 4344518837, "lat": 55.7681844, "lon": 37.6175266}, {"type": "node", "id": 6956906457, "lat": 55.7682809, "lon": 37.6174511, "tags": {"entrance": "yes"}}, {"type": "way", "id": 46846707, "nodes": [598293018, 6956906457, 598293020, 4344518837, 4344518835, 4344518832, 4344518834, 598293024, 598293022, 598293018], "tags": {"addr:housenumber": "19/2 \u04411", "addr:housenumber2": "2/19", "addr:postcode": "127051", "addr:street": "\u041f\u0435\u0442\u0440\u043e\u0432\u0441\u043a\u0438\u0439 \u0431\u0443\u043b\u044c\u0432\u0430\u0440", "addr:street2": "3-\u0439 \u041a\u043e\u043b\u043e\u0431\u043e\u0432\u0441\u043a\u0438\u0439 \u043f\u0435\u0440\u0435\u0443\u043b\u043e\u043a", "amenity": "bank", "building": "commercial", "building:colour": "pink", "building:levels": "2", "building:material": "plaster", "roof:angle": "30", "roof:colour": "lightgrey", "roof:material": "metal", "roof:shape": "hipped", "wikidata": "Q53256467", "wikipedia": "ru:\u0414\u043e\u043c \u0446\u0435\u0445\u043e\u0432\u043e\u0433\u043e \u0410\u043b\u0435\u043a\u0441\u0435\u044f \u0421\u0442\u0440\u0435\u043b\u044c\u0446\u043e\u0432\u0430"}}]}