{"version": 0.6, "generator": "Overpass API 0.7.62.1 084b4234", "osm3s": {"timestamp_osm_base": "2024-05-17T15:47:46Z", "copyright": "The data included in this document is from www.openstreetmap.org. The data is made available under ODbL."}, "elements": [{"type": "node", "id": 249482538, "lat": 55.8476598, "lon": 37.3608123}, {"type": "node", "id": 249482539, "lat": 55.8478344, "lon": 37.3610848}, {"type": "node", "id": 249482540, "lat": 55.8477304, "lon": 37.3612963}, {"type": "node", "id": 249482541, "lat": 55.8475558, "lon": 37.3610238}, {"type": "node", "id": 3858596066, "lat": 55.8475601, "lon": 37.3610729}, {"type": "node", "id": 3858596067, "lat": 55.8475757, "lon": 37.3611319}, {"type": "node", "id": 3858596068, "lat": 55.8475998, "lon": 37.3611853, "tags": {"entrance": "yes"}}, {"type": "node", "id": 3858596069, "lat": 55.8476311, "lon": 37.3612367}, {"type": "node", "id": 3858596070, "lat": 55.8476649, "lon": 37.3612728}, {"type": "node", "id": 3858596071, "lat": 55.8477014, "lon": 37.3612957}, {"type": "node", "id": 9322177535, "lat": 55.8460743, "lon": 37.3629496, "tags": {"amenity": "fast_food", "cuisine": "kebab", "takeaway": "yes"}}, {"type": "way", "id": 23108608, "nodes": [249482538, 249482539, 249482540, 3858596071, 3858596070, 3858596069, 3858596068, 3858596067, 3858596066, 249482541, 249482538], "tags": {"addr:city": "\u041c\u043e\u0441\u043a\u0432\u0430", "addr:country": "RU", "addr:housenumber": "40 \u043a3", "addr:postcode": "123430", "addr:street": "\u041c\u0438\u0442\u0438\u043d\u0441\u043a\u0430\u044f \u0443\u043b\u0438\u0446\u0430", "amenity": "fast_food", "building": "retail", "building:colour": "brown;black", "building:levels": "1", "building:material": "wood", "contact:email": "info@qsrsystem.ru", "contact:phone": "+7 495 7940466", "contact:website": "https://vkusnoitochka.ru/", "cuisine": "burger", "diet:vegetarian": "no", "internet_access": "wlan", "name": "\u0412\u043a\u0443\u0441\u043d\u043e \u2014 \u0438 \u0442\u043e\u0447\u043a\u0430", "name:ru": "\u0412\u043a\u0443\u0441\u043d\u043e \u2014 \u0438 \u0442\u043e\u0447\u043a\u0430", "old_name": "\u041c\u0430\u043a\u0434\u043e\u043d\u0430\u043b\u0434\u0441", "old_name:en": "McDonald\u2019s", "opening_hours": "Mo-Su 06:00-24:00", "roof:colour": "grey", "roof:material": "tar_paper", "roof:shape": "flat", "smoking": "no", "takeaway": "yes", "wheelchair": "yes"}}]}