{"version": 0.6, "generator": "Overpass API 0.7.62.1 084b4234", "osm3s": {"timestamp_osm_base": "2024-05-16T19:52:06Z", "copyright": "The data included in this document is from www.openstreetmap.org. The data is made available under ODbL."}, "elements": [{"type": "node", "id": 2307262614, "lat": 54.7498182, "lon": 56.0003179, "tags": {"addr:country": "RU", "addr:housenumber": "34", "addr:street": "\u043f\u0440\u043e\u0441\u043f\u0435\u043a\u0442 \u041e\u043a\u0442\u044f\u0431\u0440\u044f", "alt_name": "Kentucky Fried Chicken", "amenity": "fast_food", "brand": "KFC", "brand:wikidata": "Q524757", "brand:wikipedia": "en:KFC", "cuisine": "chicken", "int_name": "KFC", "internet_access": "wlan", "name": "KFC", "name:de": "KFC", "name:en": "KFC", "old_name": "\u0420\u043e\u0441\u0442\u0438\u043a\u2019\u0441-KFC / \u0420\u043e\u0441\u0442\u0438\u043a\u0441", "takeaway": "yes", "website": "http://www.kfc.ru/"}}, {"type": "node", "id": 3835357237, "lat": 54.7498355, "lon": 56.0003391, "tags": {"amenity": "fast_food", "contact:phone": "+7 347 2936061", "cuisine": "regional", "name": "\u041a\u0435\u0431\u0430\u0431 \u0422\u0443\u043d"}}, {"type": "node", "id": 5151926929, "lat": 54.7498996, "lon": 56.0001844, "tags": {"amenity": "fast_food", "brand": "\u0411\u0443\u0440\u0433\u0435\u0440 \u041a\u0438\u043d\u0433", "brand:en": "Burger King", "brand:ru": "\u0411\u0443\u0440\u0433\u0435\u0440 \u041a\u0438\u043d\u0433", "brand:wikidata": "Q177054", "brand:wikipedia": "ru:Burger King", "contact:email": "FeedBack@burgerking.ru", "contact:phone": "+7 495 5445000", "contact:website": "https://burgerkingrus.ru/", "cuisine": "burger", "internet_access": "wlan", "internet_access:fee": "no", "name": "\u0411\u0443\u0440\u0433\u0435\u0440 \u041a\u0438\u043d\u0433", "name:en": "Burger King", "name:ru": "\u0411\u0443\u0440\u0433\u0435\u0440 \u041a\u0438\u043d\u0433", "opening_hours": "Mo-Su 10:00-21:55", "ref": "424", "takeaway": "yes"}}, {"type": "node", "id": 11011879517, "lat": 54.750502, "lon": 56.0003633, "tags": {"amenity": "fast_food"}}, {"type": "node", "id": 11083513328, "lat": 54.7497944, "lon": 56.0003868, "tags": {"amenity": "fast_food", "brand": "\u0412\u043a\u0443\u0441\u043d\u043e \u2014 \u0438 \u0442\u043e\u0447\u043a\u0430", "brand:en": "Vkusno i tochka", "brand:ru": "\u0412\u043a\u0443\u0441\u043d\u043e \u2014 \u0438 \u0442\u043e\u0447\u043a\u0430", "brand:wikidata": "Q112406961", "cuisine": "burger", "name": "\u0412\u043a\u0443\u0441\u043d\u043e \u2014 \u0438 \u0442\u043e\u0447\u043a\u0430", "name:en": "Vkusno i tochka", "name:ru": "\u0412\u043a\u0443\u0441\u043d\u043e \u2014 \u0438 \u0442\u043e\u0447\u043a\u0430", "takeaway": "yes"}}, {"type": "node", "id": 11359683280, "lat": 54.7498535, "lon": 56.0002969, "tags": {"amenity": "fast_food", "cuisine": "pizza", "name": "\u0422\u0430\u0448\u0438\u0440 \u041f\u0438\u0446\u0446\u0430"}}, {"type": "node", "id": 11359683281, "lat": 54.7498821, "lon": 56.0002211, "tags": {"amenity": "fast_food", "name": "\u041f\u0435\u0447\u0435\u043d\u0430\u044f \u043a\u0430\u0440\u0442\u043e\u0448\u043a\u0430"}}, {"type": "node", "id": 11359683282, "lat": 54.7499167, "lon": 56.00014, "tags": {"amenity": "fast_food", "name": "\u041f\u043e\u0432\u0430\u0440\u0435\u0448\u043a\u0430"}}, {"type": "node", "id": 11359683283, "lat": 54.7498709, "lon": 56.0002556, "tags": {"amenity": "fast_food", "fast_food": "cafeteria", "name": "\u041f\u043b\u044e\u0448\u043a\u0430"}}]}