{"version": 0.6, "generator": "Overpass API 0.7.62.1 084b4234", "osm3s": {"timestamp_osm_base": "2024-05-14T02:52:53Z", "copyright": "The data included in this document is from www.openstreetmap.org. The data is made available under ODbL."}, "elements": [{"type": "node", "id": 3296876548, "lat": 59.741569, "lon": 30.0903155}, {"type": "node", "id": 3296876549, "lat": 59.7411824, "lon": 30.0899883}, {"type": "node", "id": 3296876550, "lat": 59.7410013, "lon": 30.0907393}, {"type": "node", "id": 3296876551, "lat": 59.7413825, "lon": 30.0911094}, {"type": "node", "id": 3699714183, "lat": 59.7410123, "lon": 30.0906935, "tags": {"entrance": "main"}}, {"type": "node", "id": 3699714184, "lat": 59.7410235, "lon": 30.0907609, "tags": {"entrance": "main"}}, {"type": "way", "id": 322899446, "nodes": [3296876548, 3296876549, 3699714183, 3296876550, 3699714184, 3296876551, 3296876548], "tags": {"addr:city": "\u041a\u0440\u0430\u0441\u043d\u043e\u0435 \u0421\u0435\u043b\u043e", "addr:housenumber": "51", "addr:street": "\u043f\u0440\u043e\u0441\u043f\u0435\u043a\u0442 \u041b\u0435\u043d\u0438\u043d\u0430", "building": "retail", "building:levels": "4", "name": "\u0422\u041a \u0422\u0435\u0442\u0440\u0438\u0441", "opening_hours": "Mo-Su 08:00-23:00", "roof:shape": "flat", "shop": "mall", "website": "https://tk-tetris.ru/", "wheelchair": "yes"}}]}