{"version": 0.6, "generator": "Overpass API 0.7.62.1 084b4234", "osm3s": {"timestamp_osm_base": "2024-05-18T00:25:28Z", "copyright": "The data included in this document is from www.openstreetmap.org. The data is made available under ODbL."}, "elements": [{"type": "node", "id": 1022721781, "lat": 57.0169099, "lon": 40.9587588}, {"type": "node", "id": 1022722802, "lat": 57.0172598, "lon": 40.9578304}, {"type": "node", "id": 1022722866, "lat": 57.01673, "lon": 40.9576819}, {"type": "node", "id": 1022723318, "lat": 57.0167807, "lon": 40.9574605}, {"type": "node", "id": 1022724213, "lat": 57.0170923, "lon": 40.9579616}, {"type": "node", "id": 1022725080, "lat": 57.0170267, "lon": 40.958849}, {"type": "way", "id": 87982921, "nodes": [1022725080, 1022722802, 1022723318, 1022722866, 1022724213, 1022721781, 1022725080], "tags": {"addr:city": "\u0418\u0432\u0430\u043d\u043e\u0432\u043e", "addr:country": "RU", "addr:housenumber": "45/6", "addr:postcode": "153000", "addr:region": "\u0418\u0432\u0430\u043d\u043e\u0432\u0441\u043a\u0430\u044f \u043e\u0431\u043b\u0430\u0441\u0442\u044c", "addr:street": "\u0443\u043b\u0438\u0446\u0430 \u0414\u0437\u0435\u0440\u0436\u0438\u043d\u0441\u043a\u043e\u0433\u043e", "building": "apartments", "building:levels": "4"}}]}