{"version": 0.6, "generator": "Overpass API 0.7.62.1 084b4234", "osm3s": {"timestamp_osm_base": "2024-05-13T21:25:14Z", "copyright": "The data included in this document is from www.openstreetmap.org. The data is made available under ODbL."}, "elements": [{"type": "node", "id": 2254999847, "lat": 56.0296791, "lon": 47.2938874}, {"type": "node", "id": 2254999965, "lat": 56.0297816, "lon": 47.2945894}, {"type": "node", "id": 2255000033, "lat": 56.0294685, "lon": 47.2945581}, {"type": "node", "id": 2255000097, "lat": 56.0298281, "lon": 47.294344}, {"type": "node", "id": 2255000100, "lat": 56.0296019, "lon": 47.2941423}, {"type": "node", "id": 2255000128, "lat": 56.0296626, "lon": 47.2940386}, {"type": "node", "id": 2255000131, "lat": 56.0299389, "lon": 47.2939461}, {"type": "node", "id": 2255000170, "lat": 56.0297177, "lon": 47.2937488}, {"type": "node", "id": 2255000183, "lat": 56.0297252, "lon": 47.2947897}, {"type": "node", "id": 2255000249, "lat": 56.0296996, "lon": 47.2939057}, {"type": "node", "id": 2255000260, "lat": 56.0296371, "lon": 47.2940159}, {"type": "node", "id": 2255000304, "lat": 56.0295249, "lon": 47.2943578}, {"type": "way", "id": 216137235, "nodes": [2254999965, 2255000183, 2255000033, 2255000304, 2254999965], "tags": {"addr:housenumber": "19", "addr:street": "\u0421\u043e\u0432\u0435\u0442\u0441\u043a\u0430\u044f \u0443\u043b\u0438\u0446\u0430", "amenity": "bank", "bic": "SABRRUMM", "brand": "\u0420\u043e\u0441\u0441\u0435\u043b\u044c\u0445\u043e\u0437\u0431\u0430\u043d\u043a", "brand:en": "Rosselkhozbank", "brand:ru": "\u0420\u043e\u0441\u0441\u0435\u043b\u044c\u0445\u043e\u0437\u0431\u0430\u043d\u043a", "brand:wikidata": "Q3920226", "brand:wikipedia": "ru:\u0420\u043e\u0441\u0441\u0435\u043b\u044c\u0445\u043e\u0437\u0431\u0430\u043d\u043a", "building": "yes", "contact:email": "office@rshb.ru", "contact:facebook": "https://www.facebook.com/rshb.ru/", "contact:instagram": "https://www.instagram.com/rshb_official/", "contact:ok": "https://www.ok.ru/group/52665958400202", "contact:phone": "8 800 1007870,8 800 1000100,+7 495 7877787", "contact:twitter": "https://twitter.com/RSHBmedia", "contact:vk": "https://vk.com/rshbru", "contact:website": "https://www.rshb.ru/", "name": "\u0420\u043e\u0441\u0441\u0435\u043b\u044c\u0445\u043e\u0437\u0431\u0430\u043d\u043a", "name:en": "Rosselkhozbank", "name:ru": "\u0420\u043e\u0441\u0441\u0435\u043b\u044c\u0445\u043e\u0437\u0431\u0430\u043d\u043a"}}, {"type": "way", "id": 216137241, "nodes": [2255000097, 2255000131, 2255000170, 2254999847, 2255000249, 2255000128, 2255000260, 2255000100, 2255000097], "tags": {"addr:housenumber": "23", "addr:street": "\u0421\u043e\u0432\u0435\u0442\u0441\u043a\u0430\u044f \u0443\u043b\u0438\u0446\u0430", "amenity": "bank", "bic": "SABRRUMM", "branch": "\u0412\u043e\u043b\u0433\u043e-\u0412\u044f\u0442\u0441\u043a\u0438\u0439 \u0431\u0430\u043d\u043a", "brand": "\u0421\u0431\u0435\u0440\u0431\u0430\u043d\u043a", "brand:wikidata": "Q205012", "brand:wikipedia": "ru:\u0421\u0431\u0435\u0440\u0431\u0430\u043d\u043a \u0420\u043e\u0441\u0441\u0438\u0438", "building": "yes", "contact:facebook": "https://www.facebook.com/sberbank", "contact:instagram": "https://www.instagram.com/sberbank", "contact:ok": "https://ok.ru/sberbank", "contact:phone": "+7 800 5555550", "contact:twitter": "https://twitter.com/sberbank", "contact:vk": "https://vk.com/sberbank", "contact:website": "https://www.sberbank.ru", "contact:youtube": "https://www.youtube.com/sberbank", "name": "\u0421\u0431\u0435\u0440\u0431\u0430\u043d\u043a", "name:en": "Sberbank", "name:ru": "\u0421\u0431\u0435\u0440\u0431\u0430\u043d\u043a", "opening_hours": "Mo-Fr 08:00-17:00; Sa 08:00-13:00", "operator": "\u041f\u0410\u041e \u0421\u0431\u0435\u0440\u0431\u0430\u043d\u043a", "operator:wikidata": "Q205012", "operator:wikipedia": "ru:\u0421\u0431\u0435\u0440\u0431\u0430\u043d\u043a \u0420\u043e\u0441\u0441\u0438\u0438", "ref": "8613/0111", "wheelchair": "yes"}}]}