{"version": 0.6, "generator": "Overpass API 0.7.62.1 084b4234", "osm3s": {"timestamp_osm_base": "2024-05-14T00:00:57Z", "copyright": "The data included in this document is from www.openstreetmap.org. The data is made available under ODbL."}, "elements": [{"type": "node", "id": 1421794884, "lat": 53.0194486, "lon": 158.6478729}, {"type": "node", "id": 1421794887, "lat": 53.0195037, "lon": 158.647729}, {"type": "node", "id": 1421794889, "lat": 53.0195137, "lon": 158.6482905}, {"type": "node", "id": 1421794893, "lat": 53.0195775, "lon": 158.647992}, {"type": "node", "id": 1421794896, "lat": 53.0196142, "lon": 158.6482479}, {"type": "node", "id": 1421794898, "lat": 53.0196265, "lon": 158.6478563}, {"type": "node", "id": 1421794903, "lat": 53.019748, "lon": 158.6476349}, {"type": "node", "id": 1421794905, "lat": 53.01977, "lon": 158.6477961}, {"type": "node", "id": 2546189164, "lat": 53.0187531, "lon": 158.646981, "tags": {"addr:housenumber": "59", "addr:street": "\u041b\u0435\u043d\u0438\u043d\u0441\u043a\u0430\u044f \u0443\u043b\u0438\u0446\u0430", "amenity": "bank", "bic": "VTBRRUMM", "brand": "\u0412\u0422\u0411", "contact:email": "info@vtb.ru", "contact:facebook": "https://www.facebook.com/vtbgroup", "contact:phone": "+7 800 2007799", "contact:twitter": "https://twitter.com/vtb", "contact:vk": "https://vk.com/vtb24", "contact:website": "https://www.vtb.ru", "contact:youtube": "https://www.youtube.com/user/vtbgroup", "name": "\u0412\u0422\u0411", "name:en": "VTB", "name:ru": "\u0412\u0422\u0411", "operator": "\u0411\u0430\u043d\u043a \u0412\u0422\u0411 (\u043f\u0443\u0431\u043b\u0438\u0447\u043d\u043e\u0435 \u0430\u043a\u0446\u0438\u043e\u043d\u0435\u0440\u043d\u043e\u0435 \u043e\u0431\u0449\u0435\u0441\u0442\u0432\u043e)", "operator:wikidata": "Q1549389", "operator:wikipedia": "ru:\u0411\u0430\u043d\u043a \u0412\u0422\u0411"}}, {"type": "way", "id": 128734207, "nodes": [1421794884, 1421794887, 1421794903, 1421794905, 1421794898, 1421794893, 1421794896, 1421794889, 1421794884], "tags": {"addr:housenumber": "54", "addr:postcode": "683001", "addr:street": "\u041b\u0435\u043d\u0438\u043d\u0441\u043a\u0430\u044f \u0443\u043b\u0438\u0446\u0430", "amenity": "bank", "brand": "\u0413\u0430\u0437\u043f\u0440\u043e\u043c\u0431\u0430\u043d\u043a", "brand:en": "Gazprombank", "brand:wikidata": "Q1924338", "brand:wikipedia": "en:Gazprombank", "building": "yes", "name": "\u0413\u0430\u0437\u043f\u0440\u043e\u043c\u0431\u0430\u043d\u043a", "name:en": "Gazprombank", "name:ru": "\u0413\u0430\u0437\u043f\u0440\u043e\u043c\u0431\u0430\u043d\u043a", "website": "https://www.gazprombank.ru/"}}]}