{"version": 0.6, "generator": "Overpass API 0.7.62.1 084b4234", "osm3s": {"timestamp_osm_base": "2024-05-17T09:28:54Z", "copyright": "The data included in this document is from www.openstreetmap.org. The data is made available under ODbL."}, "elements": [{"type": "node", "id": 4354437604, "lat": 59.9572884, "lon": 30.2979229, "tags": {"amenity": "cafe", "check_date": "2024-05-05", "contact:facebook": "konditerskayaspb", "contact:instagram": "konditerskaya1", "contact:vk": "citycakes", "contact:website": "https://www.konditer1.ru/", "cuisine": "coffee_shop;cake;pastry", "delivery": "yes", "name": "\u0413\u043e\u0440\u043e\u0434\u0441\u043a\u0438\u0435 \u043a\u043e\u043d\u0434\u0438\u0442\u0435\u0440\u0441\u043a\u0438\u0435 \u21161", "name:ru": "\u0413\u043e\u0440\u043e\u0434\u0441\u043a\u0438\u0435 \u041a\u043e\u043d\u0434\u0438\u0442\u0435\u0440\u0441\u043a\u0438\u0435 \u21161", "opening_hours": "08:30-22:00", "payment:cash": "yes", "payment:maestro": "yes", "payment:mastercard": "yes", "payment:visa": "yes", "payment:visa_electron": "yes", "phone": "+7 812 6778437", "shop": "pastry", "takeaway": "yes", "wheelchair": "no"}}, {"type": "node", "id": 5814971356, "lat": 59.9579018, "lon": 30.2972887, "tags": {"amenity": "cafe", "check_date": "2024-03-16", "name": "Ray", "opening_hours": "09:00-20:00"}}, {"type": "node", "id": 9950187073, "lat": 59.95827, "lon": 30.2974552, "tags": {"amenity": "cafe", "check_date": "2024-02-08", "name": "Ukusno", "opening_hours": "Mo-Th,Su 11:00-23:00; Fr-Sa 11:00-01:00"}}, {"type": "node", "id": 10151985548, "lat": 59.9582183, "lon": 30.297584, "tags": {"amenity": "cafe", "check_date": "2024-02-08", "name": "\u041e\u0431\u044b\u0447\u043d\u044b\u0435 \u043b\u044e\u0434\u0438", "opening_hours": "09:00-21:00"}}, {"type": "node", "id": 11737305552, "lat": 59.957751, "lon": 30.2976618, "tags": {"amenity": "cafe", "check_date": "2024-03-16", "name": "Amo", "opening_hours": "11:00-23:00"}}]}