{"version": 0.6, "generator": "Overpass API 0.7.62.1 084b4234", "osm3s": {"timestamp_osm_base": "2024-05-14T00:34:47Z", "copyright": "The data included in this document is from www.openstreetmap.org. The data is made available under ODbL."}, "elements": [{"type": "node", "id": 2489774489, "lat": 53.3460143, "lon": 83.7776775, "tags": {"amenity": "cafe", "internet_access": "yes", "name": "\u041a\u043e\u0444\u0435\u0439\u043d\u044f \u0426\u0435\u043d\u0442\u0440\u0430\u043b\u044c\u043d\u0430\u044f", "opening_hours": "Mo-Su 07:00-24:00", "wheelchair": "yes"}}, {"type": "node", "id": 2583777684, "lat": 53.3456593, "lon": 83.778385, "tags": {"amenity": "cafe", "cuisine": "coffee_shop", "name": "Kennedy's"}}, {"type": "node", "id": 4192841341, "lat": 53.345946, "lon": 83.7780895, "tags": {"addr:city": "\u0411\u0430\u0440\u043d\u0430\u0443\u043b", "addr:housenumber": "57", "addr:street": "\u043f\u0440\u043e\u0441\u043f\u0435\u043a\u0442 \u041b\u0435\u043d\u0438\u043d\u0430", "amenity": "cafe", "contact:phone": "+7 385 2367380;+7 385 2367722", "cuisine": "coffee_shop", "name": "FreeMan's", "opening_hours": "Mo-Su 07:45-23:30"}}, {"type": "node", "id": 4927914641, "lat": 53.3457615, "lon": 83.7771113, "tags": {"addr:city": "\u0411\u0430\u0440\u043d\u0430\u0443\u043b", "addr:housenumber": "57", "addr:street": "\u043f\u0440\u043e\u0441\u043f\u0435\u043a\u0442 \u041b\u0435\u043d\u0438\u043d\u0430", "amenity": "cafe", "cuisine": "coffee_shop", "name": "FreeMan's"}}, {"type": "node", "id": 5274591133, "lat": 53.3461901, "lon": 83.77804}, {"type": "node", "id": 6332433043, "lat": 53.3460996, "lon": 83.7797462, "tags": {"addr:city": "\u0411\u0430\u0440\u043d\u0430\u0443\u043b", "addr:housenumber": "62", "addr:street": "\u0443\u043b\u0438\u0446\u0430 \u0414\u0438\u043c\u0438\u0442\u0440\u043e\u0432\u0430", "amenity": "cafe", "name": "Croqe"}}, {"type": "node", "id": 6729645673, "lat": 53.3453379, "lon": 83.7790829, "tags": {"amenity": "cafe", "contact:email": "reklama@kuzina.ru", "contact:phone": "+7 385 2730311", "contact:website": "https://kuzina.ru/", "cuisine": "cake", "name": "Kuzina", "opening_hours": "Mo-Su 09:00-21:00", "operator": "\u041a\u0443\u0437\u0438\u043d\u0430"}}, {"type": "node", "id": 8578969882, "lat": 53.3459995, "lon": 83.7782431}, {"type": "node", "id": 8578969883, "lat": 53.3462488, "lon": 83.7781946}, {"type": "node", "id": 8578969884, "lat": 53.3460582, "lon": 83.7783977}, {"type": "way", "id": 545768854, "nodes": [8578969882, 5274591133, 8578969883, 8578969884, 8578969882], "tags": {"amenity": "cafe", "brand": "Traveler's Coffee", "brand:wikidata": "Q4051716", "brand:wikipedia": "ru:Traveler\u2019s Coffee", "building": "yes", "building:levels": "3", "cuisine": "coffee_shop", "height": "5", "name": "Traveler's Coffee", "opening_hours": "Mo-Sa 07:30-24:00; Su 09:00-23:00", "takeaway": "yes"}}]}