{"version": 0.6, "generator": "Overpass API 0.7.62.1 084b4234", "osm3s": {"timestamp_osm_base": "2024-05-13T21:53:01Z", "copyright": "The data included in this document is from www.openstreetmap.org. The data is made available under ODbL."}, "elements": [{"type": "node", "id": 1686904802, "lat": 45.215156, "lon": 39.691351}, {"type": "node", "id": 1686904804, "lat": 45.2151593, "lon": 39.6914324}, {"type": "node", "id": 1686904810, "lat": 45.2152638, "lon": 39.6913421}, {"type": "node", "id": 1686904821, "lat": 45.2154145, "lon": 39.6913296}, {"type": "node", "id": 1686904823, "lat": 45.2154179, "lon": 39.691411}, {"type": "node", "id": 2661080804, "lat": 45.2161025, "lon": 39.6899}, {"type": "node", "id": 2661080806, "lat": 45.2161158, "lon": 39.6900568}, {"type": "node", "id": 2661080843, "lat": 45.2162775, "lon": 39.6898701}, {"type": "node", "id": 2661080851, "lat": 45.2162908, "lon": 39.6900269}, {"type": "way", "id": 156431080, "nodes": [1686904804, 1686904802, 1686904810, 1686904821, 1686904823, 1686904804], "tags": {"building": "retail", "contact:email": "info@agrokomplex.ru", "contact:phone": "+7 800 2500690", "contact:website": "https://www.agrokomplex.ru/", "name": "\u0410\u0433\u0440\u043e\u043a\u043e\u043c\u043f\u043b\u0435\u043a\u0441 \u0412\u044b\u0441\u0435\u043b\u043a\u043e\u0432\u0441\u043a\u0438\u0439", "opening_hours": "Mo-Su 07:30-20:00", "shop": "convenience"}}, {"type": "way", "id": 260582226, "nodes": [2661080804, 2661080843, 2661080851, 2661080806, 2661080804], "tags": {"addr:city": "\u0423\u0441\u0442\u044c-\u041b\u0430\u0431\u0438\u043d\u0441\u043a", "addr:country": "RU", "addr:housenumber": "29", "addr:street": "\u0443\u043b\u0438\u0446\u0430 \u041a\u0443\u0439\u0431\u044b\u0448\u0435\u0432\u0430", "building": "retail"}}]}