{"version": 0.6, "generator": "Overpass API 0.7.62.1 084b4234", "osm3s": {"timestamp_osm_base": "2024-05-16T15:37:17Z", "copyright": "The data included in this document is from www.openstreetmap.org. The data is made available under ODbL."}, "elements": [{"type": "node", "id": 589456007, "lat": 59.8521508, "lon": 30.094676}, {"type": "node", "id": 589456008, "lat": 59.8514025, "lon": 30.0947123}, {"type": "node", "id": 589456009, "lat": 59.8513776, "lon": 30.092673}, {"type": "node", "id": 589456010, "lat": 59.8512967, "lon": 30.0926769}, {"type": "node", "id": 589456011, "lat": 59.8512939, "lon": 30.0924521}, {"type": "node", "id": 589456012, "lat": 59.852123, "lon": 30.0924117}, {"type": "node", "id": 684290015, "lat": 59.851618, "lon": 30.095042}, {"type": "node", "id": 684290034, "lat": 59.8523554, "lon": 30.0949912}, {"type": "node", "id": 684290051, "lat": 59.852395, "lon": 30.0972721}, {"type": "node", "id": 684290053, "lat": 59.8516577, "lon": 30.097323}, {"type": "node", "id": 3086214667, "lat": 59.8523684, "lon": 30.0957407, "tags": {"entrance": "main"}}, {"type": "node", "id": 3355524851, "lat": 59.8521314, "lon": 30.0930938, "tags": {"access": "yes", "door": "sliding", "entrance": "main"}}, {"type": "way", "id": 46219791, "nodes": [589456007, 589456008, 589456009, 589456010, 589456011, 589456012, 3355524851, 589456007], "tags": {"addr:housenumber": "31 \u043a1", "addr:street": "\u043f\u0440\u043e\u0441\u043f\u0435\u043a\u0442 \u0411\u0443\u0434\u0451\u043d\u043d\u043e\u0433\u043e", "atm": "yes", "branch": "\u0413\u0438\u043f\u0435\u0440", "brand": "\u041b\u0435\u043d\u0442\u0430", "brand:en": "Lenta", "brand:wikidata": "Q4258608", "brand:wikipedia": "ru:\u041b\u0435\u043d\u0442\u0430 (\u0441\u0435\u0442\u044c \u043c\u0430\u0433\u0430\u0437\u0438\u043d\u043e\u0432)", "building": "retail", "building:levels": "2", "contact:email": "info@lenta.com", "contact:facebook": "lentacom", "contact:instagram": "lenta_com", "contact:ok": "https://ok.ru/group/53286834208943", "contact:phone": "+7 800 7004111", "contact:vk": "lentacom", "contact:website": "https://www.lenta.com", "delivery": "yes", "internet_access": "no", "name": "\u041b\u0435\u043d\u0442\u0430", "name:en": "Lenta", "opening_hours": "24/7", "operator": "\u041e\u041e\u041e \"\u041b\u0435\u043d\u0442\u0430\"", "roof:shape": "flat", "shop": "supermarket", "toilets": "yes", "toilets:wheelchair": "yes", "wheelchair": "yes"}}, {"type": "way", "id": 54256355, "nodes": [684290034, 3086214667, 684290051, 684290053, 684290015, 684290034], "tags": {"addr:city": "\u0421\u0430\u043d\u043a\u0442-\u041f\u0435\u0442\u0435\u0440\u0431\u0443\u0440\u0433", "addr:housenumber": "31 \u043a2", "addr:street": "\u043f\u0440\u043e\u0441\u043f\u0435\u043a\u0442 \u0411\u0443\u0434\u0451\u043d\u043d\u043e\u0433\u043e", "brand": "\u041b\u0435\u0440\u0443\u0430 \u041c\u0435\u0440\u043b\u0435\u043d", "brand:en": "Leroy Merlin", "brand:wikidata": "Q889624", "brand:wikipedia": "en:Leroy Merlin", "building": "retail", "building:levels": "2", "check_date": "2023-03-01", "contact:phone": "+7 800 7000099", "contact:vk": "https://vk.com/leroymerlin_spb", "contact:website": "https://spb.leroymerlin.ru/", "name": "\u041b\u0435\u0440\u0443\u0430 \u041c\u0435\u0440\u043b\u0435\u043d", "name:en": "Leroy Merlin", "name:fr": "Leroy Merlin", "name:ru": "\u041b\u0435\u0440\u0443\u0430 \u041c\u0435\u0440\u043b\u0435\u043d", "opening_hours": "Mo-Su 07:30-23:00", "operator": "\u041b\u0435\u0440\u0443\u0430 \u041c\u0435\u0440\u043b\u0435\u043d \u0412\u043e\u0441\u0442\u043e\u043a", "payment:credit_cards": "yes", "payment:debit_cards": "yes", "roof:shape": "flat", "shop": "doityourself", "source": "survey", "trade": "building_supplies", "wheelchair": "yes"}}]}