{"version": 0.6, "generator": "Overpass API 0.7.62.1 084b4234", "osm3s": {"timestamp_osm_base": "2024-05-14T00:57:23Z", "copyright": "The data included in this document is from www.openstreetmap.org. The data is made available under ODbL."}, "elements": [{"type": "node", "id": 1864015682, "lat": 56.4601925, "lon": 84.9727783}, {"type": "node", "id": 1864015683, "lat": 56.4604378, "lon": 84.9728642}, {"type": "node", "id": 1864015684, "lat": 56.4602876, "lon": 84.9730418}, {"type": "node", "id": 1864015685, "lat": 56.4602853, "lon": 84.9726197}, {"type": "node", "id": 1864015687, "lat": 56.4603409, "lon": 84.9725959}, {"type": "node", "id": 1864015688, "lat": 56.4602959, "lon": 84.9726491}, {"type": "node", "id": 1864015689, "lat": 56.4602315, "lon": 84.9727322}, {"type": "node", "id": 1864015692, "lat": 56.4602191, "lon": 84.9726979}, {"type": "node", "id": 1872787796, "lat": 56.4602558, "lon": 84.9726545, "tags": {"barrier": "gate"}}, {"type": "node", "id": 3418890017, "lat": 56.4603621, "lon": 84.9729537}, {"type": "way", "id": 51075225, "nodes": [1864015682, 1864015689, 1864015692, 1872787796, 1864015685, 1864015688, 1864015687, 1864015683, 3418890017, 1864015684, 1864015682], "tags": {"addr:city": "\u0422\u043e\u043c\u0441\u043a", "addr:country": "RU", "addr:housenumber": "124", "addr:postcode": "634034", "addr:street": "\u041a\u0440\u0430\u0441\u043d\u043e\u0430\u0440\u043c\u0435\u0439\u0441\u043a\u0430\u044f \u0443\u043b\u0438\u0446\u0430", "building": "hotel", "building:levels": "9", "height": "36"}}]}