{"version": 0.6, "generator": "Overpass API 0.7.62.1 084b4234", "osm3s": {"timestamp_osm_base": "2024-05-17T19:58:28Z", "copyright": "The data included in this document is from www.openstreetmap.org. The data is made available under ODbL."}, "elements": [{"type": "node", "id": 4963207761, "lat": 53.3358071, "lon": 83.6846019, "tags": {"addr:city": "\u0411\u0430\u0440\u043d\u0430\u0443\u043b", "addr:housenumber": "16", "addr:street": "\u0411\u0430\u043b\u0442\u0438\u0439\u0441\u043a\u0430\u044f \u0443\u043b\u0438\u0446\u0430", "amenity": "fast_food", "name": "Manhettan Pizza"}}, {"type": "node", "id": 4963208957, "lat": 53.3357286, "lon": 83.6847976, "tags": {"addr:city": "\u0411\u0430\u0440\u043d\u0430\u0443\u043b", "addr:housenumber": "16", "addr:street": "\u0411\u0430\u043b\u0442\u0438\u0439\u0441\u043a\u0430\u044f \u0443\u043b\u0438\u0446\u0430", "amenity": "fast_food", "name": "\u0411\u043b\u0438\u043d\u043d\u044b\u0439 \u0411\u0430\u0440"}}, {"type": "node", "id": 6494912577, "lat": 53.335581, "lon": 83.684662, "tags": {"amenity": "fast_food", "contact:email": "hotline@coffee-like.com", "contact:phone": "+7 341 2908292;+7 800 3334130", "contact:website": "https://coffee-like.com/", "cuisine": "coffee_shop", "name": "Coffee Like", "opening_hours": "Mo-Su 08:00-21:00", "operator": "\"\u041a\u041e\u0424\u0415 \u041b\u0410\u0419\u0424\""}}, {"type": "node", "id": 7505868667, "lat": 53.3355676, "lon": 83.6844546, "tags": {"amenity": "fast_food", "contact:email": "FeedBack@burgerking.ru", "contact:phone": "+7 495 5445000", "contact:vk": "https://vk.com/burgerking", "contact:website": "https://burgerkingrus.ru/", "cuisine": "burger", "name": "\u0411\u0443\u0440\u0433\u0435\u0440 \u041a\u0438\u043d\u0433", "name:en": "Burger King", "name:ru": "\u0411\u0443\u0440\u0433\u0435\u0440 \u041a\u0438\u043d\u0433", "opening_hours": "Mo-Su 10:00-21:00", "operator": "\u0411\u0423\u0420\u0413\u0415\u0420 \u0420\u0423\u0421"}}, {"type": "node", "id": 11696793607, "lat": 53.3349984, "lon": 83.6849599, "tags": {"amenity": "fast_food", "contact:phone": "+7 995 9291378", "contact:website": "https://cheburek.me", "name": "\u0427\u0435\u0431\u0443\u0440\u0435\u043a\u041c\u0438", "opening_hours": "Mo-Su 10:00-20:00"}}]}