{"version": 0.6, "generator": "Overpass API 0.7.62.1 084b4234", "osm3s": {"timestamp_osm_base": "2024-05-16T22:38:09Z", "copyright": "The data included in this document is from www.openstreetmap.org. The data is made available under ODbL."}, "elements": [{"type": "node", "id": 428816298, "lat": 56.3028646, "lon": 38.1359499, "tags": {"addr:country": "RU", "amenity": "fast_food", "contact:email": "info@qsrsystem.ru", "contact:phone": "+7 496 551-37-05", "contact:website": "https://vkusnoitochka.ru/", "cuisine": "burger", "diet:vegetarian": "no", "internet_access": "wlan", "name": "\u0412\u043a\u0443\u0441\u043d\u043e \u2014 \u0438 \u0442\u043e\u0447\u043a\u0430", "old_name": "\u041c\u0430\u043a\u0434\u043e\u043d\u0430\u043b\u0434\u0441", "old_name:en": "McDonald\u2019s", "opening_hours": "Mo-Su 04:30-00:00", "outdoor_seating": "yes", "smoking": "no", "takeaway": "yes", "toilets": "yes"}}, {"type": "node", "id": 5867599263, "lat": 56.3020251, "lon": 38.1345845, "tags": {"alt_name": "Kentucky Fried Chicken", "amenity": "fast_food", "brand": "KFC", "brand:wikidata": "Q524757", "brand:wikipedia": "en:KFC", "cuisine": "chicken", "name": "KFC", "opening_hours": "Mo-Su 06:00-00:00", "takeaway": "yes"}}, {"type": "node", "id": 6753093123, "lat": 56.302012, "lon": 38.1348178, "tags": {"amenity": "fast_food", "name": "KFC \u0430\u0432\u0442\u043e", "opening_hours": "24/7"}}, {"type": "node", "id": 6753134437, "lat": 56.3029059, "lon": 38.1356895, "tags": {"amenity": "fast_food", "name": "\u041c\u0430\u043a\u0410\u0432\u0442\u043e", "opening_hours": "24/7"}}, {"type": "node", "id": 11185621582, "lat": 56.3012847, "lon": 38.1359616, "tags": {"amenity": "fast_food", "contact:phone": "+7 800 3508418", "contact:website": "https://cofix.global", "cuisine": "coffee_shop", "name": "Cofix", "opening_hours": "Mo-Su 06:00-21:00"}}]}