{"version": 0.6, "generator": "Overpass API 0.7.62.1 084b4234", "osm3s": {"timestamp_osm_base": "2024-05-16T20:02:15Z", "copyright": "The data included in this document is from www.openstreetmap.org. The data is made available under ODbL."}, "elements": [{"type": "node", "id": 2150220886, "lat": 45.0188592, "lon": 39.029501, "tags": {"amenity": "cafe", "contact:phone": "+7 918 1818888;+7 861 2531818", "contact:website": "http://unipizza.ru", "cuisine": "pizza", "fax": "+7 861 2334832", "name": "\u0423\u043d\u0438 \u041f\u0438\u0446\u0446\u0430", "opening_hours": "11:00-01:00", "operator": "\u0423\u043d\u0438\u043f\u0438\u0446\u0446\u0430"}}, {"type": "node", "id": 5204376123, "lat": 45.0188228, "lon": 39.0298449, "tags": {"amenity": "cafe", "name": "\u0411\u0438\u0431\u043b\u0438\u043e\u0442\u0435\u043a\u0430 \u043a\u043e\u0444\u0435"}}, {"type": "node", "id": 6475712485, "lat": 45.0187653, "lon": 39.030074, "tags": {"amenity": "cafe", "name": "\u041a\u043e\u0444\u0435 \u0411\u0435\u043b\u043a\u0430", "name:en": "Coffee Belka"}}, {"type": "node", "id": 9631540213, "lat": 45.0188753, "lon": 39.0296783, "tags": {"addr:city": "\u041a\u0440\u0430\u0441\u043d\u043e\u0434\u0430\u0440", "addr:housenumber": "224", "addr:postcode": "350040", "addr:street": "\u0421\u0442\u0430\u0432\u0440\u043e\u043f\u043e\u043b\u044c\u0441\u043a\u0430\u044f \u0443\u043b\u0438\u0446\u0430", "amenity": "cafe", "cuisine": "coffee_shop", "internet_access": "yes", "internet_access:fee": "customers", "name": "\u0417\u0430\u0446\u0435\u043f\u0438 \u041a\u043e\u0444\u0435. \u0421\u0442\u0430\u0432\u0440\u043e\u043f\u043e\u043b\u044c\u0441\u043a\u0430\u044f, 224", "opening_hours": "Mo-Sa 07:30-23:00 Su 09:00-23:00", "outdoor_seating": "yes", "phone": "+7 928 8491050", "website": "https://zatsepicoffee.ru"}}, {"type": "node", "id": 10148954398, "lat": 45.019292, "lon": 39.0279812, "tags": {"amenity": "cafe", "brand": "Surf Coffee", "brand:wikidata": "Q110278756", "contact:email": "krd@surfcoffee.ru", "contact:phone": "+7 800 7772407;+7 953 0907839", "contact:website": "https://www.surfcoffee.ru", "cuisine": "coffee_shop", "name": "Surf Coffee", "opening_hours": "Mo-Fr 07:30-22:00; Sa-Su 08:00-22:00", "takeaway": "yes"}}]}