{"version": 0.6, "generator": "Overpass API 0.7.62.1 084b4234", "osm3s": {"timestamp_osm_base": "2024-05-13T23:30:09Z", "copyright": "The data included in this document is from www.openstreetmap.org. The data is made available under ODbL."}, "elements": [{"type": "node", "id": 1117682174, "lat": 56.4680604, "lon": 84.9797378}, {"type": "node", "id": 1117682214, "lat": 56.4688703, "lon": 84.9797393}, {"type": "node", "id": 1262284875, "lat": 56.4679267, "lon": 84.9797087}, {"type": "node", "id": 1262286539, "lat": 56.4679294, "lon": 84.9784121}, {"type": "node", "id": 1262286540, "lat": 56.4679289, "lon": 84.979019}, {"type": "node", "id": 1424847502, "lat": 56.4679949, "lon": 84.9797072}, {"type": "node", "id": 1554366859, "lat": 56.4679295, "lon": 84.9782307}, {"type": "node", "id": 1554366869, "lat": 56.4680782, "lon": 84.9782302}, {"type": "node", "id": 1554366872, "lat": 56.4688817, "lon": 84.9782196}, {"type": "node", "id": 9323233901, "lat": 56.4688795, "lon": 84.9797186}, {"type": "node", "id": 9444467579, "lat": 56.4679286, "lon": 84.979102}, {"type": "way", "id": 142027407, "nodes": [1554366872, 1554366869, 1554366859, 1262286539, 1262286540, 9444467579, 1262284875, 1424847502, 1117682174, 1117682214, 9323233901, 1554366872], "tags": {"addr:city": "\u0422\u043e\u043c\u0441\u043a", "addr:country": "RU", "addr:housenumber": "47", "addr:postcode": "634041", "addr:street": "\u0443\u043b\u0438\u0446\u0430 \u041a\u0430\u0440\u0442\u0430\u0448\u043e\u0432\u0430", "amenity": "school", "name": "\u0428\u043a\u043e\u043b\u0430 \u211651", "name:en": "School #51", "name:ru": "\u0428\u043a\u043e\u043b\u0430 \u211651", "website": "http://school-51.tomsk.ru/"}}]}