{"version": 0.6, "generator": "Overpass API 0.7.62.1 084b4234", "osm3s": {"timestamp_osm_base": "2024-05-13T21:20:02Z", "copyright": "The data included in this document is from www.openstreetmap.org. The data is made available under ODbL."}, "elements": [{"type": "node", "id": 1088479706, "lat": 69.3422431, "lon": 88.2126766}, {"type": "node", "id": 1088479967, "lat": 69.3424447, "lon": 88.212258}, {"type": "node", "id": 1088480984, "lat": 69.3423257, "lon": 88.2114257}, {"type": "node", "id": 1088481392, "lat": 69.3424938, "lon": 88.2115149}, {"type": "node", "id": 1088481971, "lat": 69.3428446, "lon": 88.2120328}, {"type": "node", "id": 1088482162, "lat": 69.3428819, "lon": 88.2124856}, {"type": "node", "id": 1088483201, "lat": 69.342849, "lon": 88.2129835}, {"type": "node", "id": 1088483278, "lat": 69.342817, "lon": 88.2124511}, {"type": "node", "id": 1088483620, "lat": 69.342555, "lon": 88.2123166}, {"type": "node", "id": 1088483796, "lat": 69.3425829, "lon": 88.211894}, {"type": "way", "id": 93733297, "nodes": [1088483620, 1088483796, 1088481971, 1088483278, 1088482162, 1088483201, 1088479706, 1088480984, 1088481392, 1088479967, 1088483620], "tags": {"addr:city": "\u041d\u043e\u0440\u0438\u043b\u044c\u0441\u043a", "addr:country": "RU", "addr:housenumber": "7", "addr:street": "\u0443\u043b\u0438\u0446\u0430 \u0411\u043e\u0433\u0434\u0430\u043d\u0430 \u0425\u043c\u0435\u043b\u044c\u043d\u0438\u0446\u043a\u043e\u0433\u043e", "amenity": "bank", "brand": "\u0421\u0431\u0435\u0440\u0431\u0430\u043d\u043a", "brand:en": "Sberbank", "brand:ru": "\u0421\u0431\u0435\u0440\u0431\u0430\u043d\u043a", "brand:wikidata": "Q205012", "brand:wikipedia": "en:Sberbank of Russia", "building": "office", "building:levels": "7", "name": "\u0421\u0431\u0435\u0440\u0431\u0430\u043d\u043a", "name:en": "Sberbank", "name:ru": "\u0421\u0431\u0435\u0440\u0431\u0430\u043d\u043a", "website": "https://www.sberbank.ru/"}}]}