{"version": 0.6, "generator": "Overpass API 0.7.62.1 084b4234", "osm3s": {"timestamp_osm_base": "2024-05-13T23:34:14Z", "copyright": "The data included in this document is from www.openstreetmap.org. The data is made available under ODbL."}, "elements": [{"type": "node", "id": 1638781393, "lat": 45.1375134, "lon": 42.0096809}, {"type": "node", "id": 1638781401, "lat": 45.1371321, "lon": 42.0093617}, {"type": "node", "id": 1638781403, "lat": 45.136781, "lon": 42.0102046}, {"type": "node", "id": 1638781404, "lat": 45.1371623, "lon": 42.0105238}, {"type": "node", "id": 8820314863, "lat": 45.138155, "lon": 42.0111065}, {"type": "node", "id": 8820314864, "lat": 45.138125, "lon": 42.0111132}, {"type": "node", "id": 8820314865, "lat": 45.138056, "lon": 42.0110274}, {"type": "node", "id": 8820314866, "lat": 45.1379581, "lon": 42.0110475}, {"type": "node", "id": 8820314867, "lat": 45.1379524, "lon": 42.0109899}, {"type": "node", "id": 8820314868, "lat": 45.1381373, "lon": 42.0109536}, {"type": "way", "id": 151030726, "nodes": [1638781393, 1638781404, 1638781403, 1638781401, 1638781393], "tags": {"addr:city": "\u041c\u0438\u0445\u0430\u0439\u043b\u043e\u0432\u0441\u043a", "addr:housenumber": "156/1", "addr:street": "\u0443\u043b\u0438\u0446\u0430 \u041b\u0435\u043d\u0438\u043d\u0430", "building": "commercial", "name": "\u041c\u0430\u0433\u043d\u0438\u0442", "shop": "supermarket"}}, {"type": "way", "id": 952935001, "nodes": [8820314868, 8820314867, 8820314866, 8820314865, 8820314864, 8820314863, 8820314868], "tags": {"addr:city": "\u041c\u0438\u0445\u0430\u0439\u043b\u043e\u0432\u0441\u043a", "addr:housenumber": "197/1", "addr:postcode": "356242", "addr:street": "\u0443\u043b\u0438\u0446\u0430 \u041b\u0435\u043d\u0438\u043d\u0430", "building": "commercial", "building:levels": "4", "start_date": "2018"}}]}