{"version": 0.6, "generator": "Overpass API 0.7.62.1 084b4234", "osm3s": {"timestamp_osm_base": "2024-05-13T23:09:46Z", "copyright": "The data included in this document is from www.openstreetmap.org. The data is made available under ODbL."}, "elements": [{"type": "node", "id": 2415144228, "lat": 51.7061841, "lon": 39.1489052, "tags": {"amenity": "bank", "atm": "yes", "branch": "\u0426\u0435\u043d\u0442\u0440\u0430\u043b\u044c\u043d\u043e-\u0427\u0435\u0440\u043d\u043e\u0437\u0435\u043c\u043d\u044b\u0439 \u0431\u0430\u043d\u043a", "brand:wikidata": "Q205012", "brand:wikipedia": "ru:\u0421\u0431\u0435\u0440\u0431\u0430\u043d\u043a \u0420\u043e\u0441\u0441\u0438\u0438", "contact:facebook": "https://www.facebook.com/sberbank", "contact:instagram": "https://www.instagram.com/sberbank", "contact:ok": "https://ok.ru/sberbank", "contact:phone": "+7 800 5555550", "contact:twitter": "https://twitter.com/sberbank", "contact:vk": "https://vk.com/sberbank", "contact:website": "https://www.sberbank.ru", "contact:youtube": "https://www.youtube.com/sberbank", "description": "\u0434\u043e\u043f\u043e\u043b\u043d\u0438\u0442\u0435\u043b\u044c\u043d\u044b\u0439 \u043e\u0444\u0438\u0441", "level": "0", "name": "\u0421\u0431\u0435\u0440\u0431\u0430\u043d\u043a", "name:en": "Sberbank", "name:ru": "\u0421\u0431\u0435\u0440\u0431\u0430\u043d\u043a", "opening_hours": "Mo-Fr 08:30-19:00; Sa 09:00-18:30; Su 09:00-14:30", "operator": "\u041f\u0410\u041e \u0421\u0431\u0435\u0440\u0431\u0430\u043d\u043a", "operator:wikidata": "Q205012", "operator:wikipedia": "ru:\u0421\u0431\u0435\u0440\u0431\u0430\u043d\u043a \u0420\u043e\u0441\u0441\u0438\u0438", "phone": "+7-473-2679844", "ref": "9013/0202", "source": "local_knowledge;knowledge", "source:position": "bing", "wheelchair": "yes"}}, {"type": "node", "id": 2672613422, "lat": 51.7063304, "lon": 39.148631}, {"type": "node", "id": 2672613432, "lat": 51.7063964, "lon": 39.1489418}, {"type": "node", "id": 2672613438, "lat": 51.7064192, "lon": 39.1486214}, {"type": "node", "id": 2672613446, "lat": 51.7063436, "lon": 39.1489476}, {"type": "node", "id": 2672613457, "lat": 51.7064324, "lon": 39.1489379}, {"type": "node", "id": 4485478391, "lat": 51.7056686, "lon": 39.1506796, "tags": {"amenity": "bank", "atm": "yes", "name": "\u041f\u043e\u0447\u0442\u0430 \u0411\u0430\u043d\u043a", "opening_hours": "Mo-Fr 09:00-21:00; Sa 10:00-17:00; Su off", "source": "local_knowledge", "source:position": "bing", "website": "https://www.pochtabank.ru/"}}, {"type": "node", "id": 5846113152, "lat": 51.7063337, "lon": 39.1487102, "tags": {"entrance": "yes", "source": "local_knowledge", "source:position": "bing"}}, {"type": "node", "id": 9648067060, "lat": 51.706542, "lon": 39.1488308, "tags": {"amenity": "bank", "contact:phone": "+7 800 1000006", "contact:website": "https://sovcombank.ru/", "name": "\u0421\u043e\u0432\u043a\u043e\u043c\u0431\u0430\u043d\u043a", "opening_hours": "Mo-Fr 09:00-14:00,15:00-19:00;Sa 10:00-17:00"}}, {"type": "way", "id": 261659430, "nodes": [2672613438, 2672613422, 5846113152, 2672613446, 2672613432, 2672613457, 2672613438], "tags": {"addr:city": "\u0412\u043e\u0440\u043e\u043d\u0435\u0436", "addr:housenumber": "60\u0410", "addr:street": "\u0443\u043b\u0438\u0446\u0430 \u0413\u0435\u043d\u0435\u0440\u0430\u043b\u0430 \u041b\u0438\u0437\u044e\u043a\u043e\u0432\u0430", "amenity": "bank", "atm": "yes", "building": "yes", "building:levels": "1", "description": "\u0434\u043e\u043f\u043e\u043b\u043d\u0438\u0442\u0435\u043b\u044c\u043d\u044b\u0439 \u043e\u0444\u0438\u0441", "fixme": "\u041f\u0440\u043e\u0432\u0435\u0440\u0438\u0442\u044c \u043d\u043e\u043c\u0435\u0440 \u0437\u0434\u0430\u043d\u0438\u044f", "name": "\u041c\u043e\u0441\u043a\u043e\u0432\u0441\u043a\u0438\u0439 \u0418\u043d\u0434\u0443\u0441\u0442\u0440\u0438\u0430\u043b\u044c\u043d\u044b\u0439 \u0431\u0430\u043d\u043a", "opening_hours": "Mo-Sa 09:00-19:00; Su 10:00-15:00", "operator": "\u041f\u0410\u041e \"\u041c\u043e\u0441\u043a\u043e\u0432\u0441\u043a\u0438\u0439 \u0418\u043d\u0434\u0443\u0441\u0442\u0440\u0438\u0430\u043b\u044c\u043d\u044b\u0439 \u0431\u0430\u043d\u043a\"", "phone": "+7-473-2645671", "ref": "39/2", "source": "local_knowledge;knowledge", "website": "https://www.minbank.ru/"}}]}