{"version": 0.6, "generator": "Overpass API 0.7.62.1 084b4234", "osm3s": {"timestamp_osm_base": "2024-05-16T17:32:53Z", "copyright": "The data included in this document is from www.openstreetmap.org. The data is made available under ODbL."}, "elements": [{"type": "node", "id": 3110726116, "lat": 62.0368976, "lon": 129.7381229}, {"type": "node", "id": 3110726117, "lat": 62.036921, "lon": 129.7381685}, {"type": "node", "id": 3110726118, "lat": 62.0368975, "lon": 129.7382235}, {"type": "node", "id": 3110726119, "lat": 62.0368741, "lon": 129.738178}, {"type": "node", "id": 3110726120, "lat": 62.0375594, "lon": 129.7386245}, {"type": "node", "id": 3110726121, "lat": 62.0375909, "lon": 129.7387034}, {"type": "node", "id": 3110726122, "lat": 62.0375607, "lon": 129.7387583}, {"type": "node", "id": 3110726123, "lat": 62.0375292, "lon": 129.7386793}, {"type": "way", "id": 306223419, "nodes": [3110726116, 3110726117, 3110726118, 3110726119, 3110726116], "tags": {"addr:city": "\u042f\u043a\u0443\u0442\u0441\u043a", "addr:housenumber": "6/1 \u043a\u0438\u043e\u0441\u043a", "addr:postcode": "677000", "addr:street": "\u0443\u043b\u0438\u0446\u0430 \u041f\u0435\u0442\u0440\u0430 \u0410\u043b\u0435\u043a\u0441\u0435\u0435\u0432\u0430", "building": "kiosk", "shop": "kiosk"}}, {"type": "way", "id": 306223420, "nodes": [3110726120, 3110726121, 3110726122, 3110726123, 3110726120], "tags": {"addr:city": "\u042f\u043a\u0443\u0442\u0441\u043a", "addr:housenumber": "9 \u043a\u0438\u043e\u0441\u043a", "addr:postcode": "677000", "addr:street": "\u0443\u043b\u0438\u0446\u0430 \u041f\u043e\u044f\u0440\u043a\u043e\u0432\u0430", "building": "kiosk", "shop": "kiosk"}}]}