{"version": 0.6, "generator": "Overpass API 0.7.62.1 084b4234", "osm3s": {"timestamp_osm_base": "2024-05-17T07:35:59Z", "copyright": "The data included in this document is from www.openstreetmap.org. The data is made available under ODbL."}, "elements": [{"type": "node", "id": 4501924854, "lat": 51.8625418, "lon": 107.7260039}, {"type": "node", "id": 4501924855, "lat": 51.8631088, "lon": 107.7251659}, {"type": "node", "id": 4501924856, "lat": 51.8636073, "lon": 107.7260347}, {"type": "node", "id": 4501924857, "lat": 51.8630593, "lon": 107.7267803}, {"type": "node", "id": 4501924858, "lat": 51.862949, "lon": 107.7266386}, {"type": "node", "id": 4501924859, "lat": 51.8628767, "lon": 107.7266509}, {"type": "way", "id": 453461460, "nodes": [4501924854, 4501924855, 4501924856, 4501924857, 4501924858, 4501924859, 4501924854], "tags": {"addr:city": "\u0423\u043b\u0430\u043d-\u0423\u0434\u044d", "addr:housenumber": "8\u0410", "addr:postcode": "670009", "addr:street": "\u0443\u043b\u0438\u0446\u0430 \u0413\u0430\u0441\u0442\u0435\u043b\u043b\u043e", "amenity": "kindergarten", "barrier": "fence", "name": "\u0414\u0435\u0442\u0441\u043a\u0438\u0439 \u0441\u0430\u0434 \u211651 \u043a\u043e\u0440\u043f\u0443\u0441 1", "phone": "+73012250688", "preschool": "yes", "website": "bur-madou-5.tvoysadik.r"}}]}