{"version": 0.6, "generator": "Overpass API 0.7.62.1 084b4234", "osm3s": {"timestamp_osm_base": "2024-05-18T00:13:05Z", "copyright": "The data included in this document is from www.openstreetmap.org. The data is made available under ODbL."}, "elements": [{"type": "node", "id": 524073452, "lat": 53.216412, "lon": 50.1503134}, {"type": "node", "id": 524073455, "lat": 53.2165515, "lon": 50.1507017}, {"type": "node", "id": 524073456, "lat": 53.216695, "lon": 50.1505579}, {"type": "node", "id": 524073457, "lat": 53.2165543, "lon": 50.1501708}, {"type": "node", "id": 524073459, "lat": 53.2166392, "lon": 50.1506151}, {"type": "node", "id": 524073460, "lat": 53.2167591, "lon": 50.1509406}, {"type": "node", "id": 524073461, "lat": 53.2169611, "lon": 50.1507341}, {"type": "node", "id": 524073462, "lat": 53.2168425, "lon": 50.1504082}, {"type": "node", "id": 524073463, "lat": 53.2170017, "lon": 50.1506921}, {"type": "node", "id": 524073464, "lat": 53.2177294, "lon": 50.1524018}, {"type": "node", "id": 524073466, "lat": 53.2176169, "lon": 50.1525391}, {"type": "node", "id": 524073467, "lat": 53.2168873, "lon": 50.1508089}, {"type": "node", "id": 1191558809, "lat": 53.2166078, "lon": 50.1503196, "tags": {"amenity": "bank", "atm": "yes", "bic": "SABRRUMM", "branch": "\u041f\u043e\u0432\u043e\u043b\u0436\u0441\u043a\u0438\u0439 \u0431\u0430\u043d\u043a", "brand": "\u0421\u0431\u0435\u0440\u0431\u0430\u043d\u043a", "brand:wikidata": "Q205012", "brand:wikipedia": "ru:\u0421\u0431\u0435\u0440\u0431\u0430\u043d\u043a \u0420\u043e\u0441\u0441\u0438\u0438", "contact:facebook": "https://www.facebook.com/sberbank", "contact:instagram": "https://www.instagram.com/sberbank", "contact:ok": "https://ok.ru/sberbank", "contact:phone": "+7 800 5555550", "contact:twitter": "https://twitter.com/sberbank", "contact:vk": "https://vk.com/sberbank", "contact:website": "https://www.sberbank.ru", "contact:youtube": "https://www.youtube.com/sberbank", "name": "\u0421\u0431\u0435\u0440\u0431\u0430\u043d\u043a", "name:en": "Sberbank", "name:ru": "\u0421\u0431\u0435\u0440\u0431\u0430\u043d\u043a", "operator": "\u0421\u0431\u0435\u0440\u0431\u0430\u043d\u043a \u0420\u043e\u0441\u0441\u0438\u0438", "phone": "334-82-02", "website": "http://sbrf.ru/"}}, {"type": "way", "id": 42135955, "nodes": [524073452, 524073457, 1191558809, 524073456, 524073459, 524073455, 524073452], "tags": {"addr:housenumber": "151", "addr:postcode": "443068", "addr:street": "\u041d\u043e\u0432\u043e-\u0421\u0430\u0434\u043e\u0432\u0430\u044f \u0443\u043b\u0438\u0446\u0430", "building": "apartments", "building:levels": "15"}}, {"type": "way", "id": 42135956, "nodes": [524073459, 524073456, 524073462, 524073461, 524073467, 524073460, 524073459], "tags": {"addr:housenumber": "153", "addr:street": "\u041d\u043e\u0432\u043e-\u0421\u0430\u0434\u043e\u0432\u0430\u044f \u0443\u043b\u0438\u0446\u0430", "building": "apartments", "building:levels": "15"}}, {"type": "way", "id": 42135957, "nodes": [524073463, 524073464, 524073466, 524073467, 524073461, 524073463], "tags": {"addr:city": "\u0421\u0430\u043c\u0430\u0440\u0430", "addr:housenumber": "155", "addr:street": "\u041d\u043e\u0432\u043e-\u0421\u0430\u0434\u043e\u0432\u0430\u044f \u0443\u043b\u0438\u0446\u0430", "building": "apartments", "building:levels": "9"}}]}