{"version": 0.6, "generator": "Overpass API 0.7.62.1 084b4234", "osm3s": {"timestamp_osm_base": "2024-05-16T23:18:36Z", "copyright": "The data included in this document is from www.openstreetmap.org. The data is made available under ODbL."}, "elements": [{"type": "node", "id": 1158730568, "lat": 60.0068483, "lon": 30.2580336, "tags": {"amenity": "fast_food", "brand": "\u0422\u0435\u0440\u0435\u043c\u043e\u043a", "brand:en": "Teremok", "brand:ru": "\u0422\u0435\u0440\u0435\u043c\u043e\u043a", "brand:wikidata": "Q4455593", "brand:wikipedia": "ru:\u0422\u0435\u0440\u0435\u043c\u043e\u043a (\u0441\u0435\u0442\u044c \u0431\u044b\u0441\u0442\u0440\u043e\u0433\u043e \u043f\u0438\u0442\u0430\u043d\u0438\u044f)", "cuisine": "crepe;russian", "name": "\u0422\u0435\u0440\u0435\u043c\u043e\u043a", "name:en": "Teremok", "name:ru": "\u0422\u0435\u0440\u0435\u043c\u043e\u043a", "opening_hours": "Mo-Su 10:00-22:30", "outdoor_seating": "yes", "payment:cash": "yes", "payment:mastercard": "yes", "payment:visa": "yes", "takeaway": "only", "website": "https://www.teremok.ru/", "wheelchair": "limited"}}, {"type": "node", "id": 4509000628, "lat": 60.0073382, "lon": 30.2598487, "tags": {"amenity": "fast_food", "brand": "\u0422\u0435\u0440\u0435\u043c\u043e\u043a", "brand:en": "Teremok", "brand:ru": "\u0422\u0435\u0440\u0435\u043c\u043e\u043a", "brand:wikidata": "Q4455593", "brand:wikipedia": "ru:\u0422\u0435\u0440\u0435\u043c\u043e\u043a (\u0441\u0435\u0442\u044c \u0431\u044b\u0441\u0442\u0440\u043e\u0433\u043e \u043f\u0438\u0442\u0430\u043d\u0438\u044f)", "contact:email": "spb@teremok.ru", "contact:phone": "+7 812 2446600;+7 812 3632332", "contact:website": "https://teremok.ru/", "cuisine": "crepe;russian", "level": "4", "name": "\u0422\u0435\u0440\u0435\u043c\u043e\u043a", "name:en": "Teremok", "name:ru": "\u0422\u0435\u0440\u0435\u043c\u043e\u043a", "opening_hours": "Mo-Su 10:00-22:00", "outdoor_seating": "no", "payment:cash": "yes", "payment:mastercard": "yes", "payment:visa": "yes", "takeaway": "yes"}}, {"type": "node", "id": 4829467361, "lat": 60.0074883, "lon": 30.2599968, "tags": {"amenity": "fast_food", "brand": "\u0412\u043a\u0443\u0441\u043d\u043e \u2014 \u0438 \u0442\u043e\u0447\u043a\u0430", "brand:en": "Vkusno i tochka", "brand:ru": "\u0412\u043a\u0443\u0441\u043d\u043e \u2014 \u0438 \u0442\u043e\u0447\u043a\u0430", "brand:wikidata": "Q112406961", "breakfast": "no", "contact:email": "info@qsrsystem.ru", "contact:phone": "+7 812 3844593", "contact:vk": "https://vk.com/vkusno_itochka", "contact:website": "https://vkusnoitochka.ru", "cuisine": "burger", "drive_through": "no", "indoor_seating": "yes", "internet_access": "wlan", "level": "4", "name": "\u0412\u043a\u0443\u0441\u043d\u043e \u2014 \u0438 \u0442\u043e\u0447\u043a\u0430", "name:en": "Vkusno i tochka", "name:ru": "\u0412\u043a\u0443\u0441\u043d\u043e \u2014 \u0438 \u0442\u043e\u0447\u043a\u0430", "old_name": "\u041c\u0430\u043a\u0434\u043e\u043d\u0430\u043b\u0434\u0441", "old_name:en": "McDonald\u2019s", "opening_hours": "10:00-22:00", "outdoor_seating": "no", "smoking": "no", "takeaway": "yes"}}, {"type": "node", "id": 5396675716, "lat": 60.0073763, "lon": 30.2598023, "tags": {"amenity": "fast_food", "level": "4", "name": "\u0428\u0430\u0445\u0435\u0440\u0435\u0437\u0430\u0434\u0430", "operator": "\u0413\u0443\u0449\u0438\u043d\u0430 \u0410\u043b\u043b\u0430 \u0410\u043b\u0435\u043a\u0441\u0435\u0435\u0432\u043d\u0430", "payment:mastercard": "yes", "payment:visa": "yes"}}, {"type": "node", "id": 5396675717, "lat": 60.0074149, "lon": 30.2597554, "tags": {"amenity": "fast_food", "cuisine": "sushi", "level": "4"}}, {"type": "node", "id": 6234569997, "lat": 60.0074151, "lon": 30.2581117, "tags": {"entrance": "yes"}}, {"type": "node", "id": 6234570001, "lat": 60.0074365, "lon": 30.2581056}, {"type": "node", "id": 6234570002, "lat": 60.0074203, "lon": 30.2581274}, {"type": "node", "id": 6234570003, "lat": 60.0074007, "lon": 30.2580693}, {"type": "node", "id": 6234570004, "lat": 60.0074169, "lon": 30.2580474}, {"type": "node", "id": 9447119934, "lat": 60.007442, "lon": 30.25987, "tags": {"amenity": "fast_food", "brand": "One Price Coffee", "brand:wikidata": "Q108215010", "contact:email": "b2b@onepricecoffee.com", "contact:phone": "+7 495 0153150", "contact:website": "https://onepricecoffee.com/", "cuisine": "coffee_shop", "name": "One Price Coffee", "opening_hours": "Mo 10:00-21:00; Tu-Su 10:00-22:00", "takeaway": "yes"}}, {"type": "way", "id": 665963114, "nodes": [6234570004, 6234570003, 6234569997, 6234570002, 6234570001, 6234570004], "tags": {"amenity": "fast_food", "building": "yes", "building:levels": "1", "diet:vegetarian": "no", "name": "\u0411\u0438\u0441\u0442\u0440\u043e 24", "payment:credit_cards": "yes", "payment:debit_cards": "yes"}}]}