{"version": 0.6, "generator": "Overpass API 0.7.62.1 084b4234", "osm3s": {"timestamp_osm_base": "2024-05-14T15:31:14Z", "copyright": "The data included in this document is from www.openstreetmap.org. The data is made available under ODbL."}, "elements": [{"type": "node", "id": 1185865625, "lat": 50.5965605, "lon": 36.593325}, {"type": "node", "id": 1185870541, "lat": 50.5967425, "lon": 36.593132}, {"type": "node", "id": 1185872052, "lat": 50.5965968, "lon": 36.5930787}, {"type": "node", "id": 1185873601, "lat": 50.5967062, "lon": 36.5933783}, {"type": "node", "id": 4688203484, "lat": 50.5966419, "lon": 36.5933929}, {"type": "node", "id": 4688203485, "lat": 50.5965972, "lon": 36.5933765}, {"type": "node", "id": 4688203486, "lat": 50.5966025, "lon": 36.5933404}, {"type": "node", "id": 4688203488, "lat": 50.5966472, "lon": 36.5933567}, {"type": "way", "id": 474982933, "nodes": [1185870541, 1185873601, 4688203488, 4688203484, 4688203485, 4688203486, 1185865625, 1185872052, 1185870541], "tags": {"addr:city": "\u0411\u0435\u043b\u0433\u043e\u0440\u043e\u0434", "addr:country": "RU", "addr:housenumber": "31", "addr:postcode": "308009", "addr:street": "\u043f\u0440\u043e\u0441\u043f\u0435\u043a\u0442 \u0421\u043b\u0430\u0432\u044b", "amenity": "place_of_worship", "building": "church", "building:part": "no", "denomination": "orthodox", "name": "\u0411\u0435\u043b\u0433\u043e\u0440\u043e\u0434\u0441\u043a\u043e-\u0421\u0442\u0430\u0440\u043e\u043e\u0441\u043a\u043e\u043b\u044c\u0441\u043a\u043e\u0435 \u0415\u043f\u0430\u0440\u0445\u0438\u0430\u043b\u044c\u043d\u043e\u0435 \u0423\u043f\u0440\u0430\u0432\u043b\u0435\u043d\u0438\u0435", "phone": "+7 (472) 233-57-90", "religion": "christian", "website": "https://beleparh.ru/"}}]}