{"version": 0.6, "generator": "Overpass API 0.7.62.1 084b4234", "osm3s": {"timestamp_osm_base": "2024-05-16T18:40:05Z", "copyright": "The data included in this document is from www.openstreetmap.org. The data is made available under ODbL."}, "elements": [{"type": "node", "id": 1048914303, "lat": 55.1642594, "lon": 61.416778}, {"type": "node", "id": 1048915497, "lat": 55.1642545, "lon": 61.4166067}, {"type": "node", "id": 2057642203, "lat": 55.1640665, "lon": 61.4164703}, {"type": "node", "id": 2057642205, "lat": 55.1640774, "lon": 61.4168586}, {"type": "node", "id": 2057642207, "lat": 55.1642502, "lon": 61.4164543}, {"type": "node", "id": 2057642209, "lat": 55.1642612, "lon": 61.4168427}, {"type": "way", "id": 195293834, "nodes": [1048914303, 2057642209, 2057642205, 2057642203, 2057642207, 1048915497, 1048914303], "tags": {"addr:city": "\u0427\u0435\u043b\u044f\u0431\u0438\u043d\u0441\u043a", "addr:country": "RU", "addr:housenumber": "167\u0410", "addr:postcode": "454091", "addr:street": "\u0420\u043e\u0441\u0441\u0438\u0439\u0441\u043a\u0430\u044f \u0443\u043b\u0438\u0446\u0430", "building": "office", "building:levels": "6"}}]}