{"version": 0.6, "generator": "Overpass API 0.7.62.1 084b4234", "osm3s": {"timestamp_osm_base": "2024-05-17T17:53:06Z", "copyright": "The data included in this document is from www.openstreetmap.org. The data is made available under ODbL."}, "elements": [{"type": "node", "id": 2184134974, "lat": 55.8344153, "lon": 37.6376812}, {"type": "node", "id": 2184134992, "lat": 55.8344019, "lon": 37.6369929}, {"type": "node", "id": 2184135019, "lat": 55.8351803, "lon": 37.6376563}, {"type": "node", "id": 2184135037, "lat": 55.8351817, "lon": 37.6387683}, {"type": "node", "id": 2184135048, "lat": 55.8355056, "lon": 37.6395241}, {"type": "node", "id": 2184135076, "lat": 55.8358591, "lon": 37.638614}, {"type": "node", "id": 2184135090, "lat": 55.8360403, "lon": 37.6379316}, {"type": "node", "id": 2184135101, "lat": 55.8361669, "lon": 37.6369205}, {"type": "node", "id": 3420463584, "lat": 55.8361807, "lon": 37.6374609}, {"type": "node", "id": 9457744056, "lat": 55.8353915, "lon": 37.6391226}, {"type": "node", "id": 9457744057, "lat": 55.8353915, "lon": 37.6387632}, {"type": "node", "id": 9457744058, "lat": 55.8353282, "lon": 37.6393211}, {"type": "way", "id": 208095386, "nodes": [2184135101, 2184134992]}, {"type": "way", "id": 208095387, "nodes": [2184135048, 2184135076, 2184135090, 3420463584, 2184135101]}, {"type": "way", "id": 208095389, "nodes": [2184134974, 2184135019, 2184135037, 9457744057, 9457744056, 9457744058], "tags": {"barrier": "wall"}}, {"type": "way", "id": 1025796145, "nodes": [9457744058, 2184135048]}, {"type": "way", "id": 1025796146, "nodes": [2184134992, 2184134974]}, {"type": "relation", "id": 2798620, "members": [{"type": "way", "ref": 1025796146, "role": "outer"}, {"type": "way", "ref": 208095389, "role": "outer"}, {"type": "way", "ref": 1025796145, "role": "outer"}, {"type": "way", "ref": 208095387, "role": "outer"}, {"type": "way", "ref": 208095386, "role": "outer"}], "tags": {"amenity": "university", "name": "\u0412\u0441\u0435\u0440\u043e\u0441\u0441\u0438\u0439\u0441\u043a\u0438\u0439 \u0433\u043e\u0441\u0443\u0434\u0430\u0440\u0441\u0442\u0432\u0435\u043d\u043d\u044b\u0439 \u0443\u043d\u0438\u0432\u0435\u0440\u0441\u0438\u0442\u0435\u0442 \u043a\u0438\u043d\u0435\u043c\u0430\u0442\u043e\u0433\u0440\u0430\u0444\u0438\u0438 \u0438\u043c\u0435\u043d\u0438 \u0421. \u0410. \u0413\u0435\u0440\u0430\u0441\u0438\u043c\u043e\u0432\u0430 (\u0412\u0413\u0418\u041a)", "name:ca": "Universitat Estatal Panrussa de Cinematografia Guer\u00e0ssimov", "name:de": "Gerassimow-Institut f\u00fcr Kinematographie", "name:en": "Gerasimov Institute of Cinematography", "name:eo": "VGIK", "name:es": "Universidad Panrusa Guer\u00e1simov de Cinematograf\u00eda", "name:et": "\u00dclevenemaaline Riiklik Kinematograafia Instituut", "name:fr": "Institut national de la cin\u00e9matographie", "name:gl": "Instituto Gerasimov de Cinematograf\u00eda", "name:he": "VGIK", "name:it": "VGIK", "name:ja": "\u5168\u30ed\u30b7\u30a2\u6620\u753b\u5927\u5b66", "name:kk": "\u0411\u041c\u041a\u0418", "name:lt": "Valstybinis visos Rusijos S. A. Gerasimovo kinematografijos universitetas", "name:pl": "Wszechrosyjski Pa\u0144stwowy Instytut Kinematografii im. S.A. Gierasimowa", "name:sv": "Allryska statliga kinematografiska institutet", "name:tr": "Gerasimov Sinematografi Enstit\u00fcs\u00fc", "name:uk": "\u0412\u0441\u0435\u0440\u043e\u0441\u0456\u0439\u0441\u044c\u043a\u0438\u0439 \u0434\u0435\u0440\u0436\u0430\u0432\u043d\u0438\u0439 \u0456\u043d\u0441\u0442\u0438\u0442\u0443\u0442 \u043a\u0456\u043d\u0435\u043c\u0430\u0442\u043e\u0433\u0440\u0430\u0444\u0456\u0457", "name:vi": "VGIK", "short_name": "\u0412\u0413\u0418\u041a", "type": "multipolygon", "wikidata": "Q1130457", "wikipedia": "ru:\u0412\u0441\u0435\u0440\u043e\u0441\u0441\u0438\u0439\u0441\u043a\u0438\u0439 \u0433\u043e\u0441\u0443\u0434\u0430\u0440\u0441\u0442\u0432\u0435\u043d\u043d\u044b\u0439 \u0438\u043d\u0441\u0442\u0438\u0442\u0443\u0442 \u043a\u0438\u043d\u0435\u043c\u0430\u0442\u043e\u0433\u0440\u0430\u0444\u0438\u0438 \u0438\u043c\u0435\u043d\u0438 \u0421. \u0410. \u0413\u0435\u0440\u0430\u0441\u0438\u043c\u043e\u0432\u0430"}}]}