{"version": 0.6, "generator": "Overpass API 0.7.62.1 084b4234", "osm3s": {"timestamp_osm_base": "2024-05-14T03:46:28Z", "copyright": "The data included in this document is from www.openstreetmap.org. The data is made available under ODbL."}, "elements": [{"type": "node", "id": 344394885, "lat": 45.0710536, "lon": 39.0001936}, {"type": "node", "id": 344394886, "lat": 45.0711957, "lon": 39.0005396}, {"type": "node", "id": 344394887, "lat": 45.0707371, "lon": 39.0005838}, {"type": "node", "id": 344394888, "lat": 45.0707199, "lon": 39.0002258}, {"type": "node", "id": 1620800780, "lat": 45.0710609, "lon": 39.000347}, {"type": "node", "id": 1620800799, "lat": 45.0711859, "lon": 39.0003349}, {"type": "node", "id": 3663145450, "lat": 45.0713629, "lon": 39.0004836}, {"type": "node", "id": 3663145451, "lat": 45.0713671, "lon": 39.0005824}, {"type": "node", "id": 3663145452, "lat": 45.0715168, "lon": 39.0004703}, {"type": "node", "id": 3663145453, "lat": 45.0715211, "lon": 39.0005692}, {"type": "way", "id": 30970492, "nodes": [344394885, 1620800780, 1620800799, 344394886, 344394887, 344394888, 344394885], "tags": {"addr:city": "\u041a\u0440\u0430\u0441\u043d\u043e\u0434\u0430\u0440", "addr:country": "RU", "addr:housenumber": "79/1", "addr:postcode": "350072", "addr:street": "\u041c\u043e\u0441\u043a\u043e\u0432\u0441\u043a\u0430\u044f \u0443\u043b\u0438\u0446\u0430", "building": "retail", "building:levels": "3", "roof:shape": "gambrel"}}, {"type": "way", "id": 361906393, "nodes": [3663145453, 3663145451, 3663145450, 3663145452, 3663145453], "tags": {"addr:housenumber": "5/1", "addr:postcode": "350072", "addr:street": "\u041c\u043e\u0441\u043a\u043e\u0432\u0441\u043a\u0430\u044f \u0443\u043b\u0438\u0446\u0430", "building": "retail", "building:levels": "1", "roof:shape": "flat"}}]}