{"version": 0.6, "generator": "Overpass API 0.7.62.1 084b4234", "osm3s": {"timestamp_osm_base": "2024-05-17T16:47:20Z", "copyright": "The data included in this document is from www.openstreetmap.org. The data is made available under ODbL."}, "elements": [{"type": "node", "id": 1029676915, "lat": 60.0521019, "lon": 30.3328027, "tags": {"addr:country": "RU", "addr:housenumber": "19", "addr:street": "\u043f\u0440\u043e\u0441\u043f\u0435\u043a\u0442 \u041f\u0440\u043e\u0441\u0432\u0435\u0449\u0435\u043d\u0438\u044f", "alt_name": "Kentucky Fried Chicken", "amenity": "fast_food", "brand": "KFC", "brand:wikidata": "Q524757", "brand:wikipedia": "en:KFC", "check_date": "2023-02-14", "cuisine": "chicken", "delivery": "yes", "drive_through": "no", "int_name": "Rostic`s", "internet_access": "no", "level": "3", "name": "Rostic`s", "name:de": "KFC", "name:en": "Rostic`s", "old_name": "\u0420\u043e\u0441\u0442\u0438\u043a\u2019\u0441-KFC / \u0420\u043e\u0441\u0442\u0438\u043a\u0441", "opening_hours": "10:00-22:00", "outdoor_seating": "no", "payment:cash": "yes", "payment:credit_cards": "yes", "payment:debit_cards": "yes", "payment:mastercard": "yes", "payment:mir": "yes", "payment:visa": "yes", "smoking": "no", "takeaway": "yes", "website": "http://www.kfc.ru/", "wheelchair": "yes"}}, {"type": "node", "id": 1032257891, "lat": 60.0521976, "lon": 30.3326768, "tags": {"addr:housenumber": "19", "addr:street": "\u043f\u0440\u043e\u0441\u043f\u0435\u043a\u0442 \u041f\u0440\u043e\u0441\u0432\u0435\u0449\u0435\u043d\u0438\u044f", "amenity": "fast_food", "brand": "\u0422\u0435\u0440\u0435\u043c\u043e\u043a", "brand:en": "Teremok", "brand:ru": "\u0422\u0435\u0440\u0435\u043c\u043e\u043a", "brand:wikidata": "Q4455593", "brand:wikipedia": "ru:\u0422\u0435\u0440\u0435\u043c\u043e\u043a (\u0441\u0435\u0442\u044c \u0431\u044b\u0441\u0442\u0440\u043e\u0433\u043e \u043f\u0438\u0442\u0430\u043d\u0438\u044f)", "check_date": "2023-02-14", "contact:email": "spb@teremok.ru", "contact:phone": "+7 812 2446600;+7 812 3632332", "contact:website": "https://teremok.ru/", "cuisine": "crepe;russian", "drive_through": "no", "internet_access": "no", "level": "3", "name": "\u0422\u0435\u0440\u0435\u043c\u043e\u043a", "name:en": "Teremok", "name:ru": "\u0422\u0435\u0440\u0435\u043c\u043e\u043a", "opening_hours": "Mo-Su 10:00-22:00", "operator": "\u0422\u0435\u0440\u0435\u043c\u043e\u043a", "outdoor_seating": "no", "payment:cash": "yes", "payment:credit_cards": "yes", "payment:debit_cards": "yes", "payment:mastercard": "yes", "payment:mir": "yes", "payment:visa": "yes", "smoking": "no", "takeaway": "yes", "wheelchair": "yes"}}, {"type": "node", "id": 1032774580, "lat": 60.0520388, "lon": 30.3326727, "tags": {"amenity": "fast_food", "cuisine": "asian", "name": "\u0410\u043b\u044c\u0428\u0430\u0440\u043a"}}, {"type": "node", "id": 3049505287, "lat": 60.0531895, "lon": 30.3310147}, {"type": "node", "id": 3049505288, "lat": 60.0531909, "lon": 30.3309902}, {"type": "node", "id": 3049505289, "lat": 60.0531977, "lon": 30.3310345}, {"type": "node", "id": 3049505290, "lat": 60.0532001, "lon": 30.3309749}, {"type": "node", "id": 3049505291, "lat": 60.0532107, "lon": 30.331036}, {"type": "node", "id": 3049505292, "lat": 60.053212, "lon": 30.3309765}, {"type": "node", "id": 3049505293, "lat": 60.0532201, "lon": 30.3310176}, {"type": "node", "id": 3049505294, "lat": 60.0532202, "lon": 30.3309938}, {"type": "node", "id": 4829467364, "lat": 60.0520323, "lon": 30.3329402, "tags": {"addr:housenumber": "19", "addr:street": "\u043f\u0440\u043e\u0441\u043f\u0435\u043a\u0442 \u041f\u0440\u043e\u0441\u0432\u0435\u0449\u0435\u043d\u0438\u044f", "amenity": "fast_food", "brand": "\u0412\u043a\u0443\u0441\u043d\u043e \u2014 \u0438 \u0442\u043e\u0447\u043a\u0430", "brand:en": "Vkusno i tochka", "brand:ru": "\u0412\u043a\u0443\u0441\u043d\u043e \u2014 \u0438 \u0442\u043e\u0447\u043a\u0430", "brand:wikidata": "Q112406961", "breakfast": "no", "check_date": "2023-02-14", "contact:email": "info@qsrsystem.ru", "contact:phone": "+7 812 3181693", "contact:vk": "https://vk.com/vkusno_itochka", "contact:website": "https://vkusnoitochka.ru", "cuisine": "burger", "drive_through": "no", "internet_access": "wlan", "level": "3", "name": "\u0412\u043a\u0443\u0441\u043d\u043e \u2014 \u0438 \u0442\u043e\u0447\u043a\u0430", "name:en": "Vkusno i tochka", "name:ru": "\u0412\u043a\u0443\u0441\u043d\u043e \u2014 \u0438 \u0442\u043e\u0447\u043a\u0430", "old_name": "\u041c\u0430\u043a\u0434\u043e\u043d\u0430\u043b\u0434\u0441", "old_name:en": "McDonald\u2019s", "opening_hours": "10:00-22:00", "outdoor_seating": "no", "payment:cash": "yes", "payment:credit_cards": "yes", "payment:debit_cards": "yes", "payment:mastercard": "yes", "payment:mir": "yes", "payment:visa": "yes", "smoking": "no", "takeaway": "yes", "wheelchair": "yes"}}, {"type": "node", "id": 5151926968, "lat": 60.0522168, "lon": 30.3328844, "tags": {"addr:housenumber": "19", "addr:street": "\u043f\u0440\u043e\u0441\u043f\u0435\u043a\u0442 \u041f\u0440\u043e\u0441\u0432\u0435\u0449\u0435\u043d\u0438\u044f", "amenity": "fast_food", "brand": "\u0411\u0443\u0440\u0433\u0435\u0440 \u041a\u0438\u043d\u0433", "brand:en": "Burger King", "brand:ru": "\u0411\u0443\u0440\u0433\u0435\u0440 \u041a\u0438\u043d\u0433", "brand:wikidata": "Q177054", "brand:wikipedia": "en:Burger King", "check_date": "2023-02-14", "contact:email": "info@burgerkingrus.ru", "contact:phone": "+7 495 5445000", "contact:website": "https://burgerkingrus.ru/", "cuisine": "burger", "delivery": "yes", "drive_through": "no", "internet_access": "wlan", "internet_access:fee": "no", "level": "3", "name": "\u0411\u0443\u0440\u0433\u0435\u0440 \u041a\u0438\u043d\u0433", "name:en": "Burger King", "name:ru": "\u0411\u0443\u0440\u0433\u0435\u0440 \u041a\u0438\u043d\u0433", "opening_hours": "Mo-Su 10:00-22:00", "operator": "\u0411\u0423\u0420\u0413\u0415\u0420 \u0420\u0423\u0421", "operator:phone": "+7 495 5445000", "outdoor_seating": "no", "payment:mastercard": "yes", "payment:visa": "yes", "ref": "322", "smoking": "no", "takeaway": "yes", "wheelchair": "yes"}}, {"type": "node", "id": 8938923925, "lat": 60.052337, "lon": 30.332758, "tags": {"amenity": "fast_food", "brand": "One Price Coffee", "brand:wikidata": "Q108215010", "contact:email": "b2b@onepricecoffee.com", "contact:phone": "+7 495 0153150", "contact:website": "https://onepricecoffee.com/", "cuisine": "coffee_shop", "name": "One Price Coffee", "opening_hours": "Mo-Fr 07:00-22:00; Sa-Su 08:00-22:00", "takeaway": "yes"}}, {"type": "way", "id": 300857218, "nodes": [3049505288, 3049505287, 3049505289, 3049505291, 3049505293, 3049505294, 3049505292, 3049505290, 3049505288], "tags": {"amenity": "fast_food", "name": "\u0412\u0430\u0442\u0440\u0443\u0448\u043a\u0430", "phone": "+7 812 7028833", "website": "http://watrushka.ru/"}}]}