{"version": 0.6, "generator": "Overpass API 0.7.62.1 084b4234", "osm3s": {"timestamp_osm_base": "2024-05-17T22:45:59Z", "copyright": "The data included in this document is from www.openstreetmap.org. The data is made available under ODbL."}, "elements": [{"type": "node", "id": 1411203483, "lat": 48.7643984, "lon": 44.7870823}, {"type": "node", "id": 1411203491, "lat": 48.765791, "lon": 44.7877661}, {"type": "node", "id": 1411203495, "lat": 48.7651523, "lon": 44.7884552}, {"type": "node", "id": 1411203529, "lat": 48.7651023, "lon": 44.7863227}, {"type": "node", "id": 2678330727, "lat": 48.7644819, "lon": 44.7872603}, {"type": "node", "id": 2678330728, "lat": 48.7645551, "lon": 44.7871813}, {"type": "node", "id": 2678330731, "lat": 48.7655112, "lon": 44.7871927}, {"type": "node", "id": 2678330732, "lat": 48.7656927, "lon": 44.7875623}, {"type": "node", "id": 4969827308, "lat": 48.7651422, "lon": 44.786407}, {"type": "node", "id": 4969827309, "lat": 48.7653354, "lon": 44.7868242}, {"type": "way", "id": 127526369, "nodes": [1411203529, 1411203483, 2678330727, 2678330728, 1411203495, 1411203491, 2678330732, 2678330731, 4969827309, 4969827308, 1411203529], "tags": {"addr:city": "\u0412\u043e\u043b\u0436\u0441\u043a\u0438\u0439", "addr:housenumber": "313", "addr:street": "\u043f\u0440\u043e\u0441\u043f\u0435\u043a\u0442 \u041b\u0435\u043d\u0438\u043d\u0430", "brand": "\u041b\u0435\u043d\u0442\u0430", "brand:en": "Lenta", "brand:wikidata": "Q4258608", "brand:wikipedia": "ru:\u041b\u0435\u043d\u0442\u0430 (\u0441\u0435\u0442\u044c \u043c\u0430\u0433\u0430\u0437\u0438\u043d\u043e\u0432)", "building": "retail", "building:colour": "#FFFF00", "building:levels": "1", "contact:email": "info@lenta.com", "contact:facebook": "https://www.facebook.com/lentacom", "contact:instagram": "https://www.instagram.com/lenta_com", "contact:ok": "https://ok.ru/group/53286834208943", "contact:phone": "+7 800 7004111", "contact:vk": "https://vk.com/lentacom", "contact:website": "https://www.lenta.com", "delivery": "no", "height": "10", "internet_access": "no", "name": "\u041b\u0435\u043d\u0442\u0430", "name:en": "Lenta", "opening_hours": "24/7", "operator": "\u041e\u041e\u041e \"\u041b\u0435\u043d\u0442\u0430\"", "shop": "supermarket", "toilets": "yes", "wheelchair": "yes", "wheelchair:description:ru": "\u0434\u0430\u043d\u043d\u044b\u0435 \u041b\u0435\u043d\u0442\u044b"}}]}