{"version": 0.6, "generator": "Overpass API 0.7.62.1 084b4234", "osm3s": {"timestamp_osm_base": "2024-05-17T22:48:06Z", "copyright": "The data included in this document is from www.openstreetmap.org. The data is made available under ODbL."}, "elements": [{"type": "node", "id": 1231182599, "lat": 51.7477708, "lon": 36.1949114, "tags": {"amenity": "atm", "brand": "\u0412\u0422\u0411", "brand:en": "VTB Bank", "brand:wikidata": "Q1549389", "name:en": "VTB Bank", "operator": "\u0412\u0422\u0411", "operator:wikidata": "Q1549389", "website": "https://www.vtb24.ru/"}}, {"type": "node", "id": 1233353406, "lat": 51.7469503, "lon": 36.1942033, "tags": {"amenity": "atm", "contact:website": "https://www.rosbank.ru/", "name": "\u0420\u043e\u0441\u0431\u0430\u043d\u043a", "operator": "\u041f\u0410\u041e \u0420\u041e\u0421\u0411\u0410\u041d\u041a"}}, {"type": "node", "id": 1315446002, "lat": 51.7478523, "lon": 36.1950823, "tags": {"amenity": "atm", "name": "\u0420\u0430\u0439\u0444\u0444\u0430\u0439\u0437\u0435\u043d\u0431\u0430\u043d\u043a", "opening_hours": "24/7", "operator": "\u0410\u041e \"\u0420\u0430\u0439\u0444\u0444\u0430\u0439\u0437\u0435\u043d\u0431\u0430\u043d\u043a\"", "website": "https://www.raiffeisen.ru/"}}, {"type": "node", "id": 1455165980, "lat": 51.7475213, "lon": 36.1942003, "tags": {"amenity": "atm", "name": "\u042d\u043a\u0441\u043f\u043e\u0431\u0430\u043d\u043a", "name:en": "Expobank", "opening_hours": "24/7", "operator": "\u0410\u041e \"\u042d\u043a\u0441\u043f\u043e\u0431\u0430\u043d\u043a\"", "operator:en": "\"Expobank\" JSC"}}, {"type": "node", "id": 1593309200, "lat": 51.74783, "lon": 36.1950313, "tags": {"amenity": "atm", "brand": "\u0421\u0431\u0435\u0440\u0431\u0430\u043d\u043a", "brand:en": "Sberbank", "brand:ru": "\u0421\u0431\u0435\u0440\u0431\u0430\u043d\u043a", "brand:wikidata": "Q205012", "name": "\u0421\u0431\u0435\u0440\u0431\u0430\u043d\u043a", "name:en": "Sberbank", "name:ru": "\u0421\u0431\u0435\u0440\u0431\u0430\u043d\u043a", "operator": "\u0421\u0431\u0435\u0440\u0431\u0430\u043d\u043a", "operator:wikidata": "Q205012", "website": "https://www.sberbank.ru/"}}]}