{"version": 0.6, "generator": "Overpass API 0.7.62.1 084b4234", "osm3s": {"timestamp_osm_base": "2024-05-16T19:21:43Z", "copyright": "The data included in this document is from www.openstreetmap.org. The data is made available under ODbL."}, "elements": [{"type": "node", "id": 678850532, "lat": 55.7456286, "lon": 52.4223456}, {"type": "node", "id": 678850578, "lat": 55.7454673, "lon": 52.4226289}, {"type": "node", "id": 678850621, "lat": 55.7454954, "lon": 52.4225796, "tags": {"entrance": "yes"}}, {"type": "node", "id": 678850627, "lat": 55.7453319, "lon": 52.4223856}, {"type": "node", "id": 678850638, "lat": 55.7454931, "lon": 52.4221023}, {"type": "node", "id": 5924194650, "lat": 55.745596, "lon": 52.422287, "tags": {"entrance": "service"}}, {"type": "way", "id": 53765629, "nodes": [678850638, 5924194650, 678850532, 678850621, 678850578, 678850627, 678850638], "tags": {"addr:city": "\u041d\u0430\u0431\u0435\u0440\u0435\u0436\u043d\u044b\u0435 \u0427\u0435\u043b\u043d\u044b", "addr:country": "RU", "addr:housenumber": "13\u0410", "addr:postcode": "423810", "addr:street": "\u043f\u0440\u043e\u0441\u043f\u0435\u043a\u0442 \u0412\u0430\u0445\u0438\u0442\u043e\u0432\u0430", "addr:suburb": "\u041d\u043e\u0432\u044b\u0439 \u0433\u043e\u0440\u043e\u0434", "amenity": "fast_food", "brand": "\u0412\u043a\u0443\u0441\u043d\u043e \u2014 \u0438 \u0442\u043e\u0447\u043a\u0430", "brand:en": "Vkusno i tochka", "brand:ru": "\u0412\u043a\u0443\u0441\u043d\u043e \u2014 \u0438 \u0442\u043e\u0447\u043a\u0430", "brand:wikidata": "Q112406961", "building": "commercial", "building:levels": "1", "contact:phone": "+7 855 2204817", "contact:website": "https://skoro-tut-budut-burgers.ru/", "cuisine": "burger", "diet:vegetarian": "no", "drive_in": "no", "drive_through": "yes", "internet_access": "wlan", "name": "\u0412\u043a\u0443\u0441\u043d\u043e \u2014 \u0438 \u0442\u043e\u0447\u043a\u0430", "name:en": "Vkusno i tochka", "name:ru": "\u0412\u043a\u0443\u0441\u043d\u043e \u2014 \u0438 \u0442\u043e\u0447\u043a\u0430", "opening_hours": "Mo-Su 06:00-05:00", "smoking": "no", "takeaway": "yes"}}]}