{"version": 0.6, "generator": "Overpass API 0.7.62.1 084b4234", "osm3s": {"timestamp_osm_base": "2024-05-14T00:22:35Z", "copyright": "The data included in this document is from www.openstreetmap.org. The data is made available under ODbL."}, "elements": [{"type": "node", "id": 1458996289, "lat": 53.5493713, "lon": 49.3608294}, {"type": "node", "id": 1458996363, "lat": 53.5485926, "lon": 49.3598774}, {"type": "node", "id": 1458996378, "lat": 53.5494618, "lon": 49.3608514}, {"type": "node", "id": 1458996394, "lat": 53.5486109, "lon": 49.3596853}, {"type": "node", "id": 1458996403, "lat": 53.5487744, "lon": 49.3589217}, {"type": "node", "id": 1458996432, "lat": 53.5486117, "lon": 49.3608162}, {"type": "node", "id": 1458996437, "lat": 53.549446, "lon": 49.3610157}, {"type": "node", "id": 1458996459, "lat": 53.5487544, "lon": 49.3591382}, {"type": "node", "id": 1458996483, "lat": 53.5486213, "lon": 49.3606552}, {"type": "node", "id": 1458996499, "lat": 53.5485767, "lon": 49.3602958}, {"type": "node", "id": 1458996502, "lat": 53.5495236, "lon": 49.3591201}, {"type": "node", "id": 1458996533, "lat": 53.5486723, "lon": 49.3593463}, {"type": "way", "id": 132643414, "nodes": [1458996403, 1458996459, 1458996533, 1458996394, 1458996363, 1458996499, 1458996483, 1458996432, 1458996437, 1458996378, 1458996289, 1458996502, 1458996403], "tags": {"addr:city": "\u0422\u043e\u043b\u044c\u044f\u0442\u0442\u0438", "addr:country": "RU", "addr:housenumber": "4", "addr:postcode": "445047", "addr:street": "\u042e\u0436\u043d\u043e\u0435 \u0448\u043e\u0441\u0441\u0435", "brand": "\u041b\u0435\u043d\u0442\u0430", "brand:en": "Lenta", "brand:wikidata": "Q4258608", "brand:wikipedia": "ru:\u041b\u0435\u043d\u0442\u0430 (\u0441\u0435\u0442\u044c \u043c\u0430\u0433\u0430\u0437\u0438\u043d\u043e\u0432)", "building": "supermarket", "contact:email": "info@lenta.com", "contact:facebook": "https://www.facebook.com/lentacom", "contact:instagram": "https://www.instagram.com/lenta_com", "contact:ok": "https://ok.ru/group/53286834208943", "contact:phone": "+7 800 7004111", "contact:vk": "https://vk.com/lentacom", "contact:website": "https://www.lenta.com", "delivery": "yes", "internet_access": "no", "name": "\u041b\u0435\u043d\u0442\u0430", "name:en": "Lenta", "opening_hours": "24/7", "operator": "\u041e\u041e\u041e \"\u041b\u0435\u043d\u0442\u0430\"", "shop": "supermarket", "toilets": "yes", "wheelchair": "yes", "wheelchair:description:ru": "\u0434\u0430\u043d\u043d\u044b\u0435 \u041b\u0435\u043d\u0442\u044b"}}]}