,id,atm_group,address,address_rus,lat,long,target,city,city_area,city_district,federal_district,fast_food,cafe,bar,pub,restaurant,college,kindergarten,library,training,school,traffic_park,university,bicycle_parking,bus_station,car_sharing,fuel,parking,taxi,atm,payment_terminal,bank,bureau_de_change,money_transfer,payment_centre,clinic,hospital,pharmacy,social_facility,cinema,community_centre,conference_centre,events_venue,exhibition_centre,nightclub,social_centre,theatre,police,post_box,post_office,toilets,internet_cafe,marketplace,"apartments, detached",detached,hotel,residential,commercial,industrial,kiosk,office,retail,supermarket,warehouse,religious,church,government,station,tram,platform,administrative,population
0,8532.0,32.0,"KOMSOMOLSKAYA,259B     Y.SAKHALINSK   ","Комсомольская улица, 259, Южно-Сахалинск, Сахалинская область, Россия",46.937353,142.753348,0.0297102650350859,Южно-Сахалинск,городской округ Южно-Сахалинск,XIV микрорайон,Сахалинская область,0,0,0,0,0,0,1,0,0,0,0,0,0,0,0,0,4,0,0,0,2,0,0,0,0,0,1,0,0,0,0,0,0,0,0,0,0,0,1,0,0,0,0,0,0,0,0,0,0,0,0,2,0,0,0,0,0,0,1,0,4680
1,8533.0,32.0,"KOMMUN. PR., 32        YUZHNO SAKHAL  ","Коммунистический проспект, Южно-Сахалинск, Сахалинская область, Россия",46.959413,142.741113,0.0095399608832554,Южно-Сахалинск,городской округ Южно-Сахалинск,Центр,Сахалинская область,0,0,0,0,0,0,0,0,0,1,0,1,0,0,0,0,0,0,0,0,1,0,0,0,0,0,0,0,0,0,0,0,0,0,0,1,0,0,0,0,0,0,0,0,0,0,3,0,0,0,0,0,0,0,0,0,0,0,0,0,312
2,8684.0,32.0,"LENINGRADSKIY PR.,76A  MOSCOW         ","Ленинградский проспект, 76А, Москва, Россия, 125315",55.805827,37.515146,-0.0940346244764994,Москва,,,Москва,6,1,0,0,1,0,1,0,0,0,0,0,4,0,0,0,3,0,3,2,3,1,0,0,0,0,3,0,0,0,0,0,0,0,0,0,1,0,1,2,0,0,0,0,0,0,1,0,2,0,1,0,0,0,0,0,1,0,4,3,6990
3,37.0,32.0,"GVARDEYSKAYA PL., 2    NORILSK        ","Гвардейская площадь, 2, Норильск, Красноярский край, Россия, 663302",69.343541,88.211228,0.0792773520096629,Норильск,городской округ Норильск,,Красноярский край,0,1,0,0,1,0,0,0,0,0,0,0,0,0,0,0,2,0,0,0,1,0,0,0,0,0,1,0,0,0,0,0,0,0,0,0,0,0,0,0,0,0,0,0,0,0,1,0,0,3,2,0,0,0,0,0,0,0,4,2,3420
4,313.0,32.0,"RUSSKAYA, 16           VLADIVOSTOK    ","Русская улица, 16, Владивосток, Приморский край, Россия, 690039",43.16586,131.908212,-0.1450012314747548,Владивосток,Владивостокский городской округ,,Приморский край,0,2,0,0,1,0,0,0,0,0,0,0,0,0,0,0,13,0,1,0,1,0,0,0,0,0,2,0,0,0,0,0,0,0,0,0,0,0,0,0,1,0,0,0,0,0,0,0,0,0,0,0,0,0,0,0,0,0,1,0,1260
5,335.0,32.0,"SHUKHOVA, 14           MOSCOW         ","улица Шухова, 14, Москва, Россия, 115162",55.716859,37.613063,-0.0246822352357643,Москва,,,Москва,0,3,0,0,0,0,0,0,0,1,0,0,2,0,0,0,2,0,0,0,0,0,0,0,0,0,0,0,0,0,0,0,0,0,0,0,0,0,0,0,0,0,0,0,1,0,6,0,0,1,0,0,0,0,0,1,0,0,0,4,3630
6,358.0,32.0,"ADMIRALA FOKINA, 25    VLADIVOSTOK    ","улица Адмирала Фокина, 25, Владивосток, Приморский край, Россия, 690091",43.117174,131.885503,-0.1334258834962322,Владивосток,Владивостокский городской округ,,Приморский край,0,8,1,0,1,0,0,0,0,0,0,1,0,0,0,0,26,0,2,0,3,1,0,0,0,0,1,0,0,0,0,0,0,0,0,0,0,0,1,1,0,0,0,0,0,0,0,0,0,0,0,0,0,0,0,0,0,0,1,2,2730
7,2895.0,32.0,Zhivopisnaia 136       d.Velednikov   ,"деревня Веледниково, городской округ Истра, Московская область, Россия",55.799765,37.116016,0.1414693533331615,,городской округ Истра,,Московская область,0,0,0,0,0,0,0,0,0,0,0,0,0,0,0,0,0,0,0,0,0,0,0,0,0,0,0,0,0,0,0,0,0,0,0,0,0,0,0,0,0,0,0,0,0,0,0,0,0,0,0,0,0,0,0,0,0,0,0,0,0
8,1975.0,496.5,BEKESHSKAYA 39            PENZA       ,"Бекешская улица, 39, Пенза, Россия, 440018",53.20322,44.978826,0.0172589332663376,городской округ Пенза,,,Пензенская область,0,0,0,0,0,0,0,0,0,0,0,0,0,0,0,0,3,0,0,0,1,0,0,0,1,0,0,0,0,0,0,0,0,0,0,0,0,0,0,0,0,0,0,0,0,0,1,0,0,0,0,0,1,0,0,0,0,0,0,0,381
9,1977.0,496.5,B.MOSKOVSKAYA 90A         VLADIMIR    ,"Большая Московская улица, 90А, Владимир, Россия, 600000",56.132925,40.419184,-0.0139490047116537,Владимир,городской округ Владимир,,Владимирская область,1,2,0,0,0,0,0,0,1,0,0,0,0,0,0,0,3,0,1,0,0,0,0,0,0,0,1,0,0,0,0,0,0,0,0,0,1,0,0,0,0,0,0,0,0,0,1,0,0,0,3,0,0,0,0,0,0,0,2,0,1089
10,1992.0,496.5,GORKOGO 20                TAMBOV      ,"улица Максима Горького, 20, Тамбов, Россия",52.718497,41.454511,-0.0484357394087966,Тамбов,,,Тамбовская область,0,0,0,0,0,0,0,0,0,0,0,0,0,0,0,0,3,0,0,0,2,0,0,0,0,0,0,0,0,0,0,0,0,0,0,0,0,0,0,0,0,0,0,0,0,0,0,0,0,1,0,0,0,0,0,0,0,0,2,0,1704
11,1998.0,496.5,KURASHOVA 28/1            YAKUTSK     ,"улица Курашова, 28/1, Якутск, Республика Саха (Якутия), Россия, 677000",62.033259,129.736382,-0.0642932974491817,Городской округ Якутск,городской округ Якутск,,Республика Саха (Якутия),0,0,0,0,0,0,0,0,0,0,0,0,0,0,0,0,1,0,0,0,0,0,0,0,0,0,0,0,0,0,0,0,0,0,0,0,0,0,0,0,0,0,0,0,0,2,9,0,0,0,0,0,0,0,0,0,0,0,0,0,0
12,2006.0,496.5,LENINA 32                 MUROM       ,"улица Ленина, 32, Муром, Владимирская область, Россия, 602267",55.577108,42.05437,-0.1001214289644553,Муром,городской округ Муром,,Владимирская область,0,0,0,0,1,0,0,0,0,0,0,0,0,0,0,0,4,0,0,0,0,0,0,0,0,0,0,0,1,0,0,0,0,0,0,0,0,0,0,0,0,1,0,0,0,0,0,0,0,0,2,0,0,0,0,0,0,0,2,0,714
13,2011.0,496.5,BOROVSKAYA 5              BALABANOVO  ,"Боровская улица, 5, Балабаново, Боровский район, Калужская область, Россия, 249000",55.180598,36.655611,-0.0008294956654186,,Боровский район,,Калужская область,0,0,0,0,1,0,0,0,0,0,0,0,0,0,0,0,0,0,1,0,1,0,0,0,0,0,0,0,0,0,0,0,0,0,0,0,0,0,0,0,0,0,0,0,0,0,1,0,0,0,0,0,0,0,0,0,0,0,2,0,408
14,2012.0,496.5,SOVETSKAYA 21             ZHUKOV      ,"Советская улица, 21, Жуков, Калужская область, Россия, 249191",55.027991,36.750518,-0.0476678404207127,,Жуковский район,,Калужская область,0,0,0,0,0,0,0,0,0,0,0,0,0,0,0,0,0,0,1,0,1,0,0,0,0,0,0,0,0,0,0,0,0,0,0,0,1,0,0,0,0,0,0,0,0,0,0,0,0,0,0,0,0,0,0,0,0,0,1,0,78
15,2017.0,496.5,DORZHIEVA 24A             MUKHORSHIBIR,"улица Доржиева, 24А, село Мухоршибирь, Республика Бурятия, Россия",51.048934,107.822322,0.017372643984509,,Мухоршибирский район,,Республика Бурятия,0,0,0,0,0,0,0,0,0,0,0,0,0,0,0,0,0,0,0,0,0,0,0,0,0,0,0,0,0,1,0,0,0,0,0,0,0,0,0,0,0,0,0,0,0,0,0,0,0,0,0,0,0,0,0,0,0,0,0,0,0
16,2022.0,496.5,SADOVAYA 27B              KRIVODANOVKA,"Садовая улица, 27, село Криводановка, Новосибирский район, Новосибирская область, Россия",55.086363,82.64683,-0.0276573657875183,,Новосибирский район,,Новосибирская область,0,0,0,0,0,0,0,0,0,0,0,0,0,0,0,0,0,0,0,0,0,0,0,0,0,0,1,0,0,0,0,0,0,0,0,0,0,0,1,0,0,0,0,0,0,0,0,0,0,0,4,0,0,0,0,0,0,0,0,0,960
17,2023.0,496.5,SOVETSKAYA 19             KUGESI      ,"Советская улица, 19, поселок городского типа Кугеси, Чебоксарский район, Чувашская Республика, Россия, 429500",56.029642,47.294593,-0.0778711918613832,,Чебоксарский муниципальный округ,,Чувашия,0,0,0,0,0,0,0,0,0,0,0,0,0,0,0,0,4,0,0,0,2,0,0,0,0,0,0,0,0,0,0,0,0,0,0,0,0,0,0,1,0,0,0,0,0,0,0,0,0,0,0,0,0,0,1,0,0,0,0,0,0
18,2027.0,496.5,MELNIKOVA 106             CHERLAK     ,"улица Мельникова, 106, посёлок городского типа Черлак, Черлакский район, Омская область, Россия, 646250",54.151887,74.79789,-0.0506266855287384,,Черлакский район,,Омская область,0,0,0,0,0,0,0,0,0,0,0,0,0,0,0,0,0,0,0,0,0,0,0,0,0,0,0,0,0,0,0,0,0,0,0,0,0,0,0,0,0,0,0,0,0,0,0,0,0,0,1,0,0,0,0,0,0,0,0,0,63
19,2033.0,496.5,POBEDY 67/2               PETROPAVLOVS,"проспект Победы, 67/2, Петропавловск-Камчатский, Камчатский край, Россия, 683902",53.070803,158.58752,0.0190607428520956,Петропавловск-Камчатский,городской округ Петропавловск-Камчатский,,Камчатский край,2,3,0,0,2,0,0,0,0,0,0,0,0,0,0,0,1,0,1,0,1,0,0,0,0,0,0,0,1,0,0,0,0,0,0,0,0,0,0,1,0,0,0,0,0,0,0,0,0,0,0,0,0,0,0,0,0,0,0,0,0
20,2034.0,496.5,POLEVAYA 4                MEDVEDEVO   ,"Полевая улица, 4, посёлок городского типа Медведево, Медведевский район, Республика Марий Эл, Россия, 425200",56.63759,47.803974,-0.0274751961229577,,Медведевский район,,Марий Эл,0,0,0,0,0,0,1,0,0,0,0,0,0,0,0,0,0,0,1,0,0,0,0,0,0,0,0,0,0,0,0,0,0,0,0,0,0,0,0,0,0,0,0,0,0,0,0,0,0,0,0,0,0,0,0,0,0,0,0,0,960
21,2035.0,496.5,UPITA 5A                  KIROV       ,"улица Андрея Упита, 5А, Киров, Россия, 610050",58.605564,49.591163,-0.1013755908540726,Киров,городской округ Киров,,Кировская область,0,0,0,0,0,0,0,0,0,1,0,0,0,0,0,0,0,0,0,0,1,0,0,0,0,0,2,0,0,0,0,0,0,0,0,0,0,0,0,0,0,0,0,0,0,0,0,0,0,0,0,0,0,0,0,0,0,0,0,0,6030
22,2850.0,496.5,VOSTOCHNAYA 42/7          ORENBURG    ,"Восточная улица, 42/7, Оренбург, Россия, 460021",51.784175,55.153504,-0.086529509128304,Оренбург,городской округ Оренбург,,Оренбургская область,0,0,0,0,0,0,0,0,0,0,0,0,0,0,0,0,0,0,0,0,1,0,0,0,0,0,0,0,0,0,0,0,0,0,0,0,0,0,0,0,0,0,0,0,0,0,0,0,0,0,1,0,0,0,0,0,0,0,1,4,2811
23,2873.0,496.5,AMURSKAYA 13              CHITA       ,"Амурская улица, 13, Чита, Забайкальский край, Россия, 672039",52.023722,113.513428,-0.0732875290072723,Чита,городской округ Чита,,Забайкальский край,0,0,0,0,0,0,1,0,0,0,0,1,0,0,0,0,1,0,0,0,1,0,0,0,0,0,0,0,0,0,0,0,0,0,0,0,0,0,0,0,0,0,0,0,0,0,0,0,0,0,0,0,0,0,0,0,0,0,2,1,990
24,2876.0,496.5,VOROVSKOGO 43             KIROV       ,"улица Воровского, 43, Киров, Россия",58.594438,49.666657,-0.1105973682659273,Киров,городской округ Киров,,Кировская область,3,1,0,0,0,0,0,0,0,0,0,0,2,0,0,0,2,0,3,0,3,0,0,0,0,0,0,0,0,0,0,0,0,0,0,0,0,0,0,0,0,0,0,0,0,0,0,0,0,0,0,0,0,0,0,0,0,0,1,0,810
25,2877.0,496.5,LENINA 3                  PRISTEN     ,"улица Ленина, 3, посёлок городского типа Пристень, Пристенский район, Курская область, Россия, 306200",51.235052,36.694293,-0.0787939986779948,,Пристенский район,,Курская область,0,0,0,0,0,0,0,0,0,0,0,0,0,0,0,0,0,0,0,0,1,0,0,0,0,0,0,0,0,0,0,0,0,0,0,0,0,0,0,0,0,0,0,0,0,0,0,0,0,0,5,0,0,0,0,0,0,0,0,0,84
26,2897.0,496.5,KARLA MARKSA 76/1         KURGAN      ,"улица Карла Маркса, 76/1, Курган, Россия",55.442245,65.35418,-0.0261465882319446,Курган,городской округ Курган,,Курганская область,0,0,0,0,0,0,0,0,0,0,0,0,1,0,0,0,1,0,1,0,0,0,0,0,0,0,0,0,0,0,0,0,0,0,0,0,0,0,0,0,0,0,0,0,0,0,1,0,0,0,1,0,0,0,0,0,0,0,0,0,5343
27,2900.0,496.5,KALACHINSKAYA 25          KALACHINSK  ,"Калачинская улица, 25, Калачинск, Омская область, Россия, 646900",55.047817,74.588663,0.0182088275363533,,Калачинский район,,Омская область,0,1,0,0,0,0,0,0,0,0,0,0,0,0,0,0,0,0,0,0,0,0,0,0,0,0,0,0,0,0,0,0,0,0,0,0,0,0,0,0,0,0,0,0,0,0,0,0,0,0,0,0,0,0,0,0,0,0,0,0,0
28,2914.0,496.5,ZAVOYKO 7                 ELIZOVO     ,"улица Завойко, 7, Елизово, Камчатский край, Россия, 684000",53.1871,158.383863,0.0613509276698259,,Елизовский район,,Камчатский край,2,1,0,0,0,0,0,0,0,1,0,0,0,0,0,0,2,0,0,1,1,0,0,0,0,0,1,0,0,0,0,0,0,0,0,0,0,0,1,0,0,0,0,0,0,0,0,0,0,0,0,0,0,0,0,0,0,0,2,2,0
29,2923.0,496.5,19-LINIYA 10              IVANOVO     ,"19-я линия, 10, Иваново, Россия, 153031",56.989885,40.932023,-0.0447300215074948,Иваново,городской округ Иваново,,Ивановская область,0,0,0,0,0,0,1,0,0,0,0,0,0,0,0,0,0,0,0,0,0,0,0,0,0,0,0,0,0,0,0,0,0,0,0,0,1,0,0,0,0,0,0,0,0,0,0,0,0,0,0,0,0,0,0,0,0,0,0,0,3936
30,2951.0,496.5,DEYNEKI 19                KURSK       ,"улица Дейнеки, 19, микрорайон КЗТЗ, Курск, Россия, 305047",51.704063,36.142449,-0.0632106189153011,городской округ Курск,,,Курская область,0,0,0,0,1,0,0,0,0,0,0,0,0,0,0,0,3,0,5,0,1,0,0,0,0,0,2,0,0,0,0,0,0,0,0,0,0,0,1,0,0,1,0,0,0,0,0,0,0,0,0,0,0,0,0,0,0,2,0,0,3900
31,2973.0,496.5,KRASNIY PUT' 9            KRUTINKA    ,"улица Красный Путь, 9, посёлок городского типа Крутинка, Крутинский район, Омская область, Россия, 646130",56.011686,71.508439,-0.0560772655674922,,Крутинский район,,Омская область,0,0,0,0,0,0,0,0,0,0,0,0,0,0,0,0,0,0,0,0,0,0,0,0,0,0,0,0,0,0,0,0,0,0,0,0,0,0,0,0,0,0,0,0,0,0,0,0,0,0,1,0,0,0,0,0,0,0,0,0,0
32,4446.0,496.5,PERVOMAYSKAYA 11          POCHEP      ,"Первомайская улица, 11, Почеп, Брянская область, Россия, 243400",52.928305,33.458786,-0.072754581511643,,Почепский район,,Брянская область,0,0,1,0,0,0,0,0,0,1,0,0,0,0,0,0,0,0,3,0,1,0,0,0,0,0,1,0,0,0,0,0,0,0,0,0,0,0,0,0,0,0,0,0,0,0,0,0,0,0,0,0,0,0,0,0,0,0,0,0,0
33,4447.0,496.5,OKTYABRSKAYA 138          PRYAMITSYNO ,"Октябрьская улица, 138, посёлок городского типа Прямицыно, Октябрьский район, Курская область, Россия, 307200",51.65787,35.942753,-0.1166702729015236,,Октябрьский район,,Курская область,0,0,0,0,0,0,0,0,0,0,0,0,0,0,0,0,1,0,0,0,0,0,0,0,0,0,1,0,0,0,0,0,0,0,0,0,0,0,0,0,0,1,0,0,0,0,0,0,0,0,0,0,0,0,0,0,0,0,0,0,0
34,4458.0,496.5,BORISA BOGATKOVA 248      NOVOSIBIRSK ,"улица Бориса Богаткова, 248, Новосибирск, Россия, 630089",55.037515,82.978811,-0.1450012314747548,Новосибирск,,,Новосибирская область,0,1,0,0,0,0,0,0,0,0,0,0,0,0,0,0,3,0,2,1,0,0,0,0,0,0,1,0,0,0,0,0,0,0,0,0,0,0,2,0,0,1,0,0,0,0,0,0,0,0,0,0,0,0,0,0,0,0,1,3,1080
35,4466.0,496.5,GLADKOVA 10               CHEBOKSARY  ,"улица Фёдора Гладкова, 10, Чебоксары, Чувашская Республика, Россия, 428020",56.114525,47.247854,-0.072514123951843,Чебоксары,городской округ Чебоксары,,Чувашия,0,0,0,0,0,0,0,0,0,0,0,0,0,0,0,0,1,0,1,0,0,0,0,0,0,0,0,0,0,0,0,0,0,0,0,0,0,0,0,0,0,1,0,0,0,0,0,0,0,0,3,0,0,0,0,0,0,0,0,0,0
36,4470.0,496.5,LENINA 11                 KIREYEVSK   ,"улица Ленина, 11, Киреевск, Тульская область, Россия, 301260",53.928249,37.933231,0.0038810733224638,,Киреевский район,,Тульская область,0,0,0,0,0,0,0,0,0,0,0,0,0,0,0,0,0,0,0,0,0,0,0,0,0,0,2,0,0,0,0,0,0,0,0,0,0,0,0,0,0,0,0,0,0,0,0,0,0,0,0,0,0,0,0,0,0,0,0,0,3300
37,4489.0,496.5,LENINA 56                 AKSHA       ,"улица Ленина, 52/7, село Акша, Акшинский район, Забайкальский край, Россия",50.28123,113.286909,-0.0592366742744187,,Акшинский муниципальный округ,,Забайкальский край,0,1,0,0,0,0,0,0,0,0,0,0,0,0,0,0,0,0,0,0,1,0,0,0,0,0,1,0,0,0,0,0,0,0,0,0,0,0,0,0,0,0,0,0,0,0,0,0,0,0,0,0,0,0,0,0,0,0,0,0,120
38,4491.0,496.5,VAREYKISA 2/1             ULYANOVSK   ,"улица Варейкиса, 2с1, Ульяновск, Россия",54.256466,48.324044,-0.0980594476313604,Ульяновск,городской округ Ульяновск,,Ульяновская область,0,0,0,0,0,0,1,0,0,0,0,0,0,0,0,0,5,0,0,0,0,0,0,0,0,0,0,0,0,0,0,0,0,0,0,0,0,1,0,0,0,0,0,0,0,0,0,0,1,0,1,0,0,0,0,0,0,0,1,0,4650
39,4510.0,496.5,PER. BAZARNY 4            SPASSK-DALNY,"Приморский край, г Спасск-Дальний, пер Базарный, д 4",44.5901175,132.8157288,0.0391906415946258,,городской округ Спасск-Дальний,,Приморский край,0,0,0,0,0,0,0,0,0,0,0,0,0,0,0,0,0,0,0,0,0,0,0,0,0,0,0,0,0,0,0,0,0,0,0,0,0,0,0,0,0,0,0,11,0,0,0,0,0,0,0,0,0,0,0,0,0,0,0,0,0
40,4511.0,496.5,GRIGORENKO 8              LESOZAVODSK ,"улица Григоренко, 8, Лесозаводск, Приморский край, Россия",45.462274,133.403108,-0.0297719821936396,,Лесозаводский городской округ,,Приморский край,0,1,0,0,0,0,0,0,0,0,0,0,0,0,0,0,2,0,0,0,0,0,0,0,0,0,1,0,0,0,0,0,0,0,0,0,0,0,0,0,0,0,0,9,0,0,0,0,0,0,0,0,0,0,0,0,0,0,2,0,0
41,4512.0,496.5,SEMIRECHENSKAYA 93        OMSK        ,"Семиреченская улица, 93, Омск, Россия, 644016",54.931034,73.29667,-0.1265452639321686,Омск,городской округ Омск,,Омская область,0,0,0,0,0,0,0,0,0,0,0,0,0,0,0,0,0,0,0,0,0,0,0,0,0,0,0,0,0,0,0,0,0,0,0,0,0,0,0,0,0,0,0,4,0,0,0,0,0,0,0,0,0,0,0,0,0,0,2,0,0
42,4523.0,496.5,AVTOZAVODSKAYA 56         ULYANOVSK   ,"Автозаводская улица, 56, Ульяновск, Россия, 432008",54.291753,48.315699,-0.1291552724331702,Ульяновск,городской округ Ульяновск,,Ульяновская область,0,0,0,0,0,0,1,0,0,1,0,0,0,0,0,0,7,0,0,0,0,0,0,0,0,0,1,0,0,0,0,0,0,0,0,0,0,0,0,0,0,0,0,0,0,0,0,0,0,0,2,0,0,0,0,0,0,0,1,0,2343
43,4526.0,496.5,"MOSKOVSKIY PR-T, 19B      VORONEZH    ","Московский проспект, 19, Воронеж, Россия, 394026",51.693681,39.181539,-0.0596248180663582,Воронеж,городской округ Воронеж,,Воронежская область,1,0,0,0,0,0,0,0,0,0,0,0,0,1,0,0,0,0,1,0,1,0,0,0,0,0,0,0,0,0,0,0,0,0,0,0,0,0,0,0,0,0,0,0,0,0,1,0,0,0,0,0,0,0,0,0,0,0,1,1,1833
44,4542.0,496.5,B.KHMELNITSKOGO 81        EYSK        ,"улица Богдана Хмельницкого, 81, Ейск, Краснодарский край, Россия",46.695209,38.283637,-0.0380044030102233,,Ейский район,,Краснодарский край,1,0,0,0,0,0,0,0,0,0,0,0,0,0,0,0,5,0,6,0,0,0,0,0,0,0,1,1,0,0,0,0,0,0,0,0,0,1,1,0,0,0,0,0,0,1,1,1,0,0,3,0,0,0,0,0,0,0,1,0,762
45,4574.0,496.5,KALININA AVE. 15/1        TVER        ,"проспект Калинина, 15с1, Тверь, Россия, 170001",56.85372,35.865292,-0.0257150526075146,городской округ Тверь,,Двор Пролетарки,Тверская область,0,3,0,0,2,0,0,0,0,0,0,0,0,0,0,0,3,0,2,0,0,0,0,0,0,0,1,0,0,0,0,0,0,0,0,0,0,0,0,1,0,0,0,0,0,0,0,0,0,0,1,0,0,0,0,0,0,0,0,0,0
46,4584.0,496.5,OKTIABRSKAYA 1            NAMTSY      ,"Октябрьская улица, 1, село Намцы, Намский улус, Республика Саха (Якутия), Россия, 678380",62.71844,129.66555,-0.1450012314747548,,Намский улус,,Республика Саха (Якутия),0,0,0,0,0,0,0,0,0,1,0,0,0,0,0,0,1,0,0,0,1,0,0,0,0,0,0,0,0,0,0,0,0,0,0,0,0,0,0,0,0,0,0,0,0,0,0,0,0,0,0,0,0,0,0,0,0,0,0,2,0
47,4586.0,496.5,SVOBODY 51                IVANOVO     ,"улица Свободы, 51, Иваново, Россия, 153045",57.015939,41.005425,-0.056721627370048,Иваново,городской округ Иваново,,Ивановская область,0,0,0,0,0,0,0,0,0,0,0,0,0,0,0,0,2,0,0,0,0,0,0,0,2,0,0,0,0,0,0,0,0,0,0,0,0,0,0,0,0,0,0,0,0,0,1,0,0,0,0,0,0,0,0,0,0,0,0,3,1560
48,4588.0,496.5,PROFINTERNA 9/25          OMSK        ,"улица Профинтерна, 9, Омск, Россия, 644082",54.933853,73.332046,-0.0063364060107538,Омск,городской округ Омск,,Омская область,0,0,0,0,0,0,0,0,0,0,0,0,0,0,0,0,1,0,0,0,0,0,0,0,0,0,0,0,0,0,0,0,0,0,0,0,1,0,0,0,0,1,0,0,0,0,0,0,0,0,0,0,0,0,0,0,0,0,0,0,2085
49,4594.0,496.5,KAZANSKY PR. 75/48        V.VOLOCHEK  ,"Казанский проспект, 75/48, Вышний Волочёк, Тверская область, Россия, 171163",57.58633,34.560713,-0.0848792338682799,,Вышневолоцкий городской округ,,Тверская область,0,0,0,0,0,0,0,0,0,0,0,0,0,0,0,0,0,0,0,0,0,0,0,0,0,0,1,0,0,0,0,0,0,0,0,0,0,0,0,0,0,0,0,0,0,0,3,1,0,0,1,0,0,0,0,0,0,0,1,0,363
50,4606.0,496.5,KLUCHEVSKAYA 6B           ULAN-UDE    ,"Ключевская улица, 6, Улан-Удэ, Республика Бурятия, Россия, 670013",51.820888,107.632517,0.0407118469518227,Улан-Удэ,городской округ Улан-Удэ,,Республика Бурятия,0,0,0,0,0,0,1,0,0,0,0,0,0,0,0,0,1,0,0,0,1,0,0,0,0,0,0,0,0,0,0,0,0,0,0,0,0,0,0,0,0,0,0,0,0,0,0,0,0,0,0,0,0,0,0,0,0,2,4,0,0
51,4608.0,496.5,BONDARENKO 37             IVANOVKA    ,"улица Бондаренко, 39, село Ивановка, Ивановский район, Амурская область, Россия",50.35649,128.00231,0.0160256404401101,,Ивановский муниципальный округ,,Амурская область,0,0,0,0,0,0,0,0,0,0,0,0,0,0,0,0,0,0,0,0,0,0,0,0,0,0,0,0,0,0,0,0,0,0,0,0,0,0,0,0,0,0,0,0,0,0,0,0,0,0,0,0,0,0,0,0,0,0,0,0,0
52,4624.0,496.5,SOVETSKAYA 29             CHERDAKLY   ,"Советская улица, 29, посёлок городского типа Чердаклы, Чердаклинский район, Ульяновская область, Россия",54.358775,48.852236,-0.0380959963131623,,Чердаклинский район,,Ульяновская область,0,0,0,0,0,0,0,0,0,0,0,0,0,0,0,0,1,0,0,0,2,0,0,0,0,0,0,0,0,0,0,0,0,0,0,0,0,0,0,0,0,0,0,0,0,0,0,0,0,0,0,0,0,0,0,0,0,0,0,0,0
53,4649.0,496.5,LENINA 7                  YASNOGORSK  ,"улица Ленина, 7, Ясногорск, Тульская область, Россия, 301030",54.481354,37.694199,-0.094318271574659,,Ясногорский район,,Тульская область,0,0,0,0,0,0,1,0,0,1,0,0,0,0,0,0,2,0,0,0,0,0,0,0,0,0,0,0,0,0,0,0,0,0,0,0,0,0,0,0,0,0,0,0,0,0,0,0,0,0,0,0,0,0,0,0,0,0,0,0,2490
54,4655.0,496.5,"POCHTOVIY PER, 3          ELIZOVO     ","Почтовый переулок, 3, Елизово, Камчатский край, Россия, 684005",53.183976,158.387789,-0.0228163231158557,,Елизовский район,,Камчатский край,1,1,1,0,0,0,0,0,0,0,0,0,0,0,0,0,1,0,1,0,0,0,0,0,0,0,0,0,0,0,0,0,0,0,0,0,0,0,1,0,0,0,0,0,0,0,0,0,0,0,1,0,0,0,0,0,0,0,2,0,0
55,4680.0,496.5,SHUHOVA 26                TULA        ,"улица Шухова, 26, Тула, Россия, 300004",54.208238,37.669046,-0.0908961794016929,Тула,городской округ Тула,,Тульская область,0,0,0,0,0,0,0,0,0,0,0,0,0,0,0,0,0,0,0,0,0,0,0,0,0,0,1,0,0,0,0,0,0,0,0,0,0,0,0,0,0,0,0,0,0,0,0,0,0,0,1,0,0,0,0,0,0,0,0,0,4350
56,4685.0,496.5,PROLETARSKAYA 11          P.PERVOMAYSK,"Пролетарская улица, 11, Первомайск, Нижегородская область, Россия, 607760",54.865166,43.793364,0.0130686225922281,,городской округ Первомайск,,Нижегородская область,0,0,0,0,0,0,0,0,0,0,0,0,0,0,0,0,0,0,0,0,0,0,0,0,0,0,0,0,0,0,0,0,0,0,0,0,0,0,0,0,0,0,0,0,0,5,0,2,0,0,0,0,0,0,0,0,0,0,0,0,0
57,4703.0,496.5,SOVETSKAYA 21A            PETROPAVLOVK,"Советская улица, 21, Петропавловск-Камчатский, Камчатский край, Россия",53.016529,158.649756,-0.1167487461572423,Петропавловск-Камчатский,городской округ Петропавловск-Камчатский,,Камчатский край,0,0,0,0,1,0,0,0,0,0,0,0,0,0,0,0,3,0,1,0,0,0,0,0,0,0,1,0,0,0,0,0,0,0,0,0,0,0,0,0,0,0,0,0,0,0,0,0,0,0,0,0,1,0,0,0,0,0,2,0,0
58,4712.0,496.5,LENINSKAYA 59B            ORENBURG    ,"Ленинская улица, 59, Оренбург, Россия, 460014",51.762709,55.111885,-0.1102991528731819,Оренбург,городской округ Оренбург,,Оренбургская область,0,0,0,0,0,1,0,0,0,0,0,3,0,0,0,0,1,0,3,0,2,0,0,0,0,0,0,0,0,0,0,0,0,0,0,0,0,0,0,0,0,0,0,0,0,0,1,0,0,0,0,0,0,0,0,0,0,0,1,0,1860
59,4713.0,496.5,"1-ST VISHNEVAYA, 17       KURSK       ","Вишневая улица, СТ Дружба-1, городской округ Ухта, Республика Коми, Россия",63.541994,53.85233,-0.0539247406161974,,муниципальный округ Ухта,,Республика Коми,0,0,0,0,0,0,0,0,0,0,0,0,0,0,0,0,0,0,0,0,0,0,0,0,0,0,0,0,0,0,0,0,0,0,0,0,0,0,0,0,0,0,0,0,0,0,0,0,0,0,0,0,0,0,0,0,0,0,0,0,0
60,8483.0,496.5,"STROITELEY AVE, 1V        PENZA       ","проспект Строителей, 1, Пенза, Россия, 440066",53.220223,44.943414,-0.0318484934229184,городской округ Пенза,,,Пензенская область,0,0,0,0,0,0,1,0,0,0,0,0,0,0,0,0,2,0,0,0,0,0,0,0,0,0,0,0,0,0,0,0,0,0,0,0,0,0,0,0,0,0,0,0,0,0,0,0,0,0,0,0,0,0,0,0,0,0,1,0,2940
61,8486.0,496.5,MOSKOVSKAYA 83            PENZA       ,"Московская улица, 83, Пенза, Россия, 440000",53.197086,45.019035,0.0259088806733042,городской округ Пенза,,,Пензенская область,3,1,0,0,1,0,0,1,0,0,0,0,0,0,0,0,1,0,4,0,0,0,0,0,0,0,1,0,0,0,0,0,0,1,0,0,0,0,1,0,0,0,0,0,0,0,0,1,0,0,1,0,0,0,0,0,0,0,0,3,750
62,8487.0,496.5,MIRA 41                   PENZA       ,"улица Мира, 41, Пенза, Россия",53.188433,44.970049,-0.0182262964617026,городской округ Пенза,,,Пензенская область,1,0,0,0,0,0,0,0,0,0,0,0,1,0,0,0,3,0,3,0,0,0,0,0,1,0,2,0,0,0,0,0,0,0,0,0,0,0,0,1,0,0,0,0,0,0,0,0,0,0,0,0,0,0,0,0,0,0,0,0,4260
63,8497.0,496.5,"TRUDOVAYA 1, K.1          RYAZAN      ","Трудовая улица, 1к1, Рязань, Россия, 390011",54.603425,39.762453,-0.116827337837667,Рязань,,,Рязанская область,0,0,0,0,0,0,0,0,0,1,0,0,0,0,0,0,0,0,0,0,0,0,0,0,0,0,2,0,0,0,0,0,0,0,0,0,0,0,1,0,0,0,0,0,0,0,0,0,0,0,0,0,0,0,0,0,0,0,0,0,1290
64,8500.0,496.5,GAGARINA 29               KURAGINO    ,"переулок Гагарина, 29, посёлок городского типа Курагино, Курагинский район, Красноярский край, Россия, 662910",53.890961,92.68067,0.0057824643918734,,Курагинский район,,Красноярский край,0,0,0,0,0,0,0,0,0,0,0,0,0,0,0,0,0,0,0,0,1,0,0,0,0,0,1,0,0,0,0,0,0,0,0,0,0,0,0,0,0,1,0,0,0,0,0,0,0,0,2,0,0,0,0,0,0,0,0,0,0
65,8502.0,496.5,50 LET OKTYABRYA 6        VICHUGA     ,"улица 50 лет Октября, 6, Вичуга, Ивановская область, Россия, 155331",57.21764,41.937328,-0.1043306880550269,,городской округ Вичуга,,Ивановская область,0,0,0,0,0,0,1,0,0,0,0,0,0,0,0,0,1,0,0,0,2,0,0,0,0,0,0,0,0,0,0,0,0,0,0,0,0,0,0,0,0,1,0,0,0,0,0,0,0,0,0,0,0,0,0,0,0,0,0,0,1593
66,8511.0,496.5,PODROYKINA 28             BAGAEVSKAYA ,"улица Подройкина, 28, станица Багаевская, Багаевский район, Ростовская область, Россия",47.321464,40.369543,-0.0381381337942585,,Багаевский район,,Ростовская область,0,0,0,0,0,0,1,0,0,0,0,0,0,0,0,0,1,0,0,0,1,0,0,0,0,0,0,0,0,0,0,0,0,0,0,0,0,0,0,0,0,0,0,0,0,0,0,0,0,0,0,0,0,0,0,0,0,0,0,0,0
67,8518.0,496.5,KRASNOARMEYSKAYA 233      KYZYL       ,"Красноармейская улица, 233, Кызыл, Республика Тыва, Россия, 667000",51.715113,94.428118,-0.0314675117866476,Кызыл,городской округ Кызыл,,Республика Тыва,0,0,0,0,0,0,1,0,0,1,0,0,0,0,0,0,1,0,0,0,0,0,0,0,0,0,0,0,0,0,0,0,0,0,0,0,0,0,0,0,0,0,0,0,0,1,2,0,0,0,0,0,0,0,0,0,0,0,0,0,783
68,8534.0,496.5,CHERNISHEVSKOGO 56/2      YAKUTSK     ,"улица Чернышевского, 56/2, Якутск, Республика Саха (Якутия), Россия, 677007",62.011688,129.721308,-0.076109205265034,Городской округ Якутск,городской округ Якутск,,Республика Саха (Якутия),0,0,0,0,0,0,0,0,0,0,0,0,0,0,0,0,0,0,0,0,0,0,0,0,0,0,0,0,0,0,0,0,0,0,0,0,0,0,0,0,0,0,0,2,0,0,0,0,0,0,0,0,0,0,0,0,0,0,0,0,0
69,8542.0,496.5,FRIDRIHA ENGELSA 88       VORONEZH    ,"улица Фридриха Энгельса, 88, Воронеж, Россия, 394018",51.659009,39.187756,-0.0318638787420057,Воронеж,городской округ Воронеж,,Воронежская область,0,0,0,0,0,0,0,0,0,0,0,0,0,0,0,0,0,0,0,0,0,0,0,0,0,0,1,0,0,0,0,0,0,0,0,0,0,0,0,0,0,0,0,0,0,0,0,0,0,0,0,0,0,0,0,0,0,0,0,0,4440
70,8557.0,496.5,SOVETSKAYA 54/1           DOMODEDOVO  ,"Советская улица, 54, микрорайон Северный, Домодедово, Московская область, Россия",55.443659,37.747981,0.0800894408276697,Домодедово,городской округ Домодедово,,Московская область,0,0,0,0,0,0,0,0,0,0,0,0,0,0,0,0,2,0,0,0,1,0,0,0,0,0,0,0,0,0,0,0,0,0,0,0,0,0,0,0,0,0,0,2,0,0,0,0,0,0,0,0,0,0,0,0,0,0,1,0,1299
71,8560.0,496.5,ORDZHONIKIDZE 34          SHIMANOVSK  ,"улица Орджоникидзе, 34/25, Шимановск, Амурская область, Россия",51.996266,127.667571,-0.0616802505965389,,городской округ Шимановск,,Амурская область,0,0,0,0,0,0,0,0,0,0,0,0,0,0,0,0,0,0,0,0,1,0,0,0,0,0,1,0,0,0,0,0,0,0,0,0,0,0,0,0,0,0,0,0,0,0,0,0,0,0,0,0,0,0,0,0,0,0,2,0,0
72,8566.0,496.5,TEKSTILSCHIKOV 18         LENINSK-KUZN,"проспект Текстильщиков, 18, Ленинск-Кузнецкий, Кемеровская область, Россия, 652523",54.697328,86.212944,-0.0595200329087119,,Ленинск-Кузнецкий городской округ,,Кемеровская область,0,0,0,0,0,0,0,0,0,0,0,0,0,0,0,0,0,0,0,0,0,0,0,0,0,0,0,0,0,0,0,0,0,0,0,0,0,0,0,0,0,0,0,0,0,0,0,0,0,0,0,0,0,0,0,0,0,0,0,0,0
73,8575.0,496.5,GAGARINA 9                CHELIABINSK ,"улица Гагарина, 9, Ленинский район, Челябинск, Россия, 454010",55.141845,61.443095,-0.0290006254323364,Челябинск,Челябинский городской округ,,Челябинская область,0,1,0,0,0,2,1,0,0,0,0,0,0,0,0,0,5,0,0,0,1,0,0,0,0,0,2,0,0,0,0,0,0,0,0,0,0,1,2,0,0,0,0,0,0,0,3,0,0,0,0,0,0,0,0,0,0,2,0,0,1500
74,8585.0,496.5,KIROVA 42                 CHELYABINSK ,"улица Кирова, 42, Челябинск, Россия, 454084",55.179231,61.398457,0.0070306132694172,Челябинск,Челябинский городской округ,,Челябинская область,0,0,0,0,0,0,0,0,0,1,0,0,0,0,0,0,1,0,0,0,3,0,0,0,0,0,4,0,0,0,0,0,0,0,0,0,0,0,0,0,0,0,0,0,0,0,3,0,0,0,1,0,0,0,0,0,0,2,5,0,2310
75,8588.0,496.5,"KIROVA AVE, 27A           PYATIGORSK  ","проспект Кирова, 27А, Пятигорск, Ставропольский край, Россия",44.03603,43.07835,-0.0634156910634542,Пятигорск,городской округ Пятигорск,,Ставропольский край,0,8,3,0,0,0,0,0,0,0,0,1,0,0,0,0,2,0,0,0,0,0,0,0,0,0,3,0,1,0,0,0,0,1,0,0,1,0,0,0,0,0,0,0,0,0,1,0,0,0,0,0,0,0,0,0,0,2,0,0,60
76,8590.0,496.5,"OKTIABRYA AVE, 16         NIZHNIY NOVG","проспект Октября, 16, микрорайон Соцгород-I, Нижний Новгород, Россия, 603043",56.251202,43.866514,-0.048744881734817,Нижний Новгород,городской округ Нижний Новгород,Соцгород V,Нижегородская область,0,0,0,0,0,0,0,0,0,1,0,0,1,0,0,0,0,0,0,0,2,0,0,0,0,0,0,0,0,0,0,0,0,0,0,0,0,1,1,0,0,0,0,0,0,0,0,0,0,0,0,0,0,0,0,0,0,0,1,0,3480
77,8594.0,496.5,"MIRA AVE, 27K/1           KUVANDYK    ","проспект Мира, 27, Кувандык, Оренбургская область, Россия, 462241",51.482219,57.376188,-0.0903121694091816,,Кувандыкский городской округ,,Оренбургская область,0,0,0,0,0,0,0,0,0,0,0,0,0,0,0,0,3,0,0,0,1,0,0,0,0,0,2,0,0,0,0,0,0,0,0,0,0,0,0,0,0,0,0,0,0,0,0,0,0,0,0,0,0,0,0,0,0,0,0,0,1176
78,8601.0,496.5,POBEDI 31B                LESOSIBIRSK ,"улица Победы, 31, Лесосибирск, Красноярский край, Россия, 662543",58.18613,92.53111,0.0438083795366493,,городской округ Лесосибирск,,Красноярский край,0,0,1,0,0,0,0,0,0,0,0,0,0,0,0,0,0,0,0,0,0,0,0,0,0,0,0,0,0,0,0,0,0,0,0,0,0,0,0,0,0,0,0,0,0,0,0,0,0,0,1,0,0,0,0,0,0,0,0,0,2010
79,8617.0,496.5,INDUSTRIALNAYA 30         SARAPUL     ,"Индустриальная улица, 30, Сарапул, Удмуртская Республика, Россия, 427968",56.449732,53.723485,-0.1450012314747548,городской округ Сарапул,,,Удмуртия,0,0,0,0,0,0,0,0,0,0,0,0,0,0,0,0,0,0,0,0,0,0,0,0,0,0,0,0,0,0,0,0,0,0,0,0,0,0,0,0,0,0,0,0,0,0,0,0,0,0,0,0,0,0,0,0,0,0,0,0,0
80,8618.0,496.5,LENINA 48                 SVOBODNY    ,"улица Ленина, 48, Свободный, Амурская область, Россия",51.37197,128.139357,-0.1225081913092773,,городской округ Свободный,,Амурская область,3,1,0,1,1,0,0,0,0,0,0,0,0,0,0,0,1,0,2,0,2,0,0,0,0,0,0,0,0,0,0,0,0,0,0,0,0,0,0,0,0,0,0,0,0,0,0,0,0,0,0,0,0,0,0,0,0,0,0,0,0
81,8619.0,496.5,STAVROPOLSKAYA 100        KRASNODAR   ,"Ставропольская улица, 100, микрорайон Черёмушки, Краснодар, Россия, 350033",45.01906,38.998633,-0.0473827725544641,Краснодар,городской округ Краснодар,,Краснодарский край,3,0,0,0,0,0,0,0,0,1,0,0,0,0,0,0,3,0,1,0,2,0,0,0,0,0,1,0,0,0,0,0,0,0,0,0,0,0,0,0,0,1,0,3,0,0,0,0,0,0,7,0,1,0,0,0,0,2,2,0,1074
82,8625.0,496.5,KHALTURINA 11             GELENDZHIK  ,"улица Халтурина, 11, Геленджик, Краснодарский край, Россия",44.568378,38.080115,-0.0200599527303035,,городской округ Геленджик,,Краснодарский край,0,1,0,0,0,0,1,0,0,0,0,0,0,0,0,0,2,0,1,0,1,0,0,0,0,0,2,0,0,0,0,0,0,0,0,0,0,0,1,0,0,0,0,0,0,0,0,0,0,0,1,0,0,0,0,0,0,0,0,0,369
83,8643.0,496.5,SCHETINKINA 12            TURAN       ,"улица Щетинкина, 14, Туран, Пий-Хемский кожуун, Республика Тыва, Россия",52.142246,93.922393,0.0074889981901422,,Пий-Хемский кожуун,,Республика Тыва,0,0,0,0,0,0,1,0,0,1,0,0,0,0,0,0,1,0,0,0,1,0,0,0,0,0,0,0,0,0,0,0,0,0,0,0,0,0,1,0,0,0,0,0,0,0,0,0,0,0,0,0,0,0,0,0,0,0,0,0,0
84,8658.0,496.5,BIRYUZOVA 31              MOSCOW      ,"улица Маршала Бирюзова, 31, Москва, Россия, 123060",55.796526,37.486859,-0.0771896616129168,Москва,,,Москва,0,0,0,0,0,0,0,0,0,1,0,0,0,0,0,0,0,0,0,0,3,0,0,0,0,0,1,0,0,0,0,0,0,0,0,0,1,0,1,0,0,0,0,0,0,0,0,0,0,0,0,0,0,0,0,0,0,0,0,0,6450
85,8659.0,496.5,MYASNIKYANA 95            CHALTIR     ,"улица Мясникяна, 95, село Чалтырь, Мясниковский район, Ростовская область, Россия, 346800",47.284715,39.500702,-0.0902311978368489,,Мясниковский район,,Ростовская область,0,0,0,0,0,0,0,0,0,0,0,0,0,0,0,0,2,0,1,0,2,0,0,0,0,0,1,0,0,0,0,0,0,0,0,0,0,0,0,1,0,0,0,0,0,0,0,0,0,0,3,0,0,0,0,0,0,0,2,0,240
86,8660.0,496.5,LENINA 19                 TOSNO       ,"проспект Ленина, 19, Тосно, Тосненское городское поселение, Ленинградская область, Россия, 187000",59.547013,30.864595,-0.0103225371001557,,Тосненский район,,Ленинградская область,0,0,0,0,0,0,0,0,0,0,0,0,0,0,0,0,0,0,0,0,0,0,0,0,0,0,0,0,0,0,0,0,0,0,0,0,0,0,0,0,0,0,0,0,0,0,0,0,0,0,0,0,0,0,0,0,0,0,2,0,2430
87,8663.0,496.5,CHAPAEVA 2A               SERYSHEVO   ,"улица Чапаева, 2, посёлок городского типа Серышево, Серышевский район, Амурская область, Россия, 676351",51.092978,128.362247,-0.0870216499425399,,Серышевский муниципальный округ,,Амурская область,0,0,0,0,0,0,1,0,0,0,0,0,0,0,0,0,0,0,0,0,0,0,0,0,0,0,1,0,0,0,0,0,0,0,0,0,0,0,0,0,0,0,0,0,0,0,0,0,0,0,0,0,0,0,0,0,0,0,0,0,990
88,8691.0,496.5,GAGARINA 14-4             P. HOVU-AKSY,"улица Гагарина, 14, село Хову-Аксы, Чеди-Хольский кожуун, Республика Тыва, Россия",51.131723,93.716464,-0.0101484011628974,,Чеди-Хольский кожуун,,Республика Тыва,0,0,0,0,0,0,0,0,0,0,0,0,0,0,0,0,0,0,0,0,0,0,0,0,0,0,0,0,0,0,0,0,0,0,0,0,0,0,0,0,0,0,0,0,0,0,0,0,0,0,0,0,0,0,0,0,0,0,0,2,0
89,8697.0,496.5,LENINA 93                 UST-LABINSK ,"улица Ленина, 93, Усть-Лабинск, Краснодарский край, Россия, 352333",45.215441,39.690147,-0.0825182601111039,,Усть-Лабинский район,,Краснодарский край,0,1,0,0,0,0,0,0,0,0,0,0,0,1,0,0,8,0,1,0,0,0,0,0,0,0,2,0,0,0,0,0,0,0,0,0,1,0,0,1,0,1,0,0,0,0,1,0,0,0,2,0,0,0,1,0,0,0,0,0,684
90,8699.0,496.5,TSENTRALNAYA 45           KRASN.YARUGA,"Центральная улица, 45, посёлок городского типа Красная Яруга, Краснояружский район, Белгородская область, Россия, 309420",50.802065,35.656945,-0.0478348534789651,,Краснояружский район,,Белгородская область,0,0,0,0,0,0,0,0,0,0,0,0,0,0,0,0,1,0,0,0,0,0,0,0,0,0,0,0,0,0,0,0,0,0,0,0,0,0,0,0,0,0,0,0,0,0,0,0,0,0,0,0,0,0,0,0,0,0,0,0,0
91,8700.0,496.5,BAUMANA 16                YOSHKAR-OLA ,"улица Баумана, 16, Йошкар-Ола, Республика Марий Эл, Россия, 424019",56.64108,47.84341,-0.0943839485751698,Йошкар-Ола,городской округ Йошкар-Ола,,Марий Эл,0,2,0,0,0,0,0,0,0,0,0,0,0,0,0,0,0,0,2,0,0,0,0,0,1,0,2,0,0,0,0,0,0,0,0,0,0,0,0,1,0,0,0,0,0,0,0,0,0,0,0,0,0,0,0,0,0,0,2,0,210
92,8702.0,496.5,"70 LET OKTYABRYA, 25/2    OMSK        ","улица 70 лет Октября, 25/2, Омск, Россия, 644074",54.976592,73.334031,-0.0849035751661199,Омск,городской округ Омск,,Омская область,0,1,0,0,0,0,0,0,0,0,0,0,0,0,0,0,4,0,0,0,0,0,0,0,0,0,0,0,0,0,0,0,0,0,0,0,0,0,0,0,0,2,0,0,0,0,0,0,0,0,11,0,0,0,0,0,0,0,0,0,0
93,8709.0,496.5,KRASNOOKTYABRSKAYA 66V    MAYKOP      ,"Краснооктябрьская улица, 62, Майкоп, Республика Адыгея, Россия, 385006",44.618387,40.10746,-0.0219405458420155,Майкоп,городской округ Майкоп,,Адыгея,0,1,0,0,0,0,0,0,0,1,0,0,0,0,0,0,0,0,1,0,1,0,0,0,0,0,0,0,0,0,0,0,0,0,0,1,0,0,1,0,0,0,0,0,0,0,0,0,0,0,1,0,0,0,0,0,0,0,1,0,0
94,8715.0,496.5,SHOLOM-ALEYHAMA 72        BIROBIDZHAN ,"улица Шолом-Алейхема, 72, Биробиджан, Еврейская автономная область, Россия, 679016",48.801131,132.906429,0.0732557544204289,Биробиджан,городской округ Биробиджан,,Еврейская автономная область,0,2,0,0,0,0,0,0,0,0,0,0,0,0,0,0,3,0,0,0,0,0,0,0,0,0,1,0,0,0,0,0,0,0,0,0,0,0,0,0,0,0,0,0,0,0,3,0,0,0,1,0,0,0,0,0,0,0,0,0,1209
95,8717.0,496.5,LENINA 40                 EFREMOV     ,"улица Ленина, 40, Ефремов, Тульская область, Россия, 301840",53.145073,38.105187,-0.0539314564851577,,городской округ Ефремов,,Тульская область,0,0,0,0,0,0,0,0,0,0,0,0,0,0,0,0,0,0,0,0,0,0,0,0,0,0,0,0,0,0,0,0,0,0,0,0,0,0,0,0,0,0,0,0,0,0,0,0,0,0,0,0,0,0,0,0,0,0,1,0,840
96,8720.0,496.5,KASHIRINIKH 124           CHELYABINSK ,"улица Братьев Кашириных, 124, Челябинск, Россия, 454128",55.174296,61.304511,-0.0811242236910234,Челябинск,Челябинский городской округ,,Челябинская область,0,0,0,0,1,0,0,0,0,0,0,0,0,0,0,0,1,0,0,0,0,0,0,0,0,0,0,0,0,0,0,0,0,0,0,0,0,0,2,0,0,0,0,0,0,0,4,0,0,0,0,0,0,0,0,0,0,0,3,0,5820
97,8722.0,496.5,AVTOMOBILISTOV 4A         ULAN-UDE    ,"проспект Автомобилистов, 4Ак1, Улан-Удэ, Республика Бурятия, Россия, 670045",51.831086,107.657625,-0.1192302240332795,Улан-Удэ,городской округ Улан-Удэ,,Республика Бурятия,0,0,0,0,0,0,0,0,0,0,0,0,0,0,0,0,0,0,0,0,0,0,0,0,0,0,0,0,0,0,0,0,0,0,0,0,0,0,0,0,0,0,0,0,0,0,0,0,0,0,0,0,0,0,0,0,0,4,0,0,0
98,8731.0,496.5,YAROSLAVSKAYA 56          UGLICH      ,"Ярославская улица, 56, Углич, Ярославская область, Россия, 152610",57.53267,38.333269,-0.0233064046652936,,Угличский район,,Ярославская область,1,1,0,0,1,0,0,0,0,1,0,0,0,0,0,0,0,0,1,0,0,0,0,0,0,0,0,0,0,0,0,0,0,0,0,0,0,0,0,0,0,0,0,0,0,0,0,0,0,0,1,0,0,0,0,0,0,0,0,0,0
99,8735.0,496.5,K.MARKSA 8                KURSK       ,"улица Карла Маркса, 8, Курск, Россия, 305004",51.750199,36.191928,-0.1417534017659387,городской округ Курск,,,Курская область,3,3,0,1,0,0,0,0,0,0,0,1,1,0,0,0,4,0,0,0,0,0,0,0,0,0,2,0,0,0,0,0,0,0,0,0,0,0,0,0,0,1,0,0,0,0,0,0,0,0,2,0,0,0,0,0,0,2,3,0,570
100,8736.0,496.5,LUNACHARSKOGO 49          OBOYAN      ,"улица Луначарского, 49, Обоянь, Курская область, Россия",51.208488,36.280367,0.0312245046992551,,Обоянский район,,Курская область,0,0,0,0,0,2,0,0,0,0,0,0,0,0,0,0,0,0,0,0,0,0,0,0,0,0,1,0,0,0,0,0,0,0,0,0,0,0,0,0,0,0,0,0,0,0,0,0,0,0,0,0,0,0,0,0,0,0,0,0,0
101,8745.0,496.5,AK. KIRENSKOGO 2          KRASNOYARSK ,"улица Академика Киренского, 2, Красноярск, Россия, 660074",55.995649,92.786905,-0.0914868128849095,Красноярск,городской округ Красноярск,,Красноярский край,0,0,0,0,0,0,0,0,0,0,0,2,0,0,0,0,0,0,0,0,0,0,0,0,0,0,0,0,0,0,0,0,0,0,0,0,0,0,0,0,0,0,0,0,0,0,0,0,0,0,0,0,0,0,0,0,0,0,0,0,1620
102,8750.0,496.5,LENINA 23                 BRYANSK     ,"проспект Ленина, 23, Брянск, Россия, 241050",53.239434,34.35879,-0.0273339478514484,Брянск,городской округ Брянск,,Брянская область,0,0,0,0,0,0,0,0,0,0,0,0,0,0,0,0,0,0,0,0,1,0,0,0,0,0,0,0,0,0,0,0,0,0,0,0,0,0,0,0,0,0,0,0,0,0,0,0,0,0,0,0,0,0,0,0,0,0,0,0,1650
103,8755.0,496.5,KIROVA 7A                 ASTRAKHAN   ,"улица Кирова, 7/28, Астрахань, Россия, 414000",46.352485,48.038362,-0.0452987858535654,Астрахань,городской округ Астрахань,,Астраханская область,2,4,0,0,0,0,0,1,0,0,0,0,0,0,0,0,0,0,1,0,0,0,0,0,0,0,0,0,0,0,0,0,0,0,0,0,0,0,0,0,0,0,0,0,0,0,0,0,0,0,1,0,0,0,0,0,0,0,1,0,300
104,8756.0,496.5,OKTYABRSKAYA 4            VOLODARSKIY ,"Октябрьская площадь, 4, посёлок городского типа Володарский, Володарский район, Астраханская область, Россия, 416170",46.402883,48.543027,-0.0587039759494599,,Володарский район,,Астраханская область,0,0,0,0,0,0,0,0,0,0,0,0,0,0,0,0,0,0,0,0,0,0,0,0,0,0,0,0,0,0,0,0,0,0,0,0,0,0,0,0,0,0,0,0,0,0,0,0,0,0,0,0,0,0,0,0,0,0,0,0,0
105,8759.0,496.5,"NABEREZHNAYA 1 MAY, 160   ASTRAKHAN   ","улица Набережная 1 Мая, 160/94, Астрахань, Россия, 414000",46.343234,48.051675,-0.0725621267258018,Астрахань,городской округ Астрахань,,Астраханская область,0,0,0,0,0,0,0,0,0,0,0,0,0,0,0,0,1,0,0,0,0,0,0,0,0,0,0,0,0,0,0,0,0,0,0,0,0,0,0,0,0,2,0,0,0,0,0,0,0,0,2,0,0,0,0,0,0,0,0,3,60
106,8770.0,496.5,BEZHITSKAYA 1/5           BRYANSK     ,"Бежицкая улица, 1к5, Брянск, Россия, 241007",53.268374,34.355008,-0.0429566101420495,Брянск,городской округ Брянск,,Брянская область,0,0,0,0,0,0,0,0,0,0,0,0,0,0,0,0,2,0,0,0,0,0,0,0,0,0,0,0,0,0,0,0,0,0,0,0,0,0,0,0,0,0,0,0,0,0,0,0,0,0,1,0,0,0,0,0,0,0,0,0,1380
107,8771.0,496.5,KRILATAYA 2               KRASNODAR   ,"Крылатая улица, 2, жилой массив Пашковский, Краснодар, Россия, 350023",45.011446,39.122529,-0.0618519971960843,Краснодар,городской округ Краснодар,,Краснодарский край,6,1,0,0,1,0,0,0,0,0,0,0,0,0,0,0,0,0,0,0,0,0,0,0,0,0,0,0,1,0,0,0,0,0,0,0,0,0,0,0,0,0,0,0,0,0,0,0,0,0,0,0,0,0,0,0,0,0,0,0,0
108,8781.0,496.5,SOVETSKIY 3               BIKIN       ,"Советский переулок, 3, Бикин, Хабаровский край, Россия, 682970",46.824789,134.253417,-0.0034579326085033,,Бикинский район,,Хабаровский край,0,0,0,0,0,0,0,0,0,0,0,0,0,0,0,0,0,0,0,0,1,0,0,0,0,0,0,0,0,0,0,0,0,0,0,0,0,0,0,0,0,0,0,0,0,0,0,0,0,2,0,0,0,0,0,0,0,0,1,0,450
109,8790.0,496.5,PUSHKINA 22               ELETS       ,"улица Пушкина, 22, Елец, Липецкая область, Россия, 399772",52.608066,38.501362,-0.0818423979187078,Елец,городской округ Елец,,Липецкая область,1,0,0,0,1,0,0,0,0,0,0,0,1,0,0,0,0,0,0,0,0,0,0,0,0,0,1,0,0,0,0,0,0,0,0,0,0,0,0,0,0,0,0,0,0,0,0,0,0,0,0,0,0,0,0,0,0,0,0,0,270
110,8797.0,496.5,IPPODROMNAYA 15B          ELISTA      ,"Ипподромная улица, 15, Элиста, Республика Калмыкия, Россия, 358005",46.321623,44.233611,-0.0798382767312803,Элиста,городской округ Элиста,,Калмыкия,0,0,0,0,0,0,0,0,0,1,0,0,0,0,0,0,0,0,0,0,0,0,0,0,0,0,0,0,0,0,0,0,0,0,0,0,0,0,0,0,0,0,0,0,0,0,0,0,0,0,0,0,0,0,0,0,0,0,0,0,1317
111,13.0,496.5,KOMMUNARSKIY 18           BIYSK       ,"Коммунарский переулок, 18, Бийск, Алтайский край, Россия, 659300",52.540672,85.22168,-0.05035007441799,Бийск,городской округ Бийск,,Алтайский край,1,2,0,0,0,0,0,0,0,0,0,0,0,0,0,0,1,1,3,0,0,0,0,0,0,0,1,0,0,0,0,0,0,0,0,0,0,0,0,1,0,0,0,0,0,0,0,0,0,0,2,0,0,0,0,0,0,2,1,0,1650
112,18.0,496.5,VERKHNAYA DUBROVA 26ZH    VLADIMIR    ,"улица Верхняя Дуброва, 26Ж, Владимир, Россия, 600022",56.109039,40.344112,-0.0904744912209494,Владимир,городской округ Владимир,,Владимирская область,0,1,0,0,0,0,0,0,0,0,0,0,0,0,0,0,14,0,1,0,3,0,0,0,0,0,3,0,0,0,0,0,0,0,0,0,0,0,0,0,0,0,0,0,0,0,0,0,0,0,0,0,0,0,0,0,0,0,0,0,5400
113,23.0,496.5,SOVETSKAYA 7              TOSNO       ,"Советская улица, 7, Тосно, Тосненское городское поселение, Ленинградская область, Россия, 187000",59.542333,30.880522,-0.0372481385473647,,Тосненский район,,Ленинградская область,1,1,0,0,0,0,0,0,0,0,0,0,0,0,0,0,2,0,1,0,1,0,0,0,1,0,2,0,0,0,0,0,0,0,0,0,0,0,0,0,0,1,0,0,0,0,1,0,0,0,0,0,0,0,0,0,0,0,0,0,1500
114,24.0,496.5,PIONERSKAYA 10A           KHABAROVSK  ,"Пионерская улица, 10А, Хабаровск, Россия",48.458826,135.089668,0.0093968232600801,Хабаровск,городской округ Хабаровск,,Хабаровский край,0,0,0,0,0,0,0,0,0,0,0,0,0,0,0,0,1,0,1,0,0,0,0,0,0,0,1,0,0,0,0,0,0,0,0,0,0,0,0,0,0,0,0,0,0,0,1,0,3,0,0,0,0,0,0,0,0,0,1,0,2010
115,29.0,496.5,LENINA 32                 YUKHNOV     ,"улица Ленина, 32, Юхнов, Калужская область, Россия, 249910",54.740854,35.225583,-0.050898436991619,,Юхновский район,,Калужская область,0,0,0,0,0,0,0,0,0,0,0,0,0,0,0,0,0,0,0,0,0,0,0,0,0,0,0,0,0,1,0,0,0,0,0,0,0,0,1,0,0,0,0,0,0,0,0,0,0,0,0,0,0,0,0,0,0,0,1,2,567
116,61.0,496.5,DZERZHINSKOGO 82/2        VELSK       ,"улица Дзержинского, 82, Вельск, Архангельская область, Россия, 165150",61.069724,42.112419,-0.069485196898084,,Вельский район,,Архангельская область,0,0,0,0,0,0,0,0,0,1,0,0,0,0,0,0,0,0,0,0,1,0,0,0,0,0,1,0,0,0,0,0,0,0,0,0,0,0,0,0,0,1,0,0,0,0,0,0,0,0,0,0,0,0,1,0,0,0,0,0,120
117,62.0,496.5,LENINA 2                  USMAN       ,"улица Ленина, 2, Усмань, Липецкая область, Россия",52.038882,39.73668,-0.0560772655674922,,Усманский район,,Липецкая область,0,0,0,0,0,0,0,0,0,0,0,0,0,0,0,0,0,0,0,0,0,0,0,0,0,0,0,0,0,0,0,0,0,0,0,0,0,0,0,0,0,0,0,0,0,0,0,0,0,0,0,0,0,0,0,0,0,0,1,0,0
118,68.0,496.5,VOROSHILOVA 6/24          KRASNIY SULI,"улица Ворошилова, 6, Красный Сулин, Ростовская область, Россия",47.894769,40.057549,-0.0662641044561293,,Красносулинский район,,Ростовская область,2,1,0,0,0,0,0,0,0,0,0,0,0,0,0,0,1,1,0,0,1,0,0,0,0,0,0,0,0,0,0,0,0,0,0,0,1,0,0,0,0,0,0,0,0,0,0,0,0,0,0,0,0,0,0,0,0,0,0,0,0
119,72.0,496.5,MIRA 11A                  LAKINSK     ,"улица Мира, 11А, Лакинск, Собинский район, Владимирская область, Россия, 601241",56.022348,39.979908,-0.0633030024752921,,Собинский район,,Владимирская область,1,0,0,1,0,0,0,0,0,0,0,0,0,0,0,0,1,0,1,0,1,0,0,0,0,0,0,0,0,0,0,0,0,0,0,0,0,0,0,0,0,0,0,0,0,0,0,0,0,0,0,0,0,0,0,0,0,0,0,3,0
120,75.0,496.5,SOVETSKAYA 82             STARONIZHEST,"Советская улица, 82, станица Старонижестеблиевская, Красноармейский район, Краснодарский край, Россия",45.377812,38.438713,0.0891053493398533,,Красноармейский район,,Краснодарский край,0,0,0,0,0,0,0,0,0,0,0,0,0,0,0,0,0,0,0,0,0,0,0,0,0,0,0,0,0,0,0,0,0,0,0,0,0,0,0,0,0,0,0,0,0,0,0,0,0,0,0,0,0,0,0,0,0,0,0,1,0
121,76.0,496.5,PSKOVSKAYA 2              VOLOGDA     ,"Псковская улица, 2, Вологда, Россия, 160034",59.201007,39.829368,-0.0882078468766762,Вологда,городской округ Вологда,,Вологодская область,0,0,0,0,0,0,0,0,0,0,0,0,0,0,0,0,4,0,0,0,0,0,0,0,0,0,0,0,0,0,0,0,0,0,0,0,0,0,0,0,0,0,0,0,0,1,0,0,0,0,0,0,0,0,0,0,0,0,0,0,4410
122,80.0,496.5,BRYANSKAYA 67A            TRUBCHEVSK  ,"Брянская улица, 67А, Трубчевск, Брянская область, Россия, 242220",52.580391,33.766477,-0.1148972734370241,,Трубчевский район,,Брянская область,0,0,0,0,0,1,0,0,0,0,0,0,0,0,0,0,0,0,0,0,0,0,0,0,0,0,1,0,0,0,0,0,0,0,0,0,0,0,0,0,0,0,0,0,0,0,0,0,0,0,0,0,0,0,0,0,0,0,0,0,0
123,84.0,496.5,KRUPSKOY 15               ZAKAMENSK   ,"улица Крупской, 15, Закаменск, Республика Бурятия, Россия, 671950",50.375026,103.285462,0.0101635648872072,,Закаменский район,,Республика Бурятия,0,0,0,0,0,0,1,0,0,1,0,0,0,0,0,0,0,0,0,0,0,0,0,0,0,0,0,0,0,0,0,0,0,0,0,0,0,0,0,0,0,0,0,0,0,0,0,0,0,0,0,0,0,0,0,0,0,0,1,0,1590
124,89.0,496.5,VOLODARSKOGO 1            TARUSA      ,"улица Володарского, 1, Таруса, Калужская область, Россия",54.727084,37.181081,-0.1333332450980473,,Тарусский район,,Калужская область,0,0,0,0,2,0,0,0,0,0,0,0,0,0,0,0,2,0,0,0,1,0,0,0,0,0,1,0,0,0,0,0,0,0,0,0,0,0,1,0,0,0,0,0,0,0,0,0,0,0,4,0,0,0,0,0,0,0,0,0,0
125,93.0,496.5,ASTRAKHANSKAYA 189A       TAMBOV      ,"Астраханская улица, 189А, Тамбов, Россия, 392005",52.675552,41.465308,-0.0778446091413019,городской округ Тамбов,,,Тамбовская область,1,1,0,0,0,0,0,0,0,0,0,0,1,0,0,0,3,0,1,0,0,0,0,0,0,0,4,0,0,0,0,0,0,0,0,0,0,0,0,0,0,0,0,0,0,0,1,0,0,0,0,0,0,0,0,0,0,0,3,0,4980
126,101.0,496.5,LENINGRADSKAYA 58         KHABAROVSK  ,"Ленинградская улица, 58, Хабаровск, Россия, 680021",48.496609,135.07277,-0.0895346682408569,Хабаровск,городской округ Хабаровск,,Хабаровский край,1,0,0,0,1,0,0,0,0,0,0,0,0,0,0,0,4,0,0,0,1,0,0,0,0,0,0,0,0,0,0,0,0,0,0,0,0,0,0,0,0,0,0,0,0,0,0,0,0,0,0,0,0,0,0,0,1,1,6,0,0
127,106.0,496.5,LEKONTA 1/1               OMSK        ,"улица Леконта, 1к1, Омск, Россия, 644020",54.940753,73.386556,-0.1450012314747548,Омск,городской округ Омск,,Омская область,0,1,0,0,0,0,0,0,0,0,0,0,0,0,0,0,2,0,1,1,0,0,0,0,0,0,0,0,0,0,0,0,0,0,0,0,0,0,1,1,0,0,0,0,0,0,0,0,4,0,2,0,0,0,0,0,0,0,5,0,660
128,119.0,496.5,"IGNATIEVSKOE AVE,17       BLAGOVESHENS","Игнатьевское шоссе, городской округ Благовещенск, Амурская область, Россия",50.351708,127.460204,-0.0307396181924076,Благовещенск,городской округ Благовещенск,,Амурская область,0,0,0,0,0,0,0,0,0,0,0,0,0,0,0,0,0,0,0,0,0,0,0,0,0,0,0,0,0,0,0,0,0,0,0,0,0,0,0,0,0,0,0,0,0,0,0,0,0,0,0,0,0,0,0,0,0,0,0,0,0
129,121.0,496.5,TAEZHNAYA 32              KAA-KHEM    ,"Таёжная улица, посёлок городского типа Каа-Хем, Кызылский кожуун, Республика Тыва, Россия",51.693519,94.559263,0.0113389673822672,,Кызылский кожуун,,Республика Тыва,0,0,0,0,0,0,0,0,0,0,0,0,0,0,0,0,0,0,0,0,0,0,0,0,0,0,0,0,0,0,0,0,0,0,0,0,0,0,0,0,0,0,0,0,0,0,0,0,0,0,0,0,0,0,0,0,0,0,0,0,0
130,126.0,496.5,KRASNOARMEYSKAYA 137      KIZIL       ,"Красноармейская улица, 137, Кызыл, Республика Тыва, Россия",51.716229,94.440685,0.0333146101124605,Кызыл,городской округ Кызыл,,Республика Тыва,0,0,0,0,0,0,0,0,0,0,0,0,0,0,0,0,7,0,0,0,0,0,0,0,0,0,1,0,0,0,0,0,0,0,0,0,0,0,0,0,0,1,0,0,0,0,1,0,0,0,2,0,0,0,0,0,0,0,0,0,0
131,132.0,496.5,KOOPERATIVNAYA 59         CHEKMAGUSH  ,"Кооперативная улица, 59, село Чекмагуш, Чекмагушевский район, Республика Башкортостан, Россия, 452200",55.138104,54.653744,-0.0519998491731254,,Чекмагушевский район,,Башкортостан,0,0,0,0,0,0,0,0,0,0,0,0,0,0,0,0,0,0,0,0,0,0,0,0,0,0,0,0,0,0,0,0,0,0,0,0,0,0,0,0,0,0,0,0,0,0,0,0,0,0,0,0,0,0,0,0,0,0,0,2,0
132,139.0,496.5,BEREZOVIY 3A              SELENGINSK  ,"микрорайон Берёзовый, 3А, посёлок городского типа Селенгинск, Кабанский район, Республика Бурятия, Россия, 671247",52.00588,106.864125,0.0547418901571502,,Кабанский район,,Республика Бурятия,0,0,0,0,0,0,0,0,0,0,0,0,0,0,0,0,0,0,0,0,0,0,0,0,0,0,0,0,0,0,0,0,0,0,0,0,0,0,1,0,0,0,0,0,0,0,0,0,0,0,0,0,0,0,0,0,0,0,1,1,0
133,145.0,496.5,"POSHEKHONSKOE AVE,22      VOLOGDA     ","Пошехонское шоссе, 22, Вологда, Россия",59.197256,39.859246,-0.0102731394399717,Вологда,городской округ Вологда,,Вологодская область,9,1,0,0,0,0,0,0,0,0,0,0,1,0,0,0,1,0,6,0,0,0,0,0,0,0,1,0,1,0,0,0,0,0,0,0,0,0,0,0,0,0,0,0,0,0,0,0,0,0,1,0,0,0,0,0,0,0,1,0,3030
134,2940.0,1022.0,ABB 1 DEKABRISTOV UL      KAZAN       ,"1-й переулок Декабристов, поселок Фрунзевец, Апрелевка, Наро-Фоминский городской округ, Московская область, Россия",55.529053,37.026741,-0.1058371874825746,,Наро-Фоминский городской округ,,Московская область,0,0,0,0,0,0,0,0,0,0,0,0,0,0,0,0,0,0,0,0,0,0,0,0,0,0,0,0,0,0,0,0,0,0,0,0,0,0,0,0,0,0,0,0,0,0,0,0,0,0,0,0,0,0,0,0,0,0,0,0,144
135,4620.0,1022.0,ABB 24 KORABELNAYA        NIZHNEKAMSK ,"Корабельная улица, 24, Нижнекамск, Республика Татарстан, Россия, 423578",55.624388,51.7995,-0.0809998375145127,Нижнекамск,Нижнекамский район,6 квартал,Татарстан,0,0,0,0,0,0,1,0,0,0,0,0,0,0,0,0,0,0,0,1,1,0,0,0,0,0,0,0,0,0,0,0,0,0,0,0,0,0,0,0,0,0,0,0,0,0,0,0,0,0,0,0,0,0,0,0,0,0,2,0,0
136,294.0,1022.0,ABB 53 A YULIUSA FUCHIKA  KAZAN       ,"улица Юлиуса Фучика, 53А, Казань, Республика Татарстан, Россия, 420141",55.743755,49.203549,-0.1259796300700168,Казань,городской округ Казань,,Татарстан,0,0,0,0,0,0,1,0,0,0,0,0,0,0,0,0,0,0,0,0,0,0,0,0,0,0,0,0,0,0,0,0,0,0,0,0,0,0,0,0,0,0,0,0,0,0,0,0,0,0,0,0,0,0,0,0,0,0,2,0,7590
137,1978.0,1022.0,ABB 14 CHISTOPOLSKAYA     KAZAN       ,"Чистопольская улица, 14, Казань, Республика Татарстан, Россия, 420066",55.818574,49.108157,-0.0785994953490796,Казань,городской округ Казань,,Татарстан,0,0,0,0,0,0,1,0,0,1,0,0,1,0,0,0,1,0,1,0,1,0,0,0,1,0,0,0,0,0,0,0,0,0,0,0,0,0,0,0,0,0,0,0,0,0,0,0,0,0,0,0,0,0,0,0,0,0,0,0,5400
138,1991.0,1022.0,"ABB 11 PROLETARSKAYA      VYS.GORA,   ","Пролетарская улица, 11, посёлок городского типа Кесова Гора, Кесовогорский район, Тверская область, Россия, 171470",57.587228,37.296586,-0.0870914301178605,,Кесовогорский муниципальный округ,,Тверская область,0,0,0,0,0,0,0,0,0,0,0,0,0,0,0,0,0,0,0,0,0,0,0,0,0,0,0,0,0,0,0,0,0,0,0,0,0,0,0,0,0,0,0,0,0,0,0,0,0,0,0,0,0,0,0,0,0,0,0,0,0
139,4509.0,1022.0,ABB 97 RIKHARDA ZORGE     KAZAN       ,"улица Рихарда Зорге, 97, Казань, Республика Татарстан, Россия, 420139",55.744429,49.219772,-0.0770638434584296,Казань,городской округ Казань,,Татарстан,2,0,0,0,0,0,0,0,0,0,0,0,0,0,0,0,1,0,1,0,4,0,0,0,1,0,3,0,0,0,0,0,0,0,0,0,0,0,0,0,0,0,0,0,0,0,0,0,0,0,0,0,0,0,0,0,1,2,4,0,3420
140,4598.0,1022.0,ABB 141 POBEDY PR.        KAZAN       ,"проспект Победы, 141, Казань, Республика Татарстан, Россия, 420100",55.780957,49.213125,-0.0655708453756381,Казань,городской округ Казань,,Татарстан,12,4,0,0,5,0,0,0,0,0,0,0,0,0,0,0,0,0,3,0,0,0,0,0,0,0,0,0,0,0,0,0,0,0,0,0,0,0,0,2,0,0,0,0,0,0,0,0,0,0,1,0,0,0,0,0,0,0,0,0,0
141,4665.0,1022.0,ABB 32 LENINA             ZELENODOLSK ,"улица Ленина, 32, Зеленодольск, Республика Татарстан, Россия, 422550",55.846997,48.500033,-0.066558561437489,,Зеленодольский район,,Татарстан,1,1,0,0,0,0,1,0,0,0,0,0,0,0,0,0,0,0,0,2,1,0,0,0,0,0,1,0,0,0,0,0,0,0,0,0,0,0,0,0,0,0,0,0,0,0,0,0,0,0,0,0,0,0,0,0,0,0,2,0,4470
142,4698.0,1022.0,ABB 113A LENINA           ALMETEVSK   ,"улица Ленина, 113А, Альметьевск, Республика Татарстан, Россия, 423461",54.898178,52.272481,-0.0748998023959967,Альметьевск,Альметьевский район,,Татарстан,0,0,0,0,0,0,1,0,0,0,0,0,0,0,0,0,4,0,1,0,2,0,0,0,0,0,1,0,0,0,0,0,0,0,0,0,0,0,1,0,0,0,0,0,0,0,0,0,0,0,0,0,0,0,0,0,0,0,1,0,0
143,153.0,1022.0,ABB 13 B. KHMELNICKOGO    CHELYABINSK ,"улица Богдана Хмельницкого, 13, Челябинск, Россия, 454047",55.257591,61.395834,-0.1450012314747548,Челябинск,Челябинский городской округ,,Челябинская область,0,0,0,0,0,0,0,0,0,0,0,0,0,0,0,0,1,0,0,0,0,0,0,0,0,0,0,0,0,0,0,0,0,0,0,0,0,0,0,0,0,0,0,0,0,0,0,0,0,0,0,0,0,0,0,0,0,0,0,0,2130
144,317.0,1022.0,ABB METRO ST.PL. TUKAYA   KAZAN       ,"метро Площадь Габдуллы Тукая, Центральная линия, Казань, Республика Татарстан, Россия",55.786065,49.124542,-0.0850376560508537,Казань,городской округ Казань,,Татарстан,8,4,1,1,2,0,0,0,0,0,0,1,0,0,0,0,1,0,4,0,1,0,0,0,0,0,1,0,1,0,0,0,0,0,0,0,0,0,0,1,0,0,0,0,4,0,0,0,0,0,2,0,0,0,0,0,1,0,1,0,330
145,322.0,1022.0,ABB 45 KH. MAVLYUTOVA     KAZAN       ,"улица Хусаина Мавлютова, 45, Казань, Республика Татарстан, Россия, 420101",55.744617,49.192832,-0.0275358485687054,Казань,городской округ Казань,,Татарстан,1,2,0,0,0,0,0,0,0,0,0,0,0,0,0,0,3,0,3,0,0,0,0,0,0,0,0,0,1,0,0,0,0,0,0,0,0,0,0,0,0,0,0,0,0,0,0,0,0,0,3,0,0,0,0,0,0,0,0,0,2100
146,323.0,1022.0,"ABB 71 KRAJNOVA           BAZ.MATAKI, ","улица Крайнова, 71, село Базарные Матаки, Алькеевский район, Республика Татарстан, Россия, 422870",54.904359,49.924034,-0.0625526290792645,,Алькеевский район,,Татарстан,0,0,0,0,0,0,0,0,0,0,0,0,0,0,0,0,0,0,1,0,1,0,0,0,0,0,1,0,0,0,0,0,0,0,0,0,0,0,0,0,0,0,0,0,0,0,0,0,0,0,0,0,0,0,0,0,0,0,0,0,0
147,329.0,1022.0,ABB 2 LUSHNIKOVA          KAZAN       ,"улица Лушникова, 2, Казань, Республика Татарстан, Россия, 420034",55.818796,49.082348,-0.1190071404073351,Казань,городской округ Казань,,Татарстан,0,0,0,0,0,0,0,0,0,1,0,0,0,0,0,0,0,0,2,0,0,0,0,0,0,0,1,0,0,0,0,0,0,0,0,0,0,0,0,0,0,0,0,0,0,0,0,0,0,0,0,0,0,0,0,0,0,0,0,0,5940
148,330.0,1022.0,ABB 34 ENTUZIASTOV        CHEBOKSARY  ,"улица Энтузиастов, 34, Чебоксары, Чувашская Республика, Россия, 428010",56.118791,47.183606,-0.1050784905251709,Чебоксары,городской округ Чебоксары,,Чувашия,1,0,0,0,0,0,1,0,0,0,0,0,0,0,0,0,3,0,2,0,0,0,0,0,0,0,2,0,0,1,0,0,0,0,0,0,1,0,0,1,0,0,0,0,0,0,0,0,0,0,3,0,0,0,0,0,0,0,1,0,2910
149,347.0,1022.0,ABB 6B NAB-CHELNINSKIJ    NAB.CHELNY  ,"Респ Татарстан, г Набережные Челны",55.7434619,52.3959165,-0.1450012314747548,Набережные Челны,городской округ Набережные Челны,15 комплекс,Татарстан,0,0,0,0,0,0,0,0,0,0,0,0,0,0,0,0,4,0,0,0,1,0,0,0,0,0,0,0,0,0,0,0,0,0,0,0,0,0,0,0,0,0,0,0,0,0,0,0,0,0,0,0,0,0,0,0,0,2,4,0,3600
150,354.0,1022.0,ABB 36A MAMADYSHSKIJ      KAZAN       ,"Мамадышский тракт, 36, Казань, Республика Татарстан, Россия",55.795317,49.229447,-0.1072107785087075,Казань,городской округ Казань,,Татарстан,0,0,0,0,1,0,1,0,0,0,0,0,0,0,0,0,0,0,0,0,0,0,0,0,0,0,0,0,0,0,0,0,0,0,0,0,0,0,0,0,0,0,0,0,0,0,0,0,0,0,0,0,0,0,0,0,0,0,0,0,1998
151,365.0,1022.0,ABB 50A POBEDY PR.        KAZAN       ,"проспект Победы, 50А, Казань, Республика Татарстан, Россия, 420138",55.748919,49.207573,-0.0699124796775785,Казань,городской округ Казань,,Татарстан,3,1,0,0,0,0,0,0,0,0,0,0,0,0,0,0,0,0,6,1,0,0,0,0,0,0,0,0,0,0,0,0,0,0,0,0,1,0,0,1,0,1,0,0,0,0,0,0,0,0,8,0,0,0,0,0,0,4,4,0,2130
152,369.0,1022.0,ABB 77 ZORGE              KAZAN       ,"улица Рихарда Зорге, 77, Казань, Республика Татарстан, Россия, 420110",55.747627,49.214338,-0.0756281807836549,Казань,городской округ Казань,,Татарстан,0,1,0,0,0,0,1,0,0,0,0,0,0,0,0,0,0,0,1,0,3,0,0,0,0,0,0,0,0,0,0,0,0,0,0,0,0,0,0,0,0,0,0,0,0,0,0,0,0,0,3,0,0,0,0,0,0,2,1,0,4080
153,370.0,1022.0,ABB 65 SHAMILYA USMANOVA  NAB.CHELNY  ,"улица Шамиля Усманова, 65, Набережные Челны, Республика Татарстан, Россия, 423831",55.749268,52.391697,-0.0985159317290801,Набережные Челны,городской округ Набережные Челны,,Татарстан,0,0,1,0,0,0,0,0,0,0,0,0,1,0,0,0,2,0,1,0,0,0,0,0,0,0,0,0,0,0,0,0,0,0,0,0,0,0,0,0,0,0,0,0,0,0,0,0,0,1,1,0,0,0,0,0,0,0,0,0,2580
154,372.0,1022.0,"ABB 168 B. KRASNAYA       VYS.GORA,   ","Большая Красная улица, 168, село Высокая Гора, Высокогорский район, Республика Татарстан, Россия, 422701",55.918933,49.312991,-0.0308774824841193,,Высокогорский район,,Татарстан,1,1,0,0,0,0,0,0,0,0,0,0,0,0,0,0,2,0,2,1,0,0,0,0,0,0,1,0,0,0,0,0,0,0,0,0,0,0,0,0,0,0,0,0,0,0,0,0,0,0,0,0,0,0,0,0,0,0,2,0,555
155,375.0,1022.0,ABB 32 LENINGRADSKAYA     KAZAN       ,"Ленинградская улица, 32, Казань, Республика Татарстан, Россия, 420037",55.866793,49.088214,-0.0899353745453752,Казань,городской округ Казань,,Татарстан,1,0,0,0,0,0,2,0,0,0,0,0,2,0,0,0,0,0,1,1,1,0,0,0,0,0,4,0,0,0,0,0,0,0,0,0,0,0,0,0,0,0,0,0,0,0,0,0,0,0,0,0,0,0,0,0,0,0,2,0,4320
156,377.0,1022.0,ABB 113A LENINA           ALMETEVSK   ,"улица Ленина, 113А, Альметьевск, Республика Татарстан, Россия, 423461",54.898178,52.272481,-0.0655204796020988,Альметьевск,Альметьевский район,,Татарстан,0,0,0,0,0,0,1,0,0,0,0,0,0,0,0,0,4,0,1,0,2,0,0,0,0,0,1,0,0,0,0,0,0,0,0,0,0,0,1,0,0,0,0,0,0,0,0,0,0,0,0,0,0,0,0,0,0,0,1,0,0
157,1915.0,1022.0,ABB 32 LENINA             ZELENODOLSK ,"улица Ленина, 32, Зеленодольск, Республика Татарстан, Россия, 422550",55.846997,48.500033,-0.0936156270803666,,Зеленодольский район,,Татарстан,1,1,0,0,0,0,1,0,0,0,0,0,0,0,0,0,0,0,0,2,1,0,0,0,0,0,1,0,0,0,0,0,0,0,0,0,0,0,0,0,0,0,0,0,0,0,0,0,0,0,0,0,0,0,0,0,0,0,2,0,4470
158,1939.0,1022.0,ABB 34-12 SIBIRSKIJ TR.   KAZAN       ,"Сибирский тракт, 34к12, Казань, Республика Татарстан, Россия",55.816111,49.188412,-0.1219101574941558,Казань,городской округ Казань,,Татарстан,0,0,0,0,0,0,0,0,0,0,0,0,0,0,0,0,2,0,0,0,0,0,0,0,0,0,0,0,0,0,0,0,0,0,0,0,0,0,0,0,0,0,0,0,0,0,0,0,0,0,1,0,0,0,0,0,0,0,1,0,0
159,1949.0,1022.0,ABB 1A KOROLEVA           ZELENODOLSK ,"улица Королёва, 1А, Зеленодольск, Республика Татарстан, Россия",55.852834,48.566814,-0.1240082286876616,,Зеленодольский район,,Татарстан,1,0,0,0,0,0,0,0,0,0,0,0,0,1,0,0,1,0,2,1,0,0,0,0,0,0,0,0,1,0,0,0,0,0,0,0,0,0,0,1,0,0,0,0,0,0,1,1,0,0,0,0,0,0,0,0,0,0,0,0,1260
160,1950.0,1022.0,ABB 5 GRUZDEVA            KAZAN       ,"улица Груздева, 5, Казань, Республика Татарстан, Россия, 420012",55.789031,49.145015,0.0430116793905869,Казань,городской округ Казань,,Татарстан,0,0,0,0,0,0,1,0,0,0,0,0,0,0,0,0,5,0,1,1,0,0,0,0,0,1,0,0,0,0,0,0,0,0,0,0,0,0,0,0,0,0,0,0,0,0,1,0,0,2,1,0,0,0,0,0,0,0,3,0,4320
161,1951.0,1022.0,ABB 2-1 LUNACHARSKOGO     ULYANOVSK   ,"улица Луначарского, 2с1, Ульяновск, Россия, 432012",54.263287,48.329201,-0.1450012314747548,Ульяновск,городской округ Ульяновск,,Ульяновская область,1,1,0,0,0,0,0,0,0,0,0,0,1,0,0,0,6,0,3,0,0,0,0,0,0,0,2,0,0,1,0,0,0,0,0,0,0,0,0,0,0,0,0,0,0,0,0,0,0,0,2,0,0,0,0,0,0,0,0,0,3330
162,1957.0,1022.0,ABB 1-1 SHKOLNYJ B-R      NAB.CHELNY  ,"Школьная улица, 1, поселок ЗЯБ, Набережные Челны, Республика Татарстан, Россия, 423806",55.690928,52.346511,-0.1321437058127751,Набережные Челны,городской округ Набережные Челны,"ЗЯБ, 18 комплекс",Татарстан,0,0,0,0,0,0,0,0,0,0,0,0,0,0,0,0,0,0,0,0,0,0,0,0,0,0,0,0,0,0,0,0,0,0,0,0,0,0,0,0,0,0,0,0,0,0,0,0,0,0,0,0,0,0,0,0,0,0,0,0,720
163,255.0,1942.0,27 OPALIKHINSKAYA STR.    EKATERINBURG,"Опалихинская улица, 27, Екатеринбург, Свердловская область, Россия, 620034",56.854079,60.559521,-0.0644245802180102,Екатеринбург,городской округ Екатеринбург,,Свердловская область,0,0,0,0,0,0,1,0,0,0,0,0,0,0,0,0,1,0,0,0,0,0,0,0,2,0,1,0,0,0,0,0,0,0,0,0,0,0,1,0,0,0,0,0,0,0,0,0,0,0,3,0,0,0,0,0,0,0,1,0,4470
164,161.0,1942.0,84 M.RYBALKO STR.         PERM        ,"улица Маршала Рыбалко, 84, Пермь, Россия, 614113",58.008839,55.962213,-0.0827688747571967,Пермь,Пермский городской округ,,Пермский край,0,0,0,0,0,0,0,0,0,0,0,0,0,0,0,0,0,0,0,0,0,0,0,0,0,0,0,0,0,0,0,0,0,0,0,0,0,0,0,0,0,0,0,0,0,0,0,0,0,0,0,0,0,0,0,0,0,0,1,0,690
165,169.0,1942.0,52 TOKAREY ST.            EKATERINBURG,"улица Токарей, 52, Екатеринбург, Свердловская область, Россия, 620109",56.829487,60.560563,-0.0752526029714781,Екатеринбург,городской округ Екатеринбург,,Свердловская область,0,0,1,0,0,0,0,0,0,0,0,0,0,0,0,0,2,0,6,0,0,0,0,0,0,0,1,0,0,0,0,0,0,0,0,0,0,0,0,0,0,0,0,0,0,0,1,0,0,0,0,0,0,0,0,0,0,0,2,0,3750
166,170.0,1942.0,"ST FURMANOVA,37           EKATERINBURG","улица Фурманова, 37, Екатеринбург, Свердловская область, Россия, 620142",56.815646,60.611812,-0.0487935415895887,Екатеринбург,городской округ Екатеринбург,,Свердловская область,0,0,0,0,0,0,1,0,0,1,0,0,0,0,0,0,2,0,2,0,0,0,0,0,0,0,1,0,0,0,0,0,0,0,0,0,0,0,0,0,0,0,0,0,0,0,0,0,0,0,2,0,0,0,0,0,0,0,0,0,2640
167,247.0,1942.0,12A BELORECHENSKAYA       EKATERINBURG,"Белореченская улица, 12А, микрорайон Юго-Западный, Екатеринбург, Свердловская область, Россия, 620102",56.821026,60.567911,0.0216933799139782,Екатеринбург,городской округ Екатеринбург,,Свердловская область,0,0,0,0,0,0,0,0,0,0,0,0,0,0,0,0,3,0,6,0,5,0,0,0,0,0,1,0,0,0,0,0,0,0,0,0,0,0,0,0,0,0,0,0,0,0,0,0,0,0,0,0,0,0,0,0,0,2,2,0,4500
168,253.0,1942.0,136 BEBELYA STR.          EKATERINBURG,"улица Бебеля, 136, Екатеринбург, Свердловская область, Россия, 620141",56.860757,60.552325,0.0265730036652793,Екатеринбург,городской округ Екатеринбург,,Свердловская область,0,0,0,0,0,0,0,0,0,0,0,0,0,0,0,0,1,0,0,0,0,0,0,0,0,0,0,0,0,0,0,0,0,0,0,0,0,0,0,0,0,0,0,0,0,0,0,0,0,0,0,0,0,0,0,0,0,0,1,0,2340
169,279.0,1942.0,60 KOMSOMOLSKIY AV.       PERM        ,"Комсомольская улица, 58, Пермь, Россия",58.059226,56.613994,0.0288801914099292,Пермь,Пермский городской округ,,Пермский край,0,0,0,0,0,0,0,0,0,0,0,0,0,0,0,0,0,0,0,0,0,0,0,0,0,0,0,0,0,0,0,0,0,0,0,0,0,0,0,0,0,0,0,0,0,0,0,0,0,0,0,0,0,0,0,0,0,0,2,0,0
170,283.0,1942.0,44A AVTOZAVODSKAYA STR.   PERM        ,"Автозаводская улица, 44А, Пермь, Россия, 614113",58.006688,55.949331,-0.0068750715346186,Пермь,Пермский городской округ,,Пермский край,0,0,0,0,0,0,2,0,0,0,0,0,0,0,0,0,0,0,1,0,3,0,0,0,0,0,0,0,0,0,0,0,0,0,0,0,0,0,0,0,0,0,0,0,0,0,0,0,0,0,0,0,0,0,0,0,0,0,0,0,1830
171,284.0,1942.0,44A AVTOZAVODSKAYA STR.   PERM        ,"Автозаводская улица, 44А, Пермь, Россия, 614113",58.006688,55.949331,0.0300461246138357,Пермь,Пермский городской округ,,Пермский край,0,0,0,0,0,0,2,0,0,0,0,0,0,0,0,0,0,0,1,0,3,0,0,0,0,0,0,0,0,0,0,0,0,0,0,0,0,0,0,0,0,0,0,0,0,0,0,0,0,0,0,0,0,0,0,0,0,0,0,0,1830
172,293.0,1942.0,172 KARLA MARKSA AV.      MAGNITOGORSK,"проспект Карла Маркса, 172, Магнитогорск, Челябинская область, Россия, 455049",53.37844,58.976384,0.023587453861983,Магнитогорск,Магнитогорский городской округ,,Челябинская область,1,0,1,0,1,0,0,0,0,0,0,0,1,0,0,0,3,0,0,0,2,0,0,0,0,0,0,0,0,0,0,0,0,0,0,0,0,0,0,0,0,0,0,0,0,0,2,0,0,0,1,0,0,0,0,0,0,0,0,3,0
173,196.0,1942.0,166 TRUDA STR.            CHELYABINSK ,"улица Труда, 166, Челябинск, Россия, 454080",55.170784,61.374562,0.0092512948471232,Челябинск,Челябинский городской округ,,Челябинская область,1,1,0,0,0,0,0,0,0,0,0,0,0,0,0,0,1,0,2,0,0,0,0,0,0,0,0,0,0,0,0,0,0,0,0,0,0,0,0,0,0,0,0,0,0,0,7,0,0,1,0,0,0,0,0,0,0,0,1,0,1770
174,200.0,1942.0,86 VEDENEEVA STR.         PERM        ,"улица Академика Веденеева, 86, Пермь, Россия, 614038",58.103704,56.385436,-0.0142961210681387,Пермь,Пермский городской округ,,Пермский край,0,0,0,0,0,0,0,0,0,0,0,0,0,0,0,0,0,0,0,0,0,0,0,0,0,0,1,0,0,0,0,0,0,0,0,0,0,0,0,0,0,0,0,0,0,0,0,0,0,0,0,0,0,0,0,0,0,0,2,0,600
175,204.0,1942.0,13 REVOLYUTSII STR        PERM        ,"улица Революции, 13, Пермь, Россия",58.007599,56.261908,0.0368468129447201,Пермь,Пермский городской округ,,Пермский край,1,1,0,0,3,0,0,0,0,0,0,0,0,0,0,0,2,0,0,0,1,0,0,0,0,0,1,0,0,0,0,0,0,0,0,0,0,0,0,0,0,0,0,0,0,0,0,0,0,0,2,0,0,0,0,0,0,4,1,0,1380
176,211.0,1942.0,2A KIROVA STR.            CHELYABINSK ,"улица Кирова, 2А, Челябинск, Россия, 454084",55.18378,61.398107,-0.0082759676376802,Челябинск,Челябинский городской округ,,Челябинская область,0,0,0,0,0,0,0,0,0,0,0,0,0,0,0,0,4,0,2,0,2,0,0,0,0,0,1,0,0,0,0,0,0,0,0,0,0,0,0,0,0,0,0,0,0,0,2,0,2,0,2,0,0,0,0,0,0,12,5,0,3510
177,212.0,1942.0,38 IVANA FRANKO STR       PERM        ,"улица Ивана Франко, 38, Пермь, Россия, 614056",58.063254,56.354489,0.0051556292855728,Пермь,Пермский городской округ,,Пермский край,0,0,0,0,0,0,0,0,0,0,0,0,0,0,0,0,0,0,0,0,0,0,0,0,0,0,1,0,0,0,0,0,0,0,0,0,0,0,0,0,0,0,0,0,0,0,0,0,1,0,0,0,0,0,0,0,0,0,2,0,3870
178,213.0,1942.0,15 ZHUKOVA STR.           MAGNITOGORSK,"улица Жукова, 15, Магнитогорск, Челябинская область, Россия, 455051",53.355992,58.970625,-0.0548598154894079,Магнитогорск,Магнитогорский городской округ,,Челябинская область,0,0,0,0,0,0,0,0,0,1,0,0,0,0,0,0,0,0,0,0,0,0,0,0,0,0,0,0,0,0,0,0,0,0,0,0,0,0,0,0,0,0,0,0,0,0,0,0,0,0,0,0,0,0,0,0,0,0,0,0,900
179,217.0,1942.0,7 MOLODOGVARDEYTSEV       CHELYABINSK ,"улица Молодогвардейцев, 7, Челябинск, Россия, 454901",55.204793,61.327311,-0.0053415141242836,Челябинск,Челябинский городской округ,,Челябинская область,2,0,0,0,0,0,0,0,0,0,0,0,1,0,0,0,1,0,2,0,0,0,0,0,0,0,0,0,0,0,0,0,0,0,0,0,0,0,0,0,0,0,0,0,0,0,0,0,0,0,1,0,0,0,0,0,0,0,0,0,0
180,1005.0,1942.0,7B PERMYAKOVA STR.        TUMEN       ,"улица Пермякова, 7Б, Тюмень, Россия, 625013",57.13031,65.595566,-0.0251361624914984,Тюмень,городской округ Тюмень,,Тюменская область,0,0,0,0,0,0,0,0,0,0,0,0,1,0,0,0,3,0,0,0,0,0,0,0,0,0,0,0,0,0,0,0,0,0,0,0,0,0,0,0,0,0,0,0,0,0,2,0,0,0,0,0,0,0,0,0,0,0,0,0,1140
181,1591.0,1942.0,16A BEREJKOVSK NAB        MOSCOW      ,г Москва,55.7540471,37.620405,0.0800340870031678,Москва,,4,Москва,0,1,0,0,3,0,0,0,0,0,0,0,0,0,0,0,0,0,0,0,0,0,0,0,0,0,0,0,0,0,0,0,0,0,0,0,0,0,0,0,0,0,0,0,0,0,0,0,0,1,1,0,0,0,0,0,0,0,0,0,0
182,1839.0,1942.0,2 NOVOBAYDAEVSKAYA        NOVOKUZNETSK,"Новобайдаевская улица, 2, микрорайон Новобайдаевский, Новокузнецк, Кемеровская область, Россия, 654084",53.78207,87.293635,-0.0127961848546726,Новокузнецк,Новокузнецкий городской округ,,Кемеровская область,1,0,0,0,0,0,0,0,0,0,0,0,0,0,0,0,1,0,0,0,1,0,0,0,0,0,0,0,0,0,0,0,0,0,0,0,0,0,0,0,0,0,0,0,0,0,0,0,0,0,0,0,0,0,0,0,0,0,0,0,0
183,1872.0,1942.0,35 SHIROKAYA STR.         NOVOSIBIRSK ,"Широкая улица, 35, Новосибирск, Россия, 630108",54.993153,82.854233,-0.0609758003569325,городской округ Новосибирск,,,Новосибирская область,0,0,0,0,0,0,0,0,0,0,0,0,0,0,0,0,0,0,0,0,0,0,0,0,0,0,0,0,0,0,0,0,0,0,0,0,0,0,0,0,0,0,0,0,0,0,0,0,0,0,0,0,0,0,0,0,0,2,0,0,1230
184,1901.0,1942.0,41-7 CHERNOY RECHKI       S.-PETERSBUR,"набережная Чёрной речки, 41к2А, Санкт-Петербург, Россия, 197342",59.985683,30.306984,0.0164394120319239,Санкт-Петербург,,,Санкт-Петербург,0,2,0,0,0,0,0,0,0,0,0,1,0,0,0,0,1,0,1,0,0,0,0,0,0,0,0,0,0,0,0,0,0,0,0,0,0,0,0,0,0,0,0,0,0,0,0,1,0,5,0,0,0,0,0,0,0,0,0,0,2520
185,390.0,1942.0,11 KATUKOVA STR.          LIPETSK     ,"улица Катукова, 11, Липецк, Россия, 398004",52.580418,39.527436,0.0700039702466421,городской округ Липецк,,,Липецкая область,0,0,0,0,0,0,0,0,0,0,0,0,0,0,0,0,3,0,0,0,0,0,0,0,0,0,1,0,0,0,0,0,0,0,0,0,0,0,0,0,0,0,0,0,0,0,0,0,0,0,0,0,0,0,0,0,0,0,0,0,0
186,411.0,1942.0,10 BABUSHKINA STR.        SANKT-PETERB,"улица Бабушкина, 10, Санкт-Петербург, Россия, 192029",59.89672,30.42345,0.0261850662216676,Санкт-Петербург,,,Санкт-Петербург,6,3,0,0,0,0,0,0,0,2,0,0,0,0,0,0,0,0,8,1,1,0,0,0,0,0,6,1,0,0,0,0,0,0,0,0,0,0,0,1,0,0,0,0,0,0,2,0,1,0,1,0,0,0,0,0,0,0,4,0,3588
187,427.0,1942.0,2-6 22-Y MKRN.            NAZAROVO    ,"22-й микрорайон, 2, Назарово, Красноярский край, Россия",56.001791,90.451716,-0.0730349103495651,,городской округ Назарово,,Красноярский край,0,0,0,0,0,0,0,0,0,0,0,0,0,0,0,0,0,0,0,0,0,0,0,0,0,0,0,0,0,0,0,0,0,0,0,0,0,0,0,0,0,0,0,0,0,0,0,0,0,0,0,0,0,0,0,0,0,0,0,0,0
188,431.0,1942.0,3 VZLETNAYA STR.          KRASNOYARSK ,"автодорога Красноярск-Железногорск, 20 км, Берёзовский район, Красноярский край, Россия",56.12978,93.332317,-0.1101605679442367,,Берёзовский район,,Красноярский край,0,0,0,0,0,0,0,0,0,0,0,0,0,0,0,0,0,0,0,0,0,0,0,0,0,0,0,0,0,0,0,0,0,0,0,0,0,0,0,0,0,0,0,0,0,0,0,0,0,0,0,0,0,0,0,0,0,0,0,4,270
189,434.0,1942.0,55B KRASNAYA STR.         NOVOVELICHKO,"Красная улица, 55Б, станица Нововеличковская, Динской район, Краснодарский край, Россия",45.275511,38.839919,0.0618753662075843,,Динской район,,Краснодарский край,0,1,0,0,0,0,0,0,0,0,0,0,0,0,0,0,0,0,0,0,2,0,0,0,0,0,0,0,0,0,0,0,0,0,0,0,0,0,1,0,0,0,0,0,0,0,0,0,0,0,2,0,0,0,0,0,0,0,0,0,123
190,438.0,1942.0,103/2 KUBOVAYA STR.       NOVOSIBIRSK ,"Кубовая улица, 103/2, Новосибирск, Россия, 630066",55.128748,82.898601,0.0007007466601096,Новосибирск,Новосибирский район,МКРН Стрижи,Новосибирская область,2,1,0,0,0,0,0,0,0,0,0,0,0,0,0,0,4,0,0,0,0,0,0,0,0,0,1,0,0,0,0,0,0,0,0,0,0,0,0,0,0,1,0,0,0,0,1,0,0,0,0,0,0,0,0,0,0,0,1,5,1290
191,440.0,1942.0,113 MIRA AV.              TOGLIATTI   ,"Самарская обл, г Тольятти, ул Мира, влд 113",53.5107844,49.4444678,-0.0829561645280578,Тольятти,городской округ Тольятти,,Самарская область,0,0,0,0,0,0,0,0,0,0,0,0,0,0,0,0,0,0,0,0,0,0,0,0,0,0,0,0,0,0,0,0,0,0,0,0,0,0,0,0,0,0,0,0,0,0,0,0,0,0,3,0,0,0,0,0,0,0,2,0,4230
192,442.0,1942.0,30A MOSKOVSKIY AV.        TOGLIATTI   ,"Московский проспект, 30, Тольятти, Самарская область, Россия, 445026",53.523593,49.256711,-0.000529944903701,Тольятти,городской округ Тольятти,,Самарская область,0,0,0,0,0,0,0,0,0,0,0,0,0,0,0,0,2,0,2,0,0,0,0,0,0,0,0,0,0,0,0,0,0,0,0,0,0,0,0,0,0,0,0,0,0,0,0,0,0,0,1,0,0,0,0,0,0,0,0,0,0
193,448.0,1942.0,43 DUBROVINSKOGO ST       KRASNOYARSK ,"улица Дубровинского, 43, Красноярск, Россия, 660049",56.006618,92.857081,-0.1340477202070325,,городской округ Красноярск,,Красноярский край,0,0,0,0,0,0,0,0,0,0,0,0,0,0,0,0,3,0,0,0,0,0,0,0,0,0,0,0,0,0,0,0,0,0,0,0,0,0,0,0,0,0,0,0,0,0,0,0,0,5,0,0,0,0,0,0,0,0,0,0,1980
194,454.0,1942.0,1 BELYAEVA STR.           ORSK        ,"улица Беляева, 1, микрорайон Новый город, Орск, Оренбургская область, Россия, 462430",51.258168,58.432355,-0.0885592443253684,Орск,городской округ Орск,,Оренбургская область,0,0,0,0,0,0,1,0,0,1,0,0,0,0,0,0,0,0,1,0,0,0,0,0,0,0,0,0,0,0,0,0,0,0,0,0,0,0,0,0,0,0,0,0,0,0,0,0,0,0,2,0,0,0,0,0,0,0,0,0,4560
195,456.0,1942.0,93 LENINA AV.             ORSK        ,"проспект Ленина, 93, микрорайон Новый город, Орск, Оренбургская область, Россия, 462429",51.250519,58.452639,-0.1063859618521479,Орск,городской округ Орск,,Оренбургская область,0,0,0,0,0,0,1,0,0,0,0,0,0,0,0,0,0,0,1,0,0,0,0,0,0,0,0,0,0,0,0,0,0,0,0,0,0,0,0,0,0,0,0,11,0,0,0,0,0,0,0,0,0,0,0,0,0,2,0,0,1818
196,463.0,1942.0,525 KRASNIKH PARTIZ       KRASNODAR   ,"улица Красных Партизан, 525литД, Краснодар, Россия, 350049",45.049819,38.967498,0.0234097875213277,Краснодар,городской округ Краснодар,,Краснодарский край,0,0,0,0,1,0,0,0,0,0,0,0,0,0,0,0,1,0,0,0,1,0,0,0,0,0,0,0,0,0,0,0,0,0,0,0,0,0,0,0,0,0,0,0,0,0,1,0,0,0,0,0,0,0,0,0,0,0,2,0,729
197,466.0,1942.0,3A GEN.SHTEMENKO          VOLGOGRAD   ,"улица Генерала Штеменко, 3А, Волгоград, Россия, 400105",48.771273,44.564092,-0.0068505891056883,Волгоград,городской округ Волгоград,,Волгоградская область,1,0,0,0,0,0,0,0,0,0,0,0,0,0,0,0,2,0,2,0,0,0,0,0,0,0,1,0,0,0,0,0,0,0,0,0,0,0,0,0,0,0,0,0,0,0,0,0,0,0,0,0,0,0,0,0,0,2,0,0,3540
198,469.0,1942.0,24 50-LET OKTYABRYA       UFA         ,"улица 50-летия Октября, 24, Уфа, Республика Башкортостан, Россия, 450005",54.737283,55.976666,-0.036416262446369,Уфа,городской округ Уфа,,Башкортостан,0,1,0,0,1,1,0,0,0,0,0,1,0,0,0,0,0,0,0,0,0,0,0,0,0,0,0,0,0,0,0,0,0,0,0,0,0,0,0,0,0,0,0,0,0,0,0,0,0,0,0,0,0,0,0,0,0,0,0,0,690
199,470.0,1942.0,8V MILITSEYSKAYA STR      U.-SAKHALINS,"Милицейская улица, 8, Южно-Сахалинск, Сахалинская область, Россия",46.966405,142.731815,0.0419144559588825,Южно-Сахалинск,городской округ Южно-Сахалинск,I микрорайон,Сахалинская область,0,0,1,0,0,0,0,0,0,1,0,0,0,0,0,0,6,0,0,0,0,0,0,0,0,0,0,0,0,0,0,0,0,0,0,0,0,0,0,0,0,0,0,0,1,0,2,1,0,0,0,0,0,0,0,0,0,0,0,0,1350
200,472.0,1942.0,25. KUIBYSHEVA STR.       CHAPAEVSK   ,"улица Куйбышева, 25, Чапаевск, Самарская область, Россия, 446100",52.978797,49.707926,-0.046199924588766,,городской округ Чапаевск,,Самарская область,1,0,0,0,0,0,0,0,0,1,0,0,0,0,0,1,3,0,8,0,0,0,0,0,0,0,1,0,1,0,0,0,0,0,0,0,0,0,1,0,0,0,0,0,0,0,0,0,0,0,0,0,0,0,0,0,0,0,1,0,690
201,476.0,1942.0,138 MICHURINA STR         SAMARA      ,"улица Мичурина, 138, Самара, Россия, 443086",53.217014,50.167594,0.0242607032926806,Самара,городской округ Самара,,Самарская область,1,0,0,0,0,0,0,0,0,1,0,0,0,0,0,0,1,0,2,0,0,0,0,0,0,0,2,0,0,0,0,0,0,0,0,0,0,0,0,0,0,0,0,0,0,0,0,0,0,0,0,0,0,0,0,0,0,0,0,0,10866
202,489.0,1942.0,46/1 VYSOTSKOGO STR       NOVOSIBIRSK ,"улица Владимира Высоцкого, 46, Новосибирск, Россия",55.027805,83.024032,-0.0555480534136495,городской округ Новосибирск,,,Новосибирская область,0,0,0,0,0,0,0,0,0,0,0,0,0,0,0,0,0,0,0,0,0,0,0,0,0,0,0,0,0,0,0,0,0,0,0,0,0,0,0,0,0,0,0,0,0,0,0,0,0,0,0,0,0,0,0,0,0,0,1,0,0
203,496.0,1942.0,OTKRITOE SHOSSE 9         MOSCOW      ,"Открытое шоссе, 9, Москва, Россия, 107370",55.815413,37.738045,0.0530305321939476,Москва,,,Москва,0,0,0,0,0,0,0,0,0,0,0,0,0,0,0,0,0,0,0,0,0,0,0,0,0,0,0,0,0,0,0,0,0,0,0,0,0,0,0,0,0,0,0,0,0,0,0,0,0,0,0,0,0,0,0,0,0,4,0,3,1020
204,501.0,1942.0,21B LENINA AV.            YAROSLAVL   ,"проспект Ленина, 21, Ярославль, Россия, 150003",57.637868,39.871517,-0.0214847003523368,Ярославль,городской округ Ярославль,,Ярославская область,0,0,0,0,0,0,0,0,0,0,0,0,0,0,0,0,0,0,0,0,0,0,0,0,0,0,1,0,0,0,0,0,0,0,0,0,0,0,0,0,0,0,0,0,0,0,0,0,0,0,0,0,0,0,0,0,0,0,1,0,1590
205,505.0,1942.0,89 MELNIKAYTE STR         TYUMEN      ,"улица Мельникайте, 89, Тюмень, Россия, 625026",57.139532,65.57574,-0.1342043465078909,Тюмень,городской округ Тюмень,,Тюменская область,0,0,0,0,0,0,1,0,0,0,0,0,0,0,0,0,2,0,0,0,0,0,0,0,0,0,1,0,0,0,0,0,0,0,0,0,0,0,0,0,0,0,0,0,0,0,1,0,0,0,0,0,0,0,0,0,0,0,0,0,3420
206,507.0,1942.0,32 NOVOKOSINSKAYA         MOSCOW      ,"Новокосинская улица, 32/7, Москва, Россия, 111672",55.742007,37.867169,0.0505495816697389,Москва,,,Москва,0,0,0,0,1,0,0,0,0,0,0,0,0,0,0,0,2,0,0,0,0,0,0,0,1,0,3,0,0,0,0,0,0,0,0,0,0,0,0,0,0,1,0,0,0,0,0,0,0,0,4,0,0,0,0,0,0,0,1,1,7446
207,510.0,1942.0,20 SHEREMETEVSKAYA        MOSCOW      ,"Шереметьевская улица, 20, Москва, Россия, 129594",55.803469,37.618848,-0.066528612992181,Москва,,,Москва,10,1,0,0,0,0,0,0,0,0,0,0,1,0,0,0,1,0,2,0,0,0,0,0,0,0,1,0,1,0,0,0,0,0,0,0,0,0,0,1,0,0,0,0,0,0,3,0,0,0,1,0,0,0,0,0,0,0,0,0,450
208,522.0,1942.0,2 VETERANOV BLVD.         MYTISCHI    ,"бульвар Ветеранов, с2, Мытищи, Московская область, Россия, 141021",55.909226,37.720043,0.0595851678589131,Мытищи,городской округ Мытищи,,Московская область,0,0,0,0,0,0,0,0,0,0,0,0,1,0,0,0,2,0,0,0,0,0,0,0,0,0,3,0,0,0,0,0,0,0,0,0,0,1,0,1,0,1,0,0,0,0,1,0,0,0,1,0,0,0,0,0,0,0,1,0,4590
209,533.0,1942.0,10/1 SHABOLOVSKAYA STR    MOSCOW      ,"улица Шаболовка, 10к1, Москва, Россия, 119049",55.723861,37.610053,0.0487193141867933,Москва,,,Москва,0,4,1,0,4,0,0,0,0,0,0,0,0,0,0,0,1,0,3,0,1,0,0,0,1,0,1,0,0,0,0,0,0,0,0,0,0,0,0,1,0,0,0,0,0,1,4,0,0,1,2,0,0,0,2,1,0,2,0,0,6750
210,537.0,1942.0,10 VOZDVIZHENKA STR       MOSCOW      ,"улица Воздвиженка, 10, Москва, Россия, 125009",55.753301,37.606263,-0.0183601192379165,Москва,,43,Москва,1,6,0,0,1,0,0,0,0,0,0,0,0,0,0,0,1,0,0,0,1,0,0,0,0,0,2,0,0,0,0,0,0,0,0,1,0,0,0,0,0,0,0,0,0,0,0,0,0,9,1,0,0,0,0,0,0,0,1,4,1770
211,544.0,1942.0,24/19 LUZHNIKI            MOSCOW      ,"улица Лужники, 24с19, Москва, Россия, 119270",55.712533,37.553226,-0.1039607753475984,Москва,,,Москва,0,0,0,0,1,0,0,0,0,0,0,0,0,0,0,0,2,0,0,0,0,0,0,0,0,0,0,0,0,0,0,0,0,0,0,0,0,0,0,0,0,0,0,0,0,0,0,0,0,0,0,0,0,0,0,0,0,0,0,0,0
212,553.0,1942.0,80 ALTUFEVSKOE H/W.       MOSCOW      ,"Каширское шоссе, 80, Москва, Россия, 115569",55.624505,37.709093,0.0408404405611907,Москва,,,Москва,2,1,0,0,1,0,0,0,0,0,0,0,0,0,0,0,6,0,1,0,0,0,0,0,0,0,0,0,0,0,0,0,0,0,0,0,0,0,0,0,0,0,0,0,0,0,0,0,1,0,2,0,0,0,0,0,0,0,2,0,2790
213,556.0,1942.0,133A MOZHAYSKOE H/W.      MOSCOW      ,"г Москва, ш Можайское, д 133А",55.7183935,37.4151538,0.0615173036596213,Москва,,,Москва,1,0,0,0,0,0,0,0,0,0,0,0,1,0,0,0,2,0,0,1,0,0,0,0,0,0,0,0,0,0,0,0,0,0,0,0,0,1,0,0,0,0,0,0,0,0,0,0,0,1,1,0,0,0,0,0,0,0,1,0,5550
214,562.0,1942.0,13A SHIROKAYA STR         MOSCOW      ,"Широкая улица, 13А, Москва, Россия, 127224",55.888104,37.662452,0.0033382394867508,Москва,,,Москва,2,2,0,0,0,0,0,0,0,0,0,0,2,0,0,0,2,0,3,0,1,0,0,0,0,0,4,0,0,0,0,0,0,0,0,0,0,0,0,1,0,0,0,0,0,0,0,0,2,0,0,0,0,0,0,0,0,0,5,0,4800
215,568.0,1942.0,63A IZMAYLOVSKIY AV.      MOSCOW      ,"г Москва, ул Измайловский Вал, д 63А",55.784549,37.7178968,0.0082759964032928,Москва,,,Москва,2,1,0,0,0,0,0,0,0,0,0,1,1,0,0,0,2,0,1,1,2,0,0,0,0,0,1,0,0,0,0,0,0,0,0,0,0,0,0,1,0,0,0,0,0,0,1,12,0,3,2,0,0,0,0,0,0,18,2,3,900
216,577.0,1942.0,19 YARTSEVSKAYA STR.      MOSCOW      ,"Ярцевская улица, 19, Москва, Россия, 121552",55.738591,37.411005,0.1157061201776452,Москва,,,Москва,11,3,1,0,5,0,0,0,0,0,0,1,0,0,0,0,0,0,0,0,0,0,1,0,0,0,2,0,1,0,0,0,0,0,0,0,0,0,1,0,0,0,0,0,0,0,0,0,0,0,1,0,0,0,0,0,0,0,1,0,4350
217,587.0,1942.0,14/2 BUMAZHNIY AVE        MOSCOW      ,"г Москва, проезд Бумажный, д 14 стр 2",55.7896669,37.5869132,-0.0522203549815792,Москва,,,Москва,0,0,0,0,0,0,0,0,0,0,0,0,0,0,0,0,0,0,0,0,0,0,0,0,0,0,0,0,0,0,0,0,0,0,0,0,0,0,0,0,0,0,0,0,0,0,0,0,0,2,1,0,0,0,0,0,0,0,1,5,1410
218,589.0,1942.0,18-1 ANDROPOVA STR.       MOSCOW      ,"проспект Андропова, 18к1, Москва, Россия, 115432",55.695027,37.662812,-0.0961968395008743,Москва,,,Москва,1,3,0,0,0,0,0,0,0,0,0,0,0,0,0,0,4,0,7,0,3,0,0,0,0,0,0,0,0,0,0,0,0,0,0,0,0,0,0,0,0,0,0,0,0,0,1,0,0,1,1,0,0,0,0,0,0,0,3,0,0
219,594.0,1942.0,48 LENINA AV.             NOVOROSSIYSK,"проспект Ленина, 48, Новороссийск, Краснодарский край, Россия, 353913",44.692073,37.789187,0.0091673815072927,Новороссийск,городской округ Новороссийск,,Краснодарский край,0,0,0,0,0,0,0,0,0,0,0,0,0,0,0,0,2,0,1,0,0,0,0,0,0,0,0,0,0,0,0,0,0,0,0,0,0,0,0,0,0,0,0,0,0,0,0,0,0,0,1,0,0,0,0,0,0,0,0,0,1620
220,603.0,1942.0,91/2 MIRA AVE.            MOSCOW      ,"проспект Мира, 91к2, Москва, Россия, 129085",55.806115,37.635431,0.0257215148356423,Москва,,,Москва,0,0,0,0,0,0,0,0,0,0,0,0,0,0,0,0,1,0,0,0,2,0,0,0,0,0,1,0,0,0,0,0,0,0,0,0,0,0,0,0,0,0,0,0,0,0,0,0,0,1,0,0,0,0,0,0,0,0,0,3,3960
221,604.0,1942.0,91/2 MIRA AVE.            MOSCOW      ,"проспект Мира, 91к2, Москва, Россия, 129085",55.806115,37.635431,0.0441659687398768,Москва,,,Москва,0,0,0,0,0,0,0,0,0,0,0,0,0,0,0,0,1,0,0,0,2,0,0,0,0,0,1,0,0,0,0,0,0,0,0,0,0,0,0,0,0,0,0,0,0,0,0,0,0,1,0,0,0,0,0,0,0,0,0,3,3960
222,605.0,1942.0,91/2 MIRA AVE.            MOSCOW      ,"проспект Мира, 91к2, Москва, Россия, 129085",55.806115,37.635431,0.0651079869197264,Москва,,,Москва,0,0,0,0,0,0,0,0,0,0,0,0,0,0,0,0,1,0,0,0,2,0,0,0,0,0,1,0,0,0,0,0,0,0,0,0,0,0,0,0,0,0,0,0,0,0,0,0,0,1,0,0,0,0,0,0,0,0,0,3,3960
223,606.0,1942.0,91/2 MIRA AVE.            MOSCOW      ,"проспект Мира, 91к2, Москва, Россия, 129085",55.806115,37.635431,0.0444490640422388,Москва,,,Москва,0,0,0,0,0,0,0,0,0,0,0,0,0,0,0,0,1,0,0,0,2,0,0,0,0,0,1,0,0,0,0,0,0,0,0,0,0,0,0,0,0,0,0,0,0,0,0,0,0,1,0,0,0,0,0,0,0,0,0,3,3960
224,651.0,1942.0,24/1 KOMSOMOLSKIY AVE     MOSCOW      ,"Комсомольская площадь, 32/40, Москва, Россия, 107140",55.78278,37.650253,0.063011866955722,Москва,,,Москва,1,0,0,0,0,0,0,0,0,0,0,0,0,0,0,0,0,0,0,0,0,0,0,0,0,0,0,0,0,0,0,0,0,0,0,0,0,0,0,0,0,0,0,0,0,0,0,0,0,2,0,0,0,0,0,0,0,0,1,0,150
225,652.0,1942.0,24/1 KOMSOMOLSKIY AVE     MOSCOW      ,"Комсомольская площадь, 32/40, Москва, Россия, 107140",55.78278,37.650253,0.0836931539133298,Москва,,,Москва,1,0,0,0,0,0,0,0,0,0,0,0,0,0,0,0,0,0,0,0,0,0,0,0,0,0,0,0,0,0,0,0,0,0,0,0,0,0,0,0,0,0,0,0,0,0,0,0,0,2,0,0,0,0,0,0,0,0,1,0,150
226,653.0,1942.0,24/1 KOMSOMOLSKIY AVE     MOSCOW      ,"Комсомольская площадь, 32/40, Москва, Россия, 107140",55.78278,37.650253,0.0525198810896589,Москва,,,Москва,1,0,0,0,0,0,0,0,0,0,0,0,0,0,0,0,0,0,0,0,0,0,0,0,0,0,0,0,0,0,0,0,0,0,0,0,0,0,0,0,0,0,0,0,0,0,0,0,0,2,0,0,0,0,0,0,0,0,1,0,150
227,677.0,1942.0,33-1 PR. KOSMONAVTOV      KOROLEV     ,"проспект Космонавтов, 33к1, Королёв, Московская область, Россия, 141077",55.910644,37.867708,0.0768217094265356,Королёв,городской округ Королёв,,Московская область,0,0,0,2,0,0,0,0,0,0,0,0,0,0,0,0,5,0,0,0,1,0,0,0,0,0,1,0,0,0,0,0,0,0,0,0,0,0,0,0,0,0,0,0,0,0,1,0,0,0,5,0,0,0,0,0,0,0,2,0,8010
228,678.0,1942.0,33-1 PR. KOSMONAVTOV      KOROLEV     ,"проспект Космонавтов, 33к1, Королёв, Московская область, Россия, 141077",55.910644,37.867708,0.0871159510050686,Королёв,городской округ Королёв,,Московская область,0,0,0,2,0,0,0,0,0,0,0,0,0,0,0,0,5,0,0,0,1,0,0,0,0,0,1,0,0,0,0,0,0,0,0,0,0,0,0,0,0,0,0,0,0,0,1,0,0,0,5,0,0,0,0,0,0,0,2,0,8010
229,679.0,1942.0,33-1 PR. KOSMONAVTOV      KOROLEV     ,"проспект Космонавтов, 33к1, Королёв, Московская область, Россия, 141077",55.910644,37.867708,0.0552436947594407,Королёв,городской округ Королёв,,Московская область,0,0,0,2,0,0,0,0,0,0,0,0,0,0,0,0,5,0,0,0,1,0,0,0,0,0,1,0,0,0,0,0,0,0,0,0,0,0,0,0,0,0,0,0,0,0,1,0,0,0,5,0,0,0,0,0,0,0,2,0,8010
230,700.0,1942.0,2 BOLSHAYA TULSKAYA ST.   MOSCOW      ,"Большая Тульская улица, 2, Москва, Россия, 115191",55.709028,37.620761,0.0364847764748826,Москва,,,Москва,5,11,0,0,3,0,1,0,0,1,0,0,0,0,0,0,1,0,5,0,4,0,0,0,0,0,1,0,0,0,0,0,0,0,0,0,0,0,3,1,0,0,0,0,0,0,0,0,0,0,2,0,0,0,0,0,0,0,1,0,2400
231,705.0,1942.0,45 YANA RAYNISA ST.       MOSCOW      ,"г Москва, б-р Яна Райниса, д 45",55.8491593,37.4073859,0.0977262747361658,Москва,,,Москва,0,0,0,0,0,0,1,0,0,1,0,0,0,0,0,0,2,0,0,1,0,0,0,0,1,1,0,0,0,0,0,0,0,0,0,0,0,0,0,0,0,0,0,0,0,0,0,0,0,0,0,0,0,0,0,0,0,0,0,0,3060
232,706.0,1942.0,45 YANA RAYNISA ST.       MOSCOW      ,"г Москва, б-р Яна Райниса, д 45",55.8491593,37.4073859,0.0673419998357932,Москва,,,Москва,0,0,0,0,0,0,1,0,0,1,0,0,0,0,0,0,2,0,0,1,0,0,0,0,1,1,0,0,0,0,0,0,0,0,0,0,0,0,0,0,0,0,0,0,0,0,0,0,0,0,0,0,0,0,0,0,0,0,0,0,3060
233,707.0,1942.0,45 YANA RAYNISA ST.       MOSCOW      ,"г Москва, б-р Яна Райниса, д 45",55.8491593,37.4073859,0.1622313862404432,Москва,,,Москва,0,0,0,0,0,0,1,0,0,1,0,0,0,0,0,0,2,0,0,1,0,0,0,0,1,1,0,0,0,0,0,0,0,0,0,0,0,0,0,0,0,0,0,0,0,0,0,0,0,0,0,0,0,0,0,0,0,0,0,0,3060
234,708.0,1942.0,45 YANA RAYNISA ST.       MOSCOW      ,"г Москва, б-р Яна Райниса, д 45",55.8491593,37.4073859,0.1281522422059661,Москва,,,Москва,0,0,0,0,0,0,1,0,0,1,0,0,0,0,0,0,2,0,0,1,0,0,0,0,1,1,0,0,0,0,0,0,0,0,0,0,0,0,0,0,0,0,0,0,0,0,0,0,0,0,0,0,0,0,0,0,0,0,0,0,3060
235,719.0,1942.0,15 PROFSOYUZNAYA ST.      MOSCOW      ,"Профсоюзная улица, 15, Москва, Россия, 117218",55.679138,37.565317,0.073731941867214,Москва,,,Москва,4,5,0,0,1,0,1,0,0,0,0,0,0,0,0,0,2,0,0,0,1,0,0,0,0,0,5,0,0,0,0,0,0,0,0,0,0,0,1,2,0,0,0,0,0,0,0,0,1,1,1,0,0,0,0,0,0,0,3,0,3300
236,720.0,1942.0,15 PROFSOYUZNAYA ST.      MOSCOW      ,"Профсоюзная улица, 15, Москва, Россия, 117218",55.679138,37.565317,0.0865135822415546,Москва,,,Москва,4,5,0,0,1,0,1,0,0,0,0,0,0,0,0,0,2,0,0,0,1,0,0,0,0,0,5,0,0,0,0,0,0,0,0,0,0,0,1,2,0,0,0,0,0,0,0,0,1,1,1,0,0,0,0,0,0,0,3,0,3300
237,725.0,1942.0,15 PROFSOYUZNAYA ST.      MOSCOW      ,"Профсоюзная улица, 15, Москва, Россия, 117218",55.679138,37.565317,0.0724066088246055,Москва,,,Москва,4,5,0,0,1,0,1,0,0,0,0,0,0,0,0,0,2,0,0,0,1,0,0,0,0,0,5,0,0,0,0,0,0,0,0,0,0,0,1,2,0,0,0,0,0,0,0,0,1,1,1,0,0,0,0,0,0,0,3,0,3300
238,728.0,1942.0,15 PROFSOYUZNAYA ST.      MOSCOW      ,"Профсоюзная улица, 15, Москва, Россия, 117218",55.679138,37.565317,0.0732586747973653,Москва,,,Москва,4,5,0,0,1,0,1,0,0,0,0,0,0,0,0,0,2,0,0,0,1,0,0,0,0,0,5,0,0,0,0,0,0,0,0,0,0,0,1,2,0,0,0,0,0,0,0,0,1,1,1,0,0,0,0,0,0,0,3,0,3300
239,780.0,1942.0,119 VERNADSKOGO AV.       MOSCOW      ,"проспект Вернадского, 119, Москва, Россия, 119571",55.657621,37.482771,0.0365368192013201,Москва,,,Москва,0,0,0,0,2,0,1,0,0,0,0,0,0,0,0,0,0,0,0,0,1,0,0,0,1,0,0,0,0,0,0,0,0,0,0,0,0,0,0,0,0,0,0,0,0,0,0,0,0,0,1,0,0,0,0,0,0,0,0,0,2640
240,913.0,1942.0,104 PROFSOYUZNAYA ST.     MOSKVA      ,"Профсоюзная улица, 104, Москва, Россия, 117437",55.64192,37.523456,0.0447023385701421,Москва,,,Москва,1,1,1,3,2,0,1,0,0,0,0,0,0,0,0,0,4,0,0,0,5,0,0,0,3,0,3,0,0,0,0,0,0,0,0,0,0,0,1,0,0,0,0,0,0,0,0,1,0,0,3,0,0,0,0,0,0,0,0,0,2490
241,915.0,1942.0,104 PROFSOYUZNAYA ST.     MOSKVA      ,"Профсоюзная улица, 104, Москва, Россия, 117437",55.64192,37.523456,0.0511852261167454,Москва,,,Москва,1,1,1,3,2,0,1,0,0,0,0,0,0,0,0,0,4,0,0,0,5,0,0,0,3,0,3,0,0,0,0,0,0,0,0,0,0,0,1,0,0,0,0,0,0,0,0,1,0,0,3,0,0,0,0,0,0,0,0,0,2490
242,924.0,1942.0,1 NOVINKI ST.             MOSKVA      ,"улица Новинки, 1, Москва, Россия, 115470",55.677671,37.666225,-0.00039282411268,Москва,,,Москва,4,2,0,0,0,0,0,0,0,0,0,0,1,0,0,0,3,0,2,1,1,1,0,0,0,0,3,0,0,0,0,0,0,0,0,0,0,0,0,0,0,0,0,0,0,0,0,0,1,0,4,0,0,0,0,1,0,3,5,0,4290
243,926.0,1942.0,1 NOVINKI ST.             MOSKVA      ,"улица Новинки, 1, Москва, Россия, 115470",55.677671,37.666225,0.0274797709904445,Москва,,,Москва,4,2,0,0,0,0,0,0,0,0,0,0,1,0,0,0,3,0,2,1,1,1,0,0,0,0,3,0,0,0,0,0,0,0,0,0,0,0,0,0,0,0,0,0,0,0,0,0,1,0,4,0,0,0,0,1,0,3,5,0,4290
244,929.0,1942.0,1 NOVINKI ST.             MOSKVA      ,"улица Новинки, 1, Москва, Россия, 115470",55.677671,37.666225,0.0809601404371636,Москва,,,Москва,4,2,0,0,0,0,0,0,0,0,0,0,1,0,0,0,3,0,2,1,1,1,0,0,0,0,3,0,0,0,0,0,0,0,0,0,0,0,0,0,0,0,0,0,0,0,0,0,1,0,4,0,0,0,0,1,0,3,5,0,4290
245,930.0,1942.0,1 NOVINKI ST.             MOSKVA      ,"улица Новинки, 1, Москва, Россия, 115470",55.677671,37.666225,0.0629492558477282,Москва,,,Москва,4,2,0,0,0,0,0,0,0,0,0,0,1,0,0,0,3,0,2,1,1,1,0,0,0,0,3,0,0,0,0,0,0,0,0,0,0,0,0,0,0,0,0,0,0,0,0,0,1,0,4,0,0,0,0,1,0,3,5,0,4290
246,948.0,1942.0,56/2 PERERVA STR.         MOSCOW      ,"улица Перерва, 56/2, Москва, Россия, 109341",55.657845,37.747729,0.0068657723658529,Москва,,,Москва,0,1,0,0,1,0,0,1,0,0,0,0,0,0,0,0,0,0,1,1,4,1,0,0,0,0,0,0,0,0,0,0,0,0,0,0,0,0,1,0,0,0,0,0,0,0,0,0,0,0,3,0,0,0,0,0,0,0,1,0,4680
247,949.0,1942.0,56/2 PERERVA STR.         MOSCOW      ,"улица Перерва, 56/2, Москва, Россия, 109341",55.657845,37.747729,-0.030289797470722,Москва,,,Москва,0,1,0,0,1,0,0,1,0,0,0,0,0,0,0,0,0,0,1,1,4,1,0,0,0,0,0,0,0,0,0,0,0,0,0,0,0,0,1,0,0,0,0,0,0,0,0,0,0,0,3,0,0,0,0,0,0,0,1,0,4680
248,977.0,1942.0,4-1 22-KM/ KIEVSKOE H/W.  MOSCOW      ,"срезка на 5 км, территория Спортивный клуб Ромашково, Москва, Россия",55.749988,37.363538,0.060583296015891,Москва,,,Москва,0,0,0,0,0,0,0,0,0,0,0,0,0,0,0,0,0,0,0,0,0,0,0,0,0,0,0,0,0,0,0,0,0,0,0,0,0,0,0,0,0,0,0,0,0,0,0,0,0,0,0,0,0,0,0,0,0,0,0,0,0
249,1075.0,1942.0,18 AVTOZAVODSKAYA STR.    MOSCOW      ,"Автозаводская улица, 18, Москва, Россия, 115280",55.705452,37.637749,0.0650382731805653,Москва,,,Москва,13,1,0,0,3,0,0,0,0,0,0,0,1,0,0,0,0,1,0,0,0,0,0,0,0,0,0,0,0,0,0,0,0,0,0,0,0,0,0,0,0,0,0,0,0,0,0,1,0,0,1,0,0,0,0,1,0,0,0,0,0
250,1162.0,1942.0,56/2 PERERVA STR.         MOSCOW      ,"улица Перерва, 56/2, Москва, Россия, 109341",55.657845,37.747729,-0.0254189758346237,Москва,,,Москва,0,1,0,0,1,0,0,1,0,0,0,0,0,0,0,0,0,0,1,1,4,1,0,0,0,0,0,0,0,0,0,0,0,0,0,0,0,0,1,0,0,0,0,0,0,0,0,0,0,0,3,0,0,0,0,0,0,0,1,0,4680
251,1443.0,1942.0,8 NOVATOROV BLVD.         S.-PETERBURG,"бульвар Новаторов, 8, Санкт-Петербург, Россия, 198216",59.850595,30.26938,-0.0049598328263284,Санкт-Петербург,,,Санкт-Петербург,6,4,1,0,2,0,0,0,0,0,0,0,1,0,0,0,8,0,8,0,5,0,0,0,0,0,4,0,0,0,0,0,0,0,0,0,0,0,0,0,0,0,0,0,0,0,0,0,0,0,1,0,0,0,0,0,1,0,2,0,4050
252,1472.0,1942.0,6 POLYARNIKOV STR.        S.-PETERBURG,"улица Полярников, 6, Санкт-Петербург, Россия, 192171",59.876549,30.43785,-0.0536300965160647,Санкт-Петербург,,,Санкт-Петербург,0,0,0,0,0,0,0,0,0,0,0,0,0,0,0,0,1,0,0,0,1,0,0,0,0,0,0,0,0,1,0,0,0,0,0,0,0,0,0,0,0,0,0,0,0,0,0,0,0,0,0,0,0,0,0,0,0,0,0,0,4980
253,1677.0,1942.0,8 NOVATOROV BLVD.         S.-PETERBURG,"бульвар Новаторов, 8, Санкт-Петербург, Россия, 198216",59.850595,30.26938,0.0065933742735238,Санкт-Петербург,,,Санкт-Петербург,6,4,1,0,2,0,0,0,0,0,0,0,1,0,0,0,8,0,8,0,5,0,0,0,0,0,4,0,0,0,0,0,0,0,0,0,0,0,0,0,0,0,0,0,0,0,0,0,0,0,1,0,0,0,0,0,1,0,2,0,4050
254,1680.0,1942.0,8 NOVATOROV STR.          S.-PETERBURG,"г Санкт-Петербург, б-р Новаторов, д 8",59.8505553,30.2693604,-0.0104331251171048,Санкт-Петербург,,,Санкт-Петербург,5,4,1,0,2,0,0,0,0,0,0,0,1,0,0,0,8,0,8,0,5,0,0,0,0,0,4,0,0,0,0,0,0,0,0,0,0,0,0,0,0,0,0,0,0,0,0,0,0,0,1,0,0,0,0,0,1,0,2,0,4050
255,1681.0,1942.0,85 40-LET POBEDY AVE      ROSTOV-NA-DO,"проспект 40-летия Победы, 85, Ростов-на-Дону, Россия, 344111",47.239101,39.827284,-0.012380200705961,Ростов-на-Дону,городской округ Ростов-на-Дону,,Ростовская область,0,0,0,0,0,0,1,0,0,0,0,0,0,0,0,0,1,0,0,0,0,0,0,0,0,0,0,1,0,0,0,0,0,0,0,0,0,0,0,0,0,0,0,0,0,0,0,0,0,0,0,0,0,0,0,0,0,0,0,0,3972
256,1704.0,1942.0,23A PERMYAKOVA STR.       TYUMEN      ,"улица Пермякова, 23, Тюмень, Россия, 625051",57.118227,65.579827,-0.0600158764671284,Тюмень,городской округ Тюмень,,Тюменская область,1,0,0,0,0,0,1,0,0,0,0,0,0,0,0,0,3,0,0,0,1,0,0,0,0,0,0,0,0,0,0,0,0,0,0,0,0,0,0,0,0,0,0,0,0,0,0,0,0,0,1,0,0,0,0,0,0,0,0,0,2730
257,1705.0,1942.0,23A PERMYAKOVA STR.       TYUMEN      ,"улица Пермякова, 23, Тюмень, Россия, 625051",57.118227,65.579827,-0.0306321650824824,Тюмень,городской округ Тюмень,,Тюменская область,1,0,0,0,0,0,1,0,0,0,0,0,0,0,0,0,3,0,0,0,1,0,0,0,0,0,0,0,0,0,0,0,0,0,0,0,0,0,0,0,0,0,0,0,0,0,0,0,0,0,1,0,0,0,0,0,0,0,0,0,2730
258,1709.0,1942.0,49 GAGARINA               SAMARA      ,"улица Гагарина, 49, Самара, Россия, 443079",53.199924,50.177017,0.0571243591442085,Самара,городской округ Самара,,Самарская область,0,0,0,0,0,1,0,0,0,0,0,0,0,0,0,0,0,0,0,0,0,0,0,0,0,0,3,0,0,0,0,0,0,0,0,0,0,0,0,0,0,0,0,0,0,0,1,0,0,0,0,0,0,0,0,0,1,0,2,3,4140
259,1710.0,1942.0,49 GAGARINA               SAMARA      ,"улица Гагарина, 49, Самара, Россия, 443079",53.199924,50.177017,0.0773378526293396,Самара,городской округ Самара,,Самарская область,0,0,0,0,0,1,0,0,0,0,0,0,0,0,0,0,0,0,0,0,0,0,0,0,0,0,3,0,0,0,0,0,0,0,0,0,0,0,0,0,0,0,0,0,0,0,1,0,0,0,0,0,0,0,0,0,1,0,2,3,4140
260,1712.0,1942.0,199 G.IM.KRASNOYARSKIY RA KRASNOYARSK ,"г Красноярск, пр-кт им.газеты ""Красноярский рабочий"", д 199",55.9907694,92.8878625,0.0484999187744981,,городской округ Красноярск,,Красноярский край,0,0,0,0,0,0,1,0,0,0,0,0,0,0,0,0,5,0,0,0,1,0,0,0,0,0,0,0,0,0,0,0,0,0,0,0,0,0,0,0,0,0,0,0,0,0,3,0,0,0,1,0,0,0,0,0,0,7,1,0,4080
261,1734.0,1942.0,32 SOVETSKIY AV.          KEMEROVO    ,"Советский проспект, 32, Кемерово, Россия, 650991",55.3581,86.075412,0.0049131831312015,Кемерово,Кемеровский городской округ,,Кемеровская область,4,5,0,0,0,0,0,0,0,0,0,0,0,0,0,0,0,0,0,0,2,0,0,0,0,0,2,0,0,0,0,0,0,0,0,0,0,0,0,0,0,0,0,0,0,0,0,0,0,1,0,0,0,0,0,0,0,0,0,0,1140
262,1735.0,1942.0,32 SOVETSKIY AV.          KEMEROVO    ,"Советский проспект, 32, Кемерово, Россия, 650991",55.3581,86.075412,0.0201732177708133,Кемерово,Кемеровский городской округ,,Кемеровская область,4,5,0,0,0,0,0,0,0,0,0,0,0,0,0,0,0,0,0,0,2,0,0,0,0,0,2,0,0,0,0,0,0,0,0,0,0,0,0,0,0,0,0,0,0,0,0,0,0,1,0,0,0,0,0,0,0,0,0,0,1140
263,1736.0,1942.0,32 SOVETSKIY AV.          KEMEROVO    ,"Советский проспект, 32, Кемерово, Россия, 650991",55.3581,86.075412,0.0118276455768432,Кемерово,Кемеровский городской округ,,Кемеровская область,4,5,0,0,0,0,0,0,0,0,0,0,0,0,0,0,0,0,0,0,2,0,0,0,0,0,2,0,0,0,0,0,0,0,0,0,0,0,0,0,0,0,0,0,0,0,0,0,0,1,0,0,0,0,0,0,0,0,0,0,1140
264,1745.0,1942.0,56 MIRA AVE               OMSK        ,"проспект Мира, 56, Омск, Россия, 644029",55.029719,73.278946,0.0485881630739964,Омск,городской округ Омск,,Омская область,2,1,1,0,0,0,0,1,0,0,0,0,2,0,0,0,2,0,2,1,2,0,0,0,0,0,1,0,0,1,0,0,0,0,0,0,0,0,0,0,0,0,0,0,0,0,0,0,3,0,4,0,0,0,0,0,0,0,2,0,1980
265,1746.0,1942.0,90/1 LENINA AV.           KEMEROVO    ,"проспект Ленина, 90/1, Кемерово, Россия, 650066",55.345585,86.127748,0.0694539576804239,Кемерово,Кемеровский городской округ,,Кемеровская область,0,0,0,0,0,0,0,0,0,0,0,0,0,0,0,0,3,0,0,0,1,0,0,0,0,0,0,0,0,0,0,0,0,0,0,0,0,0,0,4,0,0,0,0,0,0,0,0,0,0,0,0,0,0,0,0,0,0,1,0,240
266,1762.0,1942.0,55 KIROVA                 NOVOKUZNETSK,"улица Кирова, 55, Новокузнецк, Кемеровская область, Россия, 654080",53.758889,87.138164,-0.013694054180142,Новокузнецк,Новокузнецкий городской округ,,Кемеровская область,1,1,0,0,1,0,0,0,0,0,0,0,0,0,0,0,2,0,0,0,0,0,0,0,0,0,0,0,0,0,0,0,0,0,0,0,0,0,0,0,0,0,0,0,0,0,0,0,0,0,0,0,0,0,0,0,0,0,0,0,0
267,1771.0,1942.0,124B KRASNAYA STR         KRASNODAR   ,"Красная улица, 124, микрорайон Центральный, Краснодар, Россия",45.036076,38.975807,0.0490578398032809,Краснодар,городской округ Краснодар,,Краснодарский край,1,3,0,0,0,0,0,0,0,0,0,0,1,0,0,0,6,0,2,0,3,0,0,0,1,0,0,0,0,0,0,0,0,0,0,1,0,0,1,0,0,0,0,0,0,0,0,0,0,1,0,0,0,0,0,0,0,0,0,3,276
268,1774.0,1942.0,124B KRASNAYA STR         KRASNODAR   ,"Красная улица, 124, микрорайон Центральный, Краснодар, Россия",45.036076,38.975807,0.0355088675948972,Краснодар,городской округ Краснодар,,Краснодарский край,1,3,0,0,0,0,0,0,0,0,0,0,1,0,0,0,6,0,2,0,3,0,0,0,1,0,0,0,0,0,0,0,0,0,0,1,0,0,1,0,0,0,0,0,0,0,0,0,0,1,0,0,0,0,0,0,0,0,0,3,276
269,1791.0,1942.0,32A GAKKELEVSKAYA STR.    SANTK-PETERB,"Гаккелевская улица, 32, Санкт-Петербург, Россия, 197372",60.006395,30.256984,0.0113715611982697,Санкт-Петербург,,,Санкт-Петербург,1,0,0,0,0,0,0,0,0,0,0,0,0,0,0,0,2,0,0,0,1,0,0,0,0,0,0,0,0,0,0,0,0,0,0,0,0,0,0,0,0,0,0,0,0,0,0,0,0,0,0,0,0,0,0,0,0,2,3,0,4890
270,1824.0,1942.0,46 B.SADOVAYA STR.        ROSTOV-ON-DO,"Большая Садовая улица, 46/30, Ростов-на-Дону, Россия, 344002",47.219967,39.708302,-0.0578280779803838,Ростов-на-Дону,городской округ Ростов-на-Дону,,Ростовская область,2,2,0,0,0,0,0,0,0,0,0,0,0,0,0,0,0,0,3,1,2,0,0,0,0,0,0,0,0,0,0,0,0,0,0,0,0,1,0,0,0,0,0,0,0,0,0,0,0,0,0,0,0,0,0,0,0,2,3,0,0
271,1843.0,1942.0,66 SOVETSKAYA             LIPETSK     ,"Советская улица, 66, Липецк, Россия, 398001",52.605818,39.57793,-0.0481945524278373,Липецк,,,Липецкая область,0,3,0,0,2,0,0,0,0,0,0,0,0,0,0,0,2,0,1,0,0,0,0,0,0,0,0,0,0,0,0,0,0,0,0,0,0,0,0,0,0,0,0,0,0,0,0,0,0,0,0,0,0,0,0,0,0,0,0,0,3270
272,1862.0,1942.0,12 7-MIKRORAYON           RADUZHNIY   ,"микрорайон Радужный, 7, посёлок Рыбхоз, Богородский городской округ, Московская область, Россия",55.788834,38.133412,-0.0494611022595088,,Богородский городской округ,,Московская область,0,0,0,0,0,0,0,0,0,0,0,0,0,0,0,0,0,0,0,0,0,0,0,0,0,0,0,0,0,0,0,0,0,0,0,0,0,0,0,0,0,0,0,0,0,0,0,1,0,0,0,0,0,0,0,0,0,0,0,0,48
273,1866.0,1942.0,49A YAROSLAVSKIY AV.      YAROSLAVL   ,"Ярославская улица, 53, Ярославль, Россия, 150006",57.572693,39.920053,-0.0338968397227375,Ярославль,городской округ Ярославль,,Ярославская область,0,0,0,0,0,0,0,0,0,0,0,0,0,0,0,0,0,0,0,0,0,0,0,0,0,0,0,0,0,0,0,0,0,0,0,0,0,0,0,0,0,0,0,0,0,0,0,0,0,0,0,0,0,0,0,0,0,0,2,0,1611
274,1873.0,1942.0,53 40-LET KOMSOMOLA       NOVOSIBIRSK ,"улица 40 лет Комсомола, 53, Новосибирск, Россия, 630098",54.864544,82.981308,0.0062371132239185,городской округ Новосибирск,,,Новосибирская область,0,0,0,0,0,0,1,0,0,0,0,0,0,0,0,0,0,0,0,0,0,0,0,0,0,0,2,0,0,0,0,0,0,0,0,0,0,0,0,0,0,0,0,0,0,0,0,0,0,0,0,0,0,0,0,0,0,0,0,0,2520
275,1889.0,1942.0,66 LENINA STR.            DZERZHINSK  ,"проспект Ленина, 66, Дзержинск, Нижегородская область, Россия, 606010",56.236986,43.46282,-0.0406735829971693,Дзержинск,городской округ Дзержинск,,Нижегородская область,2,2,0,0,0,0,0,0,0,0,0,0,0,0,0,0,3,0,2,0,0,0,0,0,0,0,0,0,0,0,0,0,0,0,0,0,0,0,0,0,0,0,0,0,1,0,0,0,0,0,1,0,0,0,0,0,0,0,1,0,690
276,722.0,1942.0,171 LYUBLINSKAYA ST       MOSCOW      ,"Люблинская улица, 171, Москва, Россия, 109652",55.646914,37.746912,0.012160971473561,Москва,,,Москва,1,0,0,1,0,0,0,0,0,1,0,0,0,0,0,0,4,0,0,0,3,0,0,0,0,0,3,0,0,0,0,0,0,0,0,0,0,0,0,0,0,0,0,0,0,0,0,0,1,0,0,0,0,0,0,0,0,0,1,0,3570
277,723.0,1942.0,171 LYUBLINSKAYA ST       MOSCOW      ,"Люблинская улица, 171, Москва, Россия, 109652",55.646914,37.746912,0.0176630586925934,Москва,,,Москва,1,0,0,1,0,0,0,0,0,1,0,0,0,0,0,0,4,0,0,0,3,0,0,0,0,0,3,0,0,0,0,0,0,0,0,0,0,0,0,0,0,0,0,0,0,0,0,0,1,0,0,0,0,0,0,0,0,0,1,0,3570
278,724.0,1942.0,171 LYUBLINSKAYA ST       MOSCOW      ,"Люблинская улица, 171, Москва, Россия, 109652",55.646914,37.746912,0.0163384548849196,Москва,,,Москва,1,0,0,1,0,0,0,0,0,1,0,0,0,0,0,0,4,0,0,0,3,0,0,0,0,0,3,0,0,0,0,0,0,0,0,0,0,0,0,0,0,0,0,0,0,0,0,0,1,0,0,0,0,0,0,0,0,0,1,0,3570
279,726.0,1942.0,171 LYUBLINSKAYA ST       MOSCOW      ,"Люблинская улица, 171, Москва, Россия, 109652",55.646914,37.746912,0.0185873240090233,Москва,,,Москва,1,0,0,1,0,0,0,0,0,1,0,0,0,0,0,0,4,0,0,0,3,0,0,0,0,0,3,0,0,0,0,0,0,0,0,0,0,0,0,0,0,0,0,0,0,0,0,0,1,0,0,0,0,0,0,0,0,0,1,0,3570
280,740.0,1942.0,79 KOMSOMOLSKIY AV.       TOMSK       ,"Комсомольский проспект, 79, Томск, Россия, 634041",56.467484,84.980455,-0.0201616919904986,Томск,городской округ Томск,Томск I,Томская область,1,0,0,0,0,0,0,1,0,1,0,2,0,0,0,0,4,0,1,0,0,0,0,0,0,0,0,0,0,0,0,0,0,0,0,0,0,0,0,0,0,0,0,0,0,0,0,1,0,4,1,0,0,0,0,0,0,2,2,9,1440
281,751.0,1942.0,158A TIKHOOKEANSKAYA      KHABAROVSK  ,"Тихоокеанская улица, 158А, Хабаровск, Россия",48.535599,135.051247,-0.0370777811635905,Хабаровск,городской округ Хабаровск,,Хабаровский край,1,0,0,0,0,0,0,0,0,0,0,1,0,0,0,0,2,0,0,0,0,0,0,0,0,0,0,0,0,0,0,0,0,0,0,0,0,0,0,0,0,0,0,0,0,0,0,0,0,0,0,0,0,0,0,0,0,0,0,0,2193
282,752.0,1942.0,36 GORKOGO STR.           SARATOV     ,"улица имени А.М. Горького, 36, Саратов, Россия",51.532167,46.03087,0.0332667973084336,Саратов,городской округ Саратов,,Саратовская область,1,2,0,1,1,0,0,1,0,0,0,1,0,0,0,0,3,0,2,0,1,0,0,0,0,0,0,0,0,1,0,0,0,0,0,1,0,0,0,0,0,0,0,0,0,0,1,0,0,0,0,0,0,0,0,0,0,0,0,6,1410
283,753.0,1942.0,36 GORKOGO STR.           SARATOV     ,"улица имени А.М. Горького, 36, Саратов, Россия",51.532167,46.03087,-0.0027794785668605,Саратов,городской округ Саратов,,Саратовская область,1,2,0,1,1,0,0,1,0,0,0,1,0,0,0,0,3,0,2,0,1,0,0,0,0,0,0,0,0,1,0,0,0,0,0,1,0,0,0,0,0,0,0,0,0,0,1,0,0,0,0,0,0,0,0,0,0,0,0,6,1410
284,771.0,1942.0,101 POBEDY STR.           SAMARA      ,"улица Победы, 101, Самара, Россия, 443009",53.216254,50.25694,0.0120929645207706,Самара,городской округ Самара,,Самарская область,0,0,0,0,0,0,0,0,0,1,0,0,0,0,0,0,0,0,0,0,1,0,0,0,0,0,0,0,0,0,0,0,0,0,0,0,0,0,1,0,0,0,0,0,0,0,2,0,0,0,0,0,0,0,2,0,0,0,2,0,2190
285,800.0,1942.0,42 LENINA                 BERDSK      ,"улица Ленина, 42, Бердск, Новосибирская область, Россия, 633010",54.761233,83.100605,-0.0332426736168678,Бердск,,,Новосибирская область,0,0,0,0,0,0,2,0,0,0,0,0,0,0,0,0,4,0,0,0,3,0,0,0,0,0,1,0,0,0,0,0,0,0,0,0,0,0,0,0,0,0,0,0,0,0,0,0,0,0,0,0,0,0,0,0,0,0,1,0,1590
286,812.0,1942.0,15 KVARTAL 212            ANGARSK     ,"258-й квартал, 212, Ангарск, Иркутская область, Россия",52.510652,103.886614,0.0050691708847395,Ангарск,Ангарский городской округ,,Иркутская область,0,0,0,0,0,0,0,0,0,0,0,0,0,0,0,0,0,0,0,0,0,0,0,0,0,0,0,0,0,0,0,0,0,0,0,0,0,0,0,0,0,0,0,0,0,20,0,0,0,0,0,0,0,0,0,0,0,0,0,0,0
287,825.0,1942.0,5-30 28-KVARTAL           ACHINSK     ,"28-й квартал, 5/4, Ачинск, Красноярский край, Россия",56.253202,90.474174,-0.0700862110141553,Ачинск,городской округ Ачинск,,Красноярский край,0,0,0,0,0,0,0,0,0,0,0,0,0,0,0,0,0,0,0,0,1,0,0,0,0,0,0,0,0,0,0,0,0,0,0,0,0,0,0,0,0,0,0,0,0,0,1,0,0,0,0,0,0,0,0,0,0,2,0,0,1908
288,826.0,1942.0,5-30 28-KVARTAL           ACHINSK     ,"28-й квартал, 5/4, Ачинск, Красноярский край, Россия",56.253202,90.474174,-0.0207088667849021,Ачинск,городской округ Ачинск,,Красноярский край,0,0,0,0,0,0,0,0,0,0,0,0,0,0,0,0,0,0,0,0,1,0,0,0,0,0,0,0,0,0,0,0,0,0,0,0,0,0,0,0,0,0,0,0,0,0,1,0,0,0,0,0,0,0,0,0,0,2,0,0,1908
289,840.0,1942.0,4 PL.POBEDY               KALININGRAD ,"площадь Победы, 4, Калининград, Россия",54.72086,20.499734,-0.0404138925927923,Калининград,городской округ Калининград,,Калининградская область,4,1,0,0,0,0,0,0,0,0,0,2,0,0,0,0,6,0,2,0,3,0,0,0,0,0,2,0,0,0,0,0,0,0,0,0,1,0,0,2,0,0,0,0,0,0,1,0,0,0,0,0,0,0,0,0,1,8,3,0,0
290,859.0,1942.0,20 KRASNIKH PARTIZAN      USOLIE-SIBIR,"проспект Красных Партизан, 20, Усолье-Сибирское, Иркутская область, Россия, 665460",52.733119,103.657948,0.0386950903413928,,городской округ Усолье-Сибирское,,Иркутская область,0,0,1,0,0,0,1,0,0,0,0,0,0,0,0,0,3,0,0,0,3,0,0,0,0,0,1,0,0,0,0,0,0,0,0,0,0,0,0,0,0,0,0,0,0,3,0,0,0,0,0,0,0,0,0,0,0,2,0,0,3270
291,879.0,1942.0,29 LENINA AV.             NIZHNIY NOVG,"проспект Ленина, 29, Нижний Новгород, Россия, 603140",56.289106,43.930052,0.0404756294903133,Нижний Новгород,городской округ Нижний Новгород,,Нижегородская область,0,0,0,0,0,0,0,0,0,0,0,1,0,0,0,0,1,0,0,0,3,0,0,0,0,0,1,0,0,0,0,0,0,0,0,0,0,0,0,0,0,0,0,0,0,0,0,0,0,0,0,0,0,0,0,0,0,0,1,0,0
292,880.0,1942.0,29 LENINA AV.             NIZHNIY NOVG,"проспект Ленина, 29, Нижний Новгород, Россия, 603140",56.289106,43.930052,0.010361316832015,Нижний Новгород,городской округ Нижний Новгород,,Нижегородская область,0,0,0,0,0,0,0,0,0,0,0,1,0,0,0,0,1,0,0,0,3,0,0,0,0,0,1,0,0,0,0,0,0,0,0,0,0,0,0,0,0,0,0,0,0,0,0,0,0,0,0,0,0,0,0,0,0,0,1,0,0
293,890.0,1942.0,13 IOSIFA KOROLINSKOGO    SURGUT      ,"улица Иосифа Каролинского, 13, Сургут, Ханты-Мансийский автономный округ, Россия, 628406",61.254571,73.447084,0.0158676467060327,городской округ Сургут,,,Ханты-Мансийский автономный округ — Югра,0,0,0,0,0,0,0,0,0,2,0,0,0,0,0,0,0,0,2,1,2,0,0,0,0,0,1,0,0,0,0,0,0,0,0,0,0,0,0,0,0,0,0,0,0,0,4,0,0,0,1,0,0,0,0,0,0,0,0,0,3060
294,892.0,1942.0,71-1 MOZHAYSKOGO STR      TVER        ,"улица Можайского, 71к1, Тверь, Россия, 170030",56.82038,35.902006,-0.012881614000425,городской округ Тверь,,,Тверская область,0,1,0,0,0,0,0,0,0,0,0,0,0,0,0,0,3,0,1,1,2,0,0,0,0,0,1,0,1,0,0,0,0,0,0,0,0,0,0,0,0,0,0,0,0,0,0,0,0,0,3,0,0,0,0,0,0,0,0,0,3900
295,895.0,1942.0,4 BERINGA STR.            MURMANSK    ,"улица Беринга, 4, Мурманск, Россия, 183014",68.915297,33.095507,-0.0274025063078027,Мурманск,городской округ Мурманск,,Мурманская область,2,1,1,0,1,0,0,0,0,0,0,0,0,0,0,0,1,0,4,0,1,0,0,0,0,0,2,0,0,0,0,0,0,0,0,0,0,0,1,0,0,0,0,0,0,0,0,0,0,0,1,0,0,0,0,0,0,0,3,0,4320
296,897.0,1942.0,79 KUIBYSHEVA STR.        OMSK        ,"улица Куйбышева, 79, Омск, Россия, 644001",54.976535,73.399213,0.0767644071587546,Омск,городской округ Омск,,Омская область,0,0,0,0,1,0,0,0,0,0,0,1,0,0,0,0,3,0,0,0,0,0,0,0,0,0,0,0,0,0,0,0,0,0,0,0,0,0,0,0,0,0,0,0,0,0,0,0,0,1,1,0,0,0,0,0,0,0,1,3,1386
297,898.0,1942.0,79 KUIBYSHEVA STR.        OMSK        ,"улица Куйбышева, 79, Омск, Россия, 644001",54.976535,73.399213,0.0633965495471133,Омск,городской округ Омск,,Омская область,0,0,0,0,1,0,0,0,0,0,0,1,0,0,0,0,3,0,0,0,0,0,0,0,0,0,0,0,0,0,0,0,0,0,0,0,0,0,0,0,0,0,0,0,0,0,0,0,0,1,1,0,0,0,0,0,0,0,1,3,1386
298,905.0,1942.0,51 BUDENNOVSKIY           ROSTOV-ON-DO,"Буденновский лес, Красногвардейский район, Белгородская область, Россия",50.694253,38.324502,0.0231429108187096,,Красногвардейский район,,Белгородская область,0,0,0,0,0,0,0,0,0,0,0,0,0,0,0,0,0,0,0,0,0,0,0,0,0,0,0,0,0,0,0,0,0,0,0,0,0,0,0,0,0,0,0,0,0,0,0,0,0,0,0,0,0,0,0,0,0,0,0,0,0
299,906.0,1942.0,51 BUDENNOVSKIY           ROSTOV-ON-DO,"Буденновский лес, Красногвардейский район, Белгородская область, Россия",50.694253,38.324502,0.0517735162320955,,Красногвардейский район,,Белгородская область,0,0,0,0,0,0,0,0,0,0,0,0,0,0,0,0,0,0,0,0,0,0,0,0,0,0,0,0,0,0,0,0,0,0,0,0,0,0,0,0,0,0,0,0,0,0,0,0,0,0,0,0,0,0,0,0,0,0,0,0,0
300,981.0,1942.0,13/16-1 B.POLYANKA        MOSCOW      ,"улица Малая Полянка, 13, Москва, Россия, 119180",55.733624,37.616827,-0.0161094966690046,Москва,,,Москва,0,1,0,0,0,0,3,0,0,1,0,0,0,0,0,0,2,0,0,0,0,0,0,0,0,0,0,0,0,0,0,0,0,0,0,0,0,0,0,0,0,0,0,0,1,0,0,0,0,8,0,0,0,0,0,0,0,0,0,0,5502
301,1032.0,1942.0,70 LET VLKSM 16/1         ORENBURG    ,"микрорайон 70-летия ВЛКСМ, 16/1, Оренбург, Россия",51.826733,55.142805,-0.0368305395081674,Оренбург,городской округ Оренбург,,Оренбургская область,0,0,0,0,0,0,0,0,0,0,0,0,0,0,0,0,0,0,1,0,0,0,0,0,0,0,0,0,0,0,0,0,0,0,0,0,0,0,0,0,0,0,0,0,0,0,0,0,0,0,0,0,0,0,0,0,0,0,1,0,5340
302,1038.0,1942.0,62 METALLURGOV STR.       TULA        ,"улица Металлургов, 62, Тула, Россия, 300027",54.191357,37.689653,-0.0392407835185487,Тула,городской округ Тула,,Тульская область,1,1,0,0,0,0,0,0,0,0,0,0,0,0,0,0,2,0,2,0,0,0,0,0,0,0,1,0,0,0,0,0,0,0,0,0,0,0,0,0,0,0,0,0,0,0,0,0,1,0,1,0,0,0,0,0,0,2,0,0,4560
303,1041.0,1942.0,65/4 LENINA STR.          UFA         ,"улица Ленина, 65/4, Уфа, Республика Башкортостан, Россия, 450006",54.738359,55.952843,-0.0546346784661184,Уфа,городской округ Уфа,,Башкортостан,2,0,0,0,1,1,0,0,0,0,0,0,1,0,0,0,0,0,1,0,1,0,0,0,0,0,0,0,0,0,0,0,0,0,0,0,0,0,0,0,0,0,0,0,0,0,2,0,0,0,1,0,0,0,0,0,0,0,1,0,450
304,1074.0,1942.0,4B I.YAKOVLEVA AVE        CHEBOKSARY  ,"проспект Ивана Яковлева, 4, Чебоксары, Чувашская Республика, Россия",56.103206,47.26432,0.0012739531214594,Чебоксары,городской округ Чебоксары,,Чувашия,0,1,0,0,0,0,0,0,0,0,0,0,0,0,0,0,1,0,0,0,0,0,0,0,0,0,0,0,0,0,0,0,0,0,0,0,0,0,0,0,0,0,0,0,0,0,0,0,0,0,1,0,0,0,0,0,0,0,0,0,0
