{"version": 0.6, "generator": "Overpass API 0.7.62.1 084b4234", "osm3s": {"timestamp_osm_base": "2024-05-04T00:20:31Z", "copyright": "The data included in this document is from www.openstreetmap.org. The data is made available under ODbL."}, "elements": [{"type": "node", "id": 4814003779, "lat": 53.8610664, "lon": 34.4416661}, {"type": "node", "id": 4814003780, "lat": 53.8608601, "lon": 34.4418316}, {"type": "node", "id": 4814003781, "lat": 53.8610046, "lon": 34.4423497}, {"type": "node", "id": 4814003782, "lat": 53.8609293, "lon": 34.4424101}, {"type": "node", "id": 4814003783, "lat": 53.8611431, "lon": 34.4431765}, {"type": "node", "id": 4814003784, "lat": 53.8613069, "lon": 34.4430451}, {"type": "node", "id": 4814003785, "lat": 53.8614635, "lon": 34.4436065}, {"type": "node", "id": 4814003786, "lat": 53.8615813, "lon": 34.443512}, {"type": "way", "id": 489124638, "nodes": [4814003779, 4814003780, 4814003781, 4814003782, 4814003783, 4814003784, 4814003785, 4814003786, 4814003779], "tags": {"addr:city": "\u041b\u044e\u0434\u0438\u043d\u043e\u0432\u043e", "addr:housenumber": "55", "addr:street": "\u0443\u043b\u0438\u0446\u0430 \u0424\u043e\u043a\u0438\u043d\u0430", "amenity": "college", "building": "college", "building:levels": "2", "email": "gapoukolit@mail.ru", "name": "\u041b\u044e\u0434\u0438\u043d\u043e\u0432\u0441\u043a\u0438\u0439 \u0418\u043d\u0434\u0443\u0441\u0442\u0440\u0438\u0430\u043b\u044c\u043d\u044b\u0439 \u0422\u0435\u0445\u043d\u0438\u043a\u0443\u043c", "name:en": "Lyudinovo industrial college", "official_name": "\u0413\u0410\u041f\u041e\u0423 \u041a\u041e \u00ab\u041b\u044e\u0434\u0438\u043d\u043e\u0432\u0441\u043a\u0438\u0439 \u0438\u043d\u0434\u0443\u0441\u0442\u0440\u0438\u0430\u043b\u044c\u043d\u044b\u0439 \u0442\u0435\u0445\u043d\u0438\u043a\u0443\u043c\u00bb", "phone": "+7 48444 61883", "website": "https://gaouspolit.ru/"}}]}