{"version": 0.6, "generator": "Overpass API 0.7.62.1 084b4234", "osm3s": {"timestamp_osm_base": "2024-05-03T10:14:08Z", "copyright": "The data included in this document is from www.openstreetmap.org. The data is made available under ODbL."}, "elements": [{"type": "node", "id": 560191651, "lat": 68.9694186, "lon": 33.0873146}, {"type": "node", "id": 560191662, "lat": 68.9696854, "lon": 33.0866779}, {"type": "node", "id": 560191671, "lat": 68.9695914, "lon": 33.0879028}, {"type": "node", "id": 560191674, "lat": 68.969666, "lon": 33.0877247}, {"type": "node", "id": 560191679, "lat": 68.9695615, "lon": 33.0873846}, {"type": "node", "id": 560191685, "lat": 68.9699397, "lon": 33.0875056}, {"type": "node", "id": 560191691, "lat": 68.9694915, "lon": 33.0875518}, {"type": "node", "id": 560191719, "lat": 68.9696683, "lon": 33.0881532}, {"type": "way", "id": 44074051, "nodes": [560191685, 560191719, 560191671, 560191674, 560191679, 560191691, 560191651, 560191662, 560191685], "tags": {"addr:city": "\u041c\u0443\u0440\u043c\u0430\u043d\u0441\u043a", "addr:country": "RU", "addr:housenumber": "21\u0410", "addr:postcode": "183704", "addr:street": "\u0443\u043b\u0438\u0446\u0430 \u0421\u043e\u0444\u044c\u0438 \u041f\u0435\u0440\u043e\u0432\u0441\u043a\u043e\u0439", "amenity": "library", "building": "yes", "building:levels": "5", "contact:email": "ruslib@mgounb.ru", "contact:fax": "+7 8152 452065", "contact:phone": "+7 8152 454805", "contact:website": "http://www.mgounb.ru/", "name": "\u041e\u0431\u043b\u0430\u0441\u0442\u043d\u0430\u044f \u043d\u0430\u0443\u0447\u043d\u0430\u044f \u0431\u0438\u0431\u043b\u0438\u043e\u0442\u0435\u043a\u0430", "official_name": "\u041c\u0443\u0440\u043c\u0430\u043d\u0441\u043a\u0430\u044f \u0433\u043e\u0441\u0443\u0434\u0430\u0440\u0441\u0442\u0432\u0435\u043d\u043d\u0430\u044f \u043e\u0431\u043b\u0430\u0441\u0442\u043d\u0430\u044f \u0443\u043d\u0438\u0432\u0435\u0440\u0441\u0430\u043b\u044c\u043d\u0430\u044f \u043d\u0430\u0443\u0447\u043d\u0430\u044f \u0431\u0438\u0431\u043b\u0438\u043e\u0442\u0435\u043a\u0430"}}]}