{"version": 0.6, "generator": "Overpass API 0.7.62.1 084b4234", "osm3s": {"timestamp_osm_base": "2024-05-03T02:27:40Z", "copyright": "The data included in this document is from www.openstreetmap.org. The data is made available under ODbL."}, "elements": [{"type": "node", "id": 1420968599, "lat": 55.745685, "lon": 52.4242116}, {"type": "node", "id": 1420968602, "lat": 55.7457126, "lon": 52.4241643}, {"type": "node", "id": 1420968606, "lat": 55.7457143, "lon": 52.4242635}, {"type": "node", "id": 1420968612, "lat": 55.7457408, "lon": 52.4242172}, {"type": "node", "id": 4191265881, "lat": 55.7458016, "lon": 52.4247042, "tags": {"alt_name": "Kentucky Fried Chicken", "amenity": "fast_food", "brand": "KFC", "brand:wikidata": "Q524757", "brand:wikipedia": "en:KFC", "contact:email": "yum-press@spncomms.com", "contact:facebook": "https://www.facebook.com/kfcrussia", "contact:instagram": "https://www.instagram.com/kfcrussia", "contact:ok": "https://ok.ru/kfcrussia", "contact:tumblr": "https://kfcrussia.tumblr.com", "contact:twitter": "https://twitter.com/kfcrussia", "contact:vk": "https://vk.com/kfcrussia", "contact:website": "https://www.kfc.ru", "contact:youtube": "https://www.youtube.com/KFCRussia", "cuisine": "chicken", "diet:vegetarian": "no", "drive_through": "no", "internet_access:fee": "no", "name": "KFC", "name:en": "KFC", "name:ru": "KFC", "smoking": "no", "takeaway": "yes"}}, {"type": "node", "id": 4191273440, "lat": 55.7462509, "lon": 52.4241746, "tags": {"amenity": "fast_food", "brand": "\u0411\u0443\u0440\u0433\u0435\u0440 \u041a\u0438\u043d\u0433", "brand:en": "Burger King", "brand:ru": "\u0411\u0443\u0440\u0433\u0435\u0440 \u041a\u0438\u043d\u0433", "brand:wikidata": "Q177054", "brand:wikipedia": "ru:Burger King", "contact:email": "info@burgerkingrus.ru", "contact:phone": "+7 495 5445000", "contact:vk": "https://vk.com/burgerking", "contact:website": "https://burgerkingrus.ru/", "cuisine": "burger", "diet:vegetarian": "no", "drive_through": "no", "internet_access": "wlan", "internet_access:fee": "no", "name": "\u0411\u0443\u0440\u0433\u0435\u0440 \u041a\u0438\u043d\u0433", "name:en": "Burger King", "name:ru": "\u0411\u0443\u0440\u0433\u0435\u0440 \u041a\u0438\u043d\u0433", "opening_hours": "Mo-Tu,Th-Su 08:55-23:00; We 08:55-22:55", "operator": "\u0411\u0423\u0420\u0413\u0415\u0420 \u0420\u0423\u0421", "operator:phone": "+7 495 5445000", "ref": "280", "takeaway": "yes"}}, {"type": "way", "id": 128625832, "nodes": [1420968602, 1420968599, 1420968606, 1420968612, 1420968602], "tags": {"addr:housenumber": "14\u0410/2", "addr:street": "\u043f\u0440\u043e\u0441\u043f\u0435\u043a\u0442 \u0412\u0430\u0445\u0438\u0442\u043e\u0432\u0430", "amenity": "fast_food", "building": "yes", "building:levels": "1", "cuisine": "shawarma", "drive_in": "no", "drive_through": "no", "name": "\u0428\u0430\u0443\u0440\u043c\u0435\u043d"}}]}