{"version": 0.6, "generator": "Overpass API 0.7.62.1 084b4234", "osm3s": {"timestamp_osm_base": "2024-05-03T04:47:57Z", "copyright": "The data included in this document is from www.openstreetmap.org. The data is made available under ODbL."}, "elements": [{"type": "node", "id": 1613122481, "lat": 51.7325497, "lon": 36.1898815}, {"type": "node", "id": 1613122483, "lat": 51.7325624, "lon": 36.1898606}, {"type": "node", "id": 1613122487, "lat": 51.7325499, "lon": 36.1900334}, {"type": "node", "id": 1613122494, "lat": 51.7325831, "lon": 36.18973}, {"type": "node", "id": 1613122495, "lat": 51.7325866, "lon": 36.1900332}, {"type": "node", "id": 1613122510, "lat": 51.7326054, "lon": 36.1897013}, {"type": "node", "id": 1613122512, "lat": 51.7325876, "lon": 36.1899995}, {"type": "node", "id": 1613122571, "lat": 51.7327978, "lon": 36.1896969}, {"type": "node", "id": 1613122574, "lat": 51.7327978, "lon": 36.1897172}, {"type": "node", "id": 1613122600, "lat": 51.7328983, "lon": 36.1897189}, {"type": "node", "id": 1613122601, "lat": 51.7328988, "lon": 36.189636}, {"type": "node", "id": 1613122648, "lat": 51.7330784, "lon": 36.1899919}, {"type": "node", "id": 1613122651, "lat": 51.7330853, "lon": 36.1896358}, {"type": "node", "id": 1617576900, "lat": 51.7325655, "lon": 36.1897936}, {"type": "way", "id": 148205700, "nodes": [1613122651, 1613122601, 1613122600, 1613122574, 1613122571, 1613122510, 1613122494, 1617576900, 1613122483, 1613122481, 1613122487, 1613122495, 1613122512, 1613122648, 1613122651], "tags": {"addr:city": "\u041a\u0443\u0440\u0441\u043a", "addr:country": "RU", "addr:housenumber": "24", "addr:postcode": "305000", "addr:street": "\u0443\u043b\u0438\u0446\u0430 \u0420\u0430\u0434\u0438\u0449\u0435\u0432\u0430", "amenity": "bank", "atm": "yes", "bic": "VTBRRUMM", "brand": "\u0412\u0422\u0411", "brand:en": "VTB Bank", "brand:wikidata": "Q1549389", "brand:wikipedia": "en:VTB Bank", "building": "yes", "building:levels": "4", "contact:email": "info@vtb.ru", "contact:facebook": "https://www.facebook.com/vtbgroup", "contact:phone": "+7 800 2007799", "contact:twitter": "https://twitter.com/vtb", "contact:vk": "https://vk.com/vtb24", "contact:website": "https://www.vtb.ru", "contact:youtube": "https://www.youtube.com/user/vtbgroup", "name": "\u0412\u0422\u0411", "name:en": "VTB Bank", "name:ru": "\u0412\u0422\u0411", "operator": "\u0411\u0430\u043d\u043a \u0412\u0422\u0411 (\u043f\u0443\u0431\u043b\u0438\u0447\u043d\u043e\u0435 \u0430\u043a\u0446\u0438\u043e\u043d\u0435\u0440\u043d\u043e\u0435 \u043e\u0431\u0449\u0435\u0441\u0442\u0432\u043e)", "operator:wikidata": "Q1549389", "operator:wikipedia": "ru:\u0411\u0430\u043d\u043a \u0412\u0422\u0411"}}]}