{"version": 0.6, "generator": "Overpass API 0.7.62.1 084b4234", "osm3s": {"timestamp_osm_base": "2024-05-02T22:43:13Z", "copyright": "The data included in this document is from www.openstreetmap.org. The data is made available under ODbL."}, "elements": [{"type": "node", "id": 1557099053, "lat": 56.4614534, "lon": 84.9750132}, {"type": "node", "id": 1557099058, "lat": 56.4614567, "lon": 84.9751407}, {"type": "node", "id": 1557099059, "lat": 56.4614032, "lon": 84.9751452}, {"type": "node", "id": 1557099061, "lat": 56.4613999, "lon": 84.9750178}, {"type": "node", "id": 1863931393, "lat": 56.4601111, "lon": 84.9740744}, {"type": "node", "id": 1863931394, "lat": 56.4600418, "lon": 84.9738953}, {"type": "node", "id": 1863931395, "lat": 56.4603613, "lon": 84.9735392}, {"type": "node", "id": 1865242992, "lat": 56.4604209, "lon": 84.9737084}, {"type": "way", "id": 142261747, "nodes": [1557099053, 1557099058, 1557099059, 1557099061, 1557099053], "tags": {"building": "industrial", "building:levels": "1", "roof:levels": "1", "roof:shape": "hipped"}}, {"type": "way", "id": 175833653, "nodes": [1863931395, 1865242992, 1863931393, 1863931394, 1863931395], "tags": {"addr:city": "\u0422\u043e\u043c\u0441\u043a", "addr:country": "RU", "addr:housenumber": "126 \u04412", "addr:postcode": "634034", "addr:street": "\u041a\u0440\u0430\u0441\u043d\u043e\u0430\u0440\u043c\u0435\u0439\u0441\u043a\u0430\u044f \u0443\u043b\u0438\u0446\u0430", "building": "industrial", "building:levels": "1", "source": "Bing"}}]}