{"version": 0.6, "generator": "Overpass API 0.7.62.1 084b4234", "osm3s": {"timestamp_osm_base": "2024-05-03T12:03:45Z", "copyright": "The data included in this document is from www.openstreetmap.org. The data is made available under ODbL."}, "elements": [{"type": "node", "id": 2285911145, "lat": 54.1983222, "lon": 37.6071757}, {"type": "node", "id": 2285911155, "lat": 54.1996716, "lon": 37.6076734}, {"type": "node", "id": 4586614995, "lat": 54.1987695, "lon": 37.6084358, "tags": {"addr:city": "\u0422\u0443\u043b\u0430", "addr:housenumber": "8", "addr:postcode": "300041", "addr:street": "\u0443\u043b\u0438\u0446\u0430 \u0421\u043e\u0439\u0444\u0435\u0440\u0430", "amenity": "school", "grades": "1 to 11", "religion": "none", "website": "http://co23tula.ru/"}}, {"type": "node", "id": 11257280109, "lat": 54.1981992, "lon": 37.6085832}, {"type": "node", "id": 11257280110, "lat": 54.1995744, "lon": 37.6087209}, {"type": "way", "id": 1215029138, "nodes": [2285911145, 11257280109, 11257280110, 2285911155, 2285911145], "tags": {"amenity": "school", "name": "\u041c\u0411\u041e\u0423 \u0426\u041e \u211623", "website": "https://czentrobrazovaniya23tula-r71.gosweb.gosuslugi.ru/"}}]}