{"version": 0.6, "generator": "Overpass API 0.7.62.1 084b4234", "osm3s": {"timestamp_osm_base": "2024-05-03T09:25:15Z", "copyright": "The data included in this document is from www.openstreetmap.org. The data is made available under ODbL."}, "elements": [{"type": "node", "id": 9162326203, "lat": 55.0292831, "lon": 73.2497603}, {"type": "node", "id": 9162326204, "lat": 55.0292844, "lon": 73.2498146}, {"type": "node", "id": 9162326205, "lat": 55.0294261, "lon": 73.2498038}, {"type": "node", "id": 9162326206, "lat": 55.0294247, "lon": 73.2497495}, {"type": "node", "id": 9385546030, "lat": 55.0292589, "lon": 73.2489703}, {"type": "node", "id": 9385546032, "lat": 55.0293043, "lon": 73.249111}, {"type": "node", "id": 9385546035, "lat": 55.0293043, "lon": 73.2489703}, {"type": "node", "id": 9385546036, "lat": 55.0292796, "lon": 73.249111, "tags": {"name": "\u0414\u043e\u0431\u0440\u044b\u043d\u044f", "shop": "bakery"}}, {"type": "node", "id": 9385546038, "lat": 55.0292589, "lon": 73.249111}, {"type": "node", "id": 11295269044, "lat": 55.0292589, "lon": 73.2489864, "tags": {"name": "\u0420\u044b\u0431\u0413\u043e\u0440\u043e\u0434\u044a", "shop": "seafood"}}, {"type": "node", "id": 11375505369, "lat": 55.0293469, "lon": 73.2497554, "tags": {"addr:housenumber": "98 \u043a3", "addr:postcode": "644089", "addr:street": "\u043f\u0440\u043e\u0441\u043f\u0435\u043a\u0442 \u041c\u0438\u0440\u0430", "contact:vk": "20gr_omsk", "level": "1", "name": "20 \u0433\u0440\u0430\u043c\u043c", "name:en": "20 gramm", "opening_hours": "Mo-Su 10:00-24:00", "phone": "+7 900 670-96-83", "shop": "tobacco", "website": "https://20gramm.ru/", "wheelchair": "yes"}}, {"type": "node", "id": 11736810150, "lat": 55.0293876, "lon": 73.2497523, "tags": {"level": "1", "name": "\u041a\u043b\u0443\u043c\u0431\u0430", "opening_hours": "09:00-24:00", "shop": "florist", "wheelchair": "yes"}}, {"type": "way", "id": 991671962, "nodes": [9162326206, 9162326205, 9162326204, 9162326203, 11375505369, 11736810150, 9162326206], "tags": {"building": "retail", "building:levels": "1"}}, {"type": "way", "id": 1017552365, "nodes": [9385546035, 9385546030, 11295269044, 9385546038, 9385546036, 9385546032, 9385546035], "tags": {"building": "retail", "building:levels": "1"}}]}