{"version": 0.6, "generator": "Overpass API 0.7.62.1 084b4234", "osm3s": {"timestamp_osm_base": "2024-05-02T21:25:16Z", "copyright": "The data included in this document is from www.openstreetmap.org. The data is made available under ODbL."}, "elements": [{"type": "node", "id": 1117603222, "lat": 56.4676177, "lon": 84.9811224}, {"type": "node", "id": 1117603278, "lat": 56.4676244, "lon": 84.979169}, {"type": "node", "id": 1117603313, "lat": 56.4674465, "lon": 84.9811316}, {"type": "node", "id": 1117603381, "lat": 56.4674512, "lon": 84.9794111}, {"type": "node", "id": 1393581699, "lat": 56.4674434, "lon": 84.9807806}, {"type": "node", "id": 1394328712, "lat": 56.4674441, "lon": 84.9807294}, {"type": "node", "id": 3367818707, "lat": 56.4674504, "lon": 84.9791709}, {"type": "way", "id": 96454855, "nodes": [1117603381, 3367818707, 1117603278, 1117603222, 1117603313, 1393581699, 1394328712, 1117603381], "tags": {"addr:city": "\u0422\u043e\u043c\u0441\u043a", "addr:country": "RU", "addr:housenumber": "79", "addr:postcode": "634041", "addr:street": "\u041a\u043e\u043c\u0441\u043e\u043c\u043e\u043b\u044c\u0441\u043a\u0438\u0439 \u043f\u0440\u043e\u0441\u043f\u0435\u043a\u0442", "building": "industrial", "building:levels": "4", "height": "24"}}]}