{"version": 0.6, "generator": "Overpass API 0.7.62.1 084b4234", "osm3s": {"timestamp_osm_base": "2024-05-03T19:43:45Z", "copyright": "The data included in this document is from www.openstreetmap.org. The data is made available under ODbL."}, "elements": [{"type": "node", "id": 1639122846, "lat": 57.6259856, "lon": 39.8818555, "tags": {"amenity": "bar", "contact:phone": "+7 4852 330933", "contact:website": "http://www.dudkibar.ru", "name": "\u0414\u0443\u0434\u043a\u0438 \u0431\u0430\u0440", "name:en": "Dudki bar", "opening_hours": "Mo-Fr 00:00-02:00,12:00-24:00; Sa,Su 00:00-06:00,12:00-24:00"}}, {"type": "node", "id": 2295786288, "lat": 57.6252314, "lon": 39.8821308, "tags": {"amenity": "bar", "name": "Tabasko"}}, {"type": "node", "id": 3829018961, "lat": 57.62581, "lon": 39.8817941, "tags": {"amenity": "bar", "contact:phone": "+7 915 9910000", "contact:website": "http://aladdin76.ru", "name": "\u0410\u043b\u0430\u0434\u0434\u0438\u043d, \u043a\u0430\u043b\u044c\u044f\u043d-\u0431\u0430\u0440", "opening_hours": "Mo-Fr 14:00-02:00; Sa-Su 14:00-05:00", "smoking": "dedicated"}}, {"type": "node", "id": 3829018968, "lat": 57.6255169, "lon": 39.8822013, "tags": {"amenity": "bar", "contact:phone": "+7 4852 732404", "internet_access": "wlan", "name": "\u0411\u0435\u043b\u044b\u0439 \u041a\u0440\u043e\u043b\u0438\u043a", "name:en": "White Rabbit", "name:ru": "\u0411\u0435\u043b\u044b\u0439 \u041a\u0440\u043e\u043b\u0438\u043a"}}, {"type": "node", "id": 9669873617, "lat": 57.625524, "lon": 39.8829608, "tags": {"amenity": "bar", "name": "\u0428\u041a\u0410\u0424"}}]}