{"version": 0.6, "generator": "Overpass API 0.7.62.1 084b4234", "osm3s": {"timestamp_osm_base": "2024-05-03T08:31:59Z", "copyright": "The data included in this document is from www.openstreetmap.org. The data is made available under ODbL."}, "elements": [{"type": "node", "id": 4285637374, "lat": 43.1183468, "lon": 131.882833, "tags": {"amenity": "fast_food", "brand:wikidata": "Q177054", "brand:wikipedia": "ru:Burger King", "contact:email": "FeedBack@burgerking.ru", "contact:phone": "+7 495 5445000", "contact:website": "https://burgerkingrus.ru/", "cuisine": "burger", "drive_through": "no", "internet_access": "wlan", "internet_access:fee": "no", "name": "\u0411\u0443\u0440\u0433\u0435\u0440 \u041a\u0438\u043d\u0433", "name:en": "Burger King", "name:ru": "\u0411\u0443\u0440\u0433\u0435\u0440 \u041a\u0438\u043d\u0433", "opening_hours": "Mo-We,Fr-Su 09:00-22:40; Th 09:00-21:40", "ref": "9020", "takeaway": "yes"}}, {"type": "node", "id": 4578434573, "lat": 43.1182749, "lon": 131.8839819}, {"type": "node", "id": 4578434949, "lat": 43.1182059, "lon": 131.8840199}, {"type": "node", "id": 4578435622, "lat": 43.118218, "lon": 131.8840611}, {"type": "node", "id": 4578436399, "lat": 43.1182869, "lon": 131.8840231}, {"type": "way", "id": 462443816, "nodes": [4578434573, 4578436399, 4578435622, 4578434949, 4578434573], "tags": {"addr:housenumber": "20 \u04416", "addr:street": "\u0421\u0435\u043c\u0451\u043d\u043e\u0432\u0441\u043a\u0430\u044f \u0443\u043b\u0438\u0446\u0430", "amenity": "fast_food", "building": "yes", "name": "\u0415\u0434\u0430 \u0438 \u0442\u043e\u0447\u043a\u0430", "name:en": "Eda i tochka", "name:ru": "\u0415\u0434\u0430 \u0438 \u0442\u043e\u0447\u043a\u0430", "website": "https://taplink.cc/edaitochka"}}]}