{"version": 0.6, "generator": "Overpass API 0.7.62.1 084b4234", "osm3s": {"timestamp_osm_base": "2024-05-03T05:24:55Z", "copyright": "The data included in this document is from www.openstreetmap.org. The data is made available under ODbL."}, "elements": [{"type": "node", "id": 917006360, "lat": 54.5188803, "lon": 36.2669504}, {"type": "node", "id": 1365621226, "lat": 54.5183795, "lon": 36.2674178, "tags": {"amenity": "bar", "name": "Wine"}}, {"type": "node", "id": 1900601936, "lat": 54.518805, "lon": 36.2669034}, {"type": "node", "id": 1900601937, "lat": 54.5188198, "lon": 36.2668171}, {"type": "node", "id": 2178435649, "lat": 54.5188538, "lon": 36.2670862}, {"type": "node", "id": 2178435650, "lat": 54.5188738, "lon": 36.2670987, "tags": {"entrance": "main"}}, {"type": "node", "id": 2178435652, "lat": 54.5188952, "lon": 36.2671118}, {"type": "node", "id": 2178435657, "lat": 54.5189409, "lon": 36.2668919}, {"type": "way", "id": 207589148, "nodes": [1900601937, 2178435657, 2178435652, 2178435650, 2178435649, 917006360, 1900601936, 1900601937], "tags": {"addr:housenumber": "64", "addr:street": "\u0443\u043b\u0438\u0446\u0430 \u041b\u0435\u043d\u0438\u043d\u0430", "amenity": "bar", "building": "yes", "building:levels": "1", "cuisine": "burger;diner;sandwich", "internet_access": "wlan", "name": "\u0411\u0443\u0440\u0433\u0435\u0440\u043d\u0430\u044f \"\u041f\u0430\u043f\u0438\u043d\u044b \u0431\u0443\u0440\u0433\u0435\u0440\u044b\"", "name:en": "Burger house \"Daddy's burgers\"", "opening_hours": "Mo-Su 12:00-24:00", "phone": "+74842210201", "website": "http://vk.com/papinburger"}}]}