{"version": 0.6, "generator": "Overpass API 0.7.62.1 084b4234", "osm3s": {"timestamp_osm_base": "2024-05-03T20:02:00Z", "copyright": "The data included in this document is from www.openstreetmap.org. The data is made available under ODbL."}, "elements": [{"type": "node", "id": 1087530167, "lat": 69.3582701, "lon": 88.1828849}, {"type": "node", "id": 1087530469, "lat": 69.3587143, "lon": 88.1848714}, {"type": "node", "id": 1087530908, "lat": 69.35916, "lon": 88.1812834}, {"type": "node", "id": 1087531280, "lat": 69.3596586, "lon": 88.1839775}, {"type": "node", "id": 4052265306, "lat": 69.359273, "lon": 88.1847044}, {"type": "node", "id": 4052265307, "lat": 69.3591344, "lon": 88.1840995}, {"type": "node", "id": 4052265308, "lat": 69.3595876, "lon": 88.183229}, {"type": "node", "id": 4052265309, "lat": 69.3595165, "lon": 88.1833513}, {"type": "node", "id": 4398212175, "lat": 69.3586042, "lon": 88.1822837, "tags": {"entrance": "yes"}}, {"type": "node", "id": 4398212176, "lat": 69.3592367, "lon": 88.1845461, "tags": {"entrance": "yes"}}, {"type": "node", "id": 4407361735, "lat": 69.358751, "lon": 88.1820195}, {"type": "way", "id": 93679156, "nodes": [1087530469, 1087530167, 4398212175, 4407361735, 1087530908, 4052265308, 4052265309, 1087531280, 4052265306, 4398212176, 4052265307, 1087530469], "tags": {"addr:city": "\u041d\u043e\u0440\u0438\u043b\u044c\u0441\u043a", "addr:country": "RU", "addr:housenumber": "3\u0410", "addr:street": "\u0443\u043b\u0438\u0446\u0430 \u041e\u0440\u0434\u0436\u043e\u043d\u0438\u043a\u0438\u0434\u0437\u0435", "building": "retail", "building:levels": "3", "fixme": "\u041f\u0440\u0438\u043c\u0435\u0440\u043d\u044b\u0435 \u0433\u0440\u0430\u043d\u0438\u0446\u044b", "name": "\u0421\u0420\u041a \u0410\u0440\u0435\u043d\u0430 \u041d\u043e\u0440\u0438\u043b\u044c\u0441\u043a", "opening_hours": "10:00-22:00", "shop": "mall", "website": "http://\u0430\u0440\u0435\u043d\u0430-\u043d\u043e\u0440\u0438\u043b\u044c\u0441\u043a.\u0440\u0444"}}]}