{"version": 0.6, "generator": "Overpass API 0.7.62.1 084b4234", "osm3s": {"timestamp_osm_base": "2024-05-03T21:37:44Z", "copyright": "The data included in this document is from www.openstreetmap.org. The data is made available under ODbL."}, "elements": [{"type": "node", "id": 1041535365, "lat": 57.1532434, "lon": 65.6438519}, {"type": "node", "id": 1041535394, "lat": 57.1530533, "lon": 65.6438532}, {"type": "node", "id": 1041535444, "lat": 57.1530275, "lon": 65.6438539}, {"type": "node", "id": 1041535458, "lat": 57.1532398, "lon": 65.6434232}, {"type": "node", "id": 1041535510, "lat": 57.1530557, "lon": 65.6441408}, {"type": "node", "id": 1041535542, "lat": 57.1531845, "lon": 65.6438536}, {"type": "node", "id": 1041535693, "lat": 57.1531932, "lon": 65.6434245}, {"type": "node", "id": 1294201719, "lat": 57.1531869, "lon": 65.6441371}, {"type": "node", "id": 1294201730, "lat": 57.1531924, "lon": 65.6433212}, {"type": "node", "id": 1294201746, "lat": 57.153023, "lon": 65.643326}, {"type": "node", "id": 2842089138, "lat": 57.1532423, "lon": 65.6437245, "tags": {"amenity": "atm", "name": "\u0421\u0431\u0435\u0440\u0431\u0430\u043d\u043a", "operator": "\u041f\u0410\u041e \u0421\u0431\u0435\u0440\u0431\u0430\u043d\u043a"}}, {"type": "node", "id": 2842089139, "lat": 57.153243, "lon": 65.6437997, "tags": {"amenity": "atm", "name": "\u0410\u043b\u044c\u0444\u0430-\u0411\u0430\u043d\u043a", "operator": "\u0410\u041e \"\u0410\u043b\u044c\u0444\u0430-\u0411\u0430\u043d\u043a\""}}, {"type": "node", "id": 2842090305, "lat": 57.1532412, "lon": 65.6435929, "tags": {"name": "\u041c\u043e\u043d\u0435\u0442\u043a\u0430", "shop": "supermarket"}}, {"type": "node", "id": 4948180063, "lat": 57.1532427, "lon": 65.6437621, "tags": {"amenity": "atm", "operator": "\u0411\u0430\u043d\u043a \u0412\u0422\u0411 (\u041f\u0410\u041e)"}}, {"type": "way", "id": 89854011, "nodes": [1294201719, 1041535510, 1041535394, 1041535444, 1294201746, 1294201730, 1041535693, 1041535458, 2842090305, 2842089138, 4948180063, 2842089139, 1041535365, 1041535542, 1294201719], "tags": {"addr:city": "\u0422\u044e\u043c\u0435\u043d\u044c", "addr:country": "RU", "addr:housenumber": "8/1", "addr:postcode": "625034", "addr:street": "\u0443\u043b\u0438\u0446\u0430 \u0414\u043e\u043c\u043e\u0441\u0442\u0440\u043e\u0438\u0442\u0435\u043b\u0435\u0439", "brand": "\u041f\u044f\u0442\u0451\u0440\u043e\u0447\u043a\u0430", "building": "commercial", "building:levels": "3", "description": "\u0423\u043d\u0438\u0432\u0435\u0440\u0441\u0430\u043c. \u041d\u0430 \u043f\u0435\u0440\u0432\u043e\u043c \u044d\u0442\u0430\u0436\u0435 \u0440\u0430\u0441\u043f\u043e\u043b\u0430\u0433\u0430\u0435\u0442\u0441\u044f \u041f\u044f\u0442\u0451\u0440\u043e\u0447\u043a\u0430. \u041d\u0430 \u0432\u0442\u043e\u0440\u043e\u043c \u044d\u0442\u0430\u0436\u0435 \u043c\u0430\u0433\u0430\u0437\u0438\u043d\u044b \u043e\u0434\u0435\u0436\u0434.", "fixme": "\u0417\u0434\u0430\u043d\u0438\u0435 \u0432\u044b\u043a\u0443\u043f\u043b\u0435\u043d\u043e \"\u041f\u044f\u0442\u0451\u0440\u043e\u0447\u043a\u043e\u0439\" \u0442\u0435\u043f\u0435\u0440\u044c \u0432\u043d\u0435\u0448\u043d\u0438\u0439 \u0432\u0438\u0434 \u0443\u043d\u0438\u0432\u0435\u0440\u0441\u0430\u043c\u0430 \u0441\u043e\u043e\u0442\u0432\u0435\u0442\u0441\u0442\u0432\u0443\u0435\u0442 \u0431\u0440\u0435\u043d\u0434\u0443.", "image": "https://photos.wikimapia.org/p/00/04/67/33/57_big.jpg", "name": "\u041f\u044f\u0442\u0451\u0440\u043e\u0447\u043a\u0430", "opening_hours": "10:00-22:00", "operator": "\u041f\u044f\u0442\u0451\u0440\u043e\u0447\u043a\u0430", "payment:apple_pay": "yes", "payment:cash": "yes", "payment:coins": "yes", "payment:credit_cards": "yes", "payment:google_pay": "yes", "payment:mastercard": "yes", "payment:visa": "yes", "shop": "mall"}}]}