{"version": 0.6, "generator": "Overpass API 0.7.62.1 084b4234", "osm3s": {"timestamp_osm_base": "2024-05-03T17:24:45Z", "copyright": "The data included in this document is from www.openstreetmap.org. The data is made available under ODbL."}, "elements": [{"type": "node", "id": 1250218594, "lat": 56.4946171, "lon": 84.9487661, "tags": {"amenity": "atm", "brand": "\u0410\u043b\u044c\u0444\u0430-\u0411\u0430\u043d\u043a", "brand:en": "Alfa-Bank", "brand:ru": "\u0410\u043b\u044c\u0444\u0430-\u0411\u0430\u043d\u043a", "brand:wikidata": "Q1377835", "brand:wikipedia": "ru:\u0410\u043b\u044c\u0444\u0430-\u0411\u0430\u043d\u043a", "name": "\u0410\u043b\u044c\u0444\u0430-\u0411\u0430\u043d\u043a", "name:en": "Alfa-Bank", "name:ru": "\u0410\u043b\u044c\u0444\u0430-\u0411\u0430\u043d\u043a", "operator": "\u0410\u043b\u044c\u0444\u0430-\u0411\u0430\u043d\u043a", "operator:wikidata": "Q1377835", "operator:wikipedia": "ru:\u0410\u043b\u044c\u0444\u0430-\u0411\u0430\u043d\u043a", "website": "https://alfabank.ru/"}}, {"type": "node", "id": 1250219438, "lat": 56.4941907, "lon": 84.9491041, "tags": {"amenity": "atm", "operator": "\u041f\u0410\u041e \u0421\u0431\u0435\u0440\u0431\u0430\u043d\u043a", "website": "https://www.sberbank.ru/"}}, {"type": "node", "id": 1250224076, "lat": 56.494161, "lon": 84.9498014, "tags": {"amenity": "atm", "operator": "\u0410\u041e \"\u0420\u0430\u0439\u0444\u0444\u0430\u0439\u0437\u0435\u043d\u0431\u0430\u043d\u043a\"", "website": "https://www.raiffeisen.ru/"}}, {"type": "node", "id": 1250224266, "lat": 56.4941107, "lon": 84.9497639, "tags": {"amenity": "atm", "brand": "\u041c\u0422\u0421 \u0411\u0430\u043d\u043a", "brand:en": "MTS Bank", "brand:wikidata": "Q1667422", "name:en": "MTS Bank", "operator": "\u041c\u0422\u0421 \u0411\u0430\u043d\u043a", "operator:wikidata": "Q1667422"}}, {"type": "node", "id": 1250224282, "lat": 56.4940959, "lon": 84.9499141, "tags": {"amenity": "atm", "operator": "\u0411\u0430\u043d\u043a \u0413\u041f\u0411 (\u0410\u041e)", "website": "https://www.gazprombank.ru/"}}, {"type": "node", "id": 1250226114, "lat": 56.4937998, "lon": 84.9498068, "tags": {"amenity": "atm", "contact:website": "https://www.rosbank.ru/", "operator": "\u041f\u0410\u041e \u0420\u041e\u0421\u0411\u0410\u041d\u041a"}}]}