{"version": 0.6, "generator": "Overpass API 0.7.62.1 084b4234", "osm3s": {"timestamp_osm_base": "2024-05-03T03:39:35Z", "copyright": "The data included in this document is from www.openstreetmap.org. The data is made available under ODbL."}, "elements": [{"type": "node", "id": 697276624, "lat": 55.0236757, "lon": 73.301707}, {"type": "node", "id": 697276627, "lat": 55.0237382, "lon": 73.3015409}, {"type": "node", "id": 697276629, "lat": 55.0238324, "lon": 73.3016452}, {"type": "node", "id": 697276630, "lat": 55.0237705, "lon": 73.3018115}, {"type": "node", "id": 3188062710, "lat": 55.023705, "lon": 73.301629, "tags": {"name": "Flora\u041e\u043f\u0442", "opening_hours": "08:00-21:00", "shop": "florist"}}, {"type": "node", "id": 3398001510, "lat": 55.0236908, "lon": 73.3016668, "tags": {"amenity": "fast_food", "cuisine": "sushi", "name": "\u042f\u043f\u043e\u043d\u0441\u043a\u0438\u0439 \u0434\u043e\u043c\u0438\u043a", "opening_hours": "10:00-01:00", "takeaway": "only"}}, {"type": "node", "id": 3879874280, "lat": 55.0237246, "lon": 73.301577, "tags": {"name": "\u041a\u0443\u043b\u0438\u043d\u0430\u0440\u0438\u044f", "opening_hours": "08:00-20:30", "shop": "pastry"}}, {"type": "way", "id": 55488641, "nodes": [697276629, 697276627, 3879874280, 3188062710, 3398001510, 697276624, 697276630, 697276629], "tags": {"addr:housenumber": "10/1", "addr:postcode": "644080", "addr:street": "\u043f\u0440\u043e\u0441\u043f\u0435\u043a\u0442 \u041c\u0438\u0440\u0430", "building": "retail", "building:levels": "1"}}]}