{"version": 0.6, "generator": "Overpass API 0.7.62.1 084b4234", "osm3s": {"timestamp_osm_base": "2024-05-02T21:49:34Z", "copyright": "The data included in this document is from www.openstreetmap.org. The data is made available under ODbL."}, "elements": [{"type": "node", "id": 460050928, "lat": 55.7401897, "lon": 37.408429}, {"type": "node", "id": 460050931, "lat": 55.7405207, "lon": 37.4079061}, {"type": "node", "id": 460050933, "lat": 55.7408145, "lon": 37.40835}, {"type": "node", "id": 460050936, "lat": 55.7405303, "lon": 37.4089435}, {"type": "node", "id": 3493313386, "lat": 55.7403332, "lon": 37.4081295}, {"type": "node", "id": 3493313387, "lat": 55.7403706, "lon": 37.408186}, {"type": "node", "id": 3493313388, "lat": 55.7403938, "lon": 37.4081376}, {"type": "node", "id": 3493313389, "lat": 55.7404031, "lon": 37.4081517}, {"type": "way", "id": 38790689, "nodes": [460050928, 3493313386, 3493313387, 3493313388, 3493313389, 460050931, 460050933, 460050936, 460050928], "tags": {"addr:city": "\u041c\u043e\u0441\u043a\u0432\u0430", "addr:country": "RU", "addr:housenumber": "5", "addr:postcode": "121552", "addr:street": "\u041e\u0440\u0448\u0430\u043d\u0441\u043a\u0430\u044f \u0443\u043b\u0438\u0446\u0430", "building": "office", "building:levels": "6", "roof:shape": "flat"}}]}