{"version": 0.6, "generator": "Overpass API 0.7.62.1 084b4234", "osm3s": {"timestamp_osm_base": "2024-05-03T09:42:44Z", "copyright": "The data included in this document is from www.openstreetmap.org. The data is made available under ODbL."}, "elements": [{"type": "node", "id": 5151927429, "lat": 57.1173, "lon": 65.549482, "tags": {"amenity": "fast_food", "brand:wikidata": "Q177054", "brand:wikipedia": "ru:Burger King", "contact:email": "FeedBack@burgerking.ru", "contact:phone": "+7 495 5445000", "contact:website": "https://burgerkingrus.ru/", "cuisine": "burger", "internet_access": "wlan", "name": "\u0411\u0443\u0440\u0433\u0435\u0440 \u041a\u0438\u043d\u0433", "name:en": "Burger King", "name:ru": "\u0411\u0443\u0440\u0433\u0435\u0440 \u041a\u0438\u043d\u0433", "opening_hours": "Mo-Su 10:00-22:00", "operator": "\u0411\u0423\u0420\u0413\u0415\u0420 \u0420\u0423\u0421", "operator:phone": "+7 495 5445000", "ref": "137", "takeaway": "yes"}}, {"type": "node", "id": 6942916443, "lat": 57.1172004, "lon": 65.5496737, "tags": {"amenity": "fast_food", "name": "\u0411\u0423\u0420\u0413\u0415\u0420\u041d\u0410\u042f"}}, {"type": "node", "id": 6942916448, "lat": 57.1172965, "lon": 65.5490296, "tags": {"amenity": "fast_food", "brand": "New York Pizza", "brand:wikidata": "Q2639128", "brand:wikipedia": "nl:New York Pizza", "cuisine": "pizza", "name": "New York Pizza", "takeaway": "yes"}}, {"type": "node", "id": 6942916449, "lat": 57.1172235, "lon": 65.5489376, "tags": {"amenity": "fast_food", "name": "\u0411\u043b\u0438\u043d\u043d\u0430\u044f \u043b\u0430\u0432\u043a\u0430"}}, {"type": "node", "id": 6942916450, "lat": 57.1171197, "lon": 65.5488527, "tags": {"amenity": "fast_food", "name": "\u0412\u043e\u043a\u043a\u0435\u0440"}}, {"type": "node", "id": 6942916451, "lat": 57.1170505, "lon": 65.5489942, "tags": {"amenity": "fast_food", "name": "\u0428\u0430\u0432\u0435\u0440\u043c\u0430"}}, {"type": "node", "id": 6942916454, "lat": 57.1169657, "lon": 65.549124, "tags": {"amenity": "fast_food", "name": "\u041f\u043b\u043e\u0432 \u0425\u0430\u0443\u0437"}}, {"type": "node", "id": 6942916455, "lat": 57.116926, "lon": 65.5492582, "tags": {"amenity": "fast_food", "brand": "\u041a\u0440\u043e\u0448\u043a\u0430 \u041a\u0430\u0440\u0442\u043e\u0448\u043a\u0430", "brand:en": "Kroshka Kartoshka", "brand:ru": "\u041a\u0440\u043e\u0448\u043a\u0430 \u041a\u0430\u0440\u0442\u043e\u0448\u043a\u0430", "brand:wikidata": "Q4241838", "brand:wikipedia": "ru:\u041a\u0440\u043e\u0448\u043a\u0430 \u041a\u0430\u0440\u0442\u043e\u0448\u043a\u0430", "contact:phone": "+7 345 2393046", "contact:website": "https://www.kartoshka.com/", "cuisine": "potato", "name": "\u041a\u0440\u043e\u0448\u043a\u0430 \u041a\u0430\u0440\u0442\u043e\u0448\u043a\u0430", "name:en": "Kroshka Kartoshka", "name:ru": "\u041a\u0440\u043e\u0448\u043a\u0430 \u041a\u0430\u0440\u0442\u043e\u0448\u043a\u0430", "opening_hours": "Mo-Su 10:00-22:00", "takeaway": "yes"}}, {"type": "node", "id": 6942916456, "lat": 57.1169017, "lon": 65.549368, "tags": {"amenity": "fast_food", "name": "\u0421\u0443\u0448\u0438 \u041c\u0430\u0440\u043a\u0435\u0442"}}, {"type": "node", "id": 6942916457, "lat": 57.116873, "lon": 65.5494899, "tags": {"amenity": "fast_food", "brand": "Subway", "brand:wikidata": "Q244457", "brand:wikipedia": "en:Subway (restaurant)", "cuisine": "sandwich", "name": "Subway", "takeaway": "yes"}}, {"type": "node", "id": 6942916458, "lat": 57.1169745, "lon": 65.5494818, "tags": {"amenity": "fast_food", "name": "Das Kolbas"}}, {"type": "node", "id": 6942916459, "lat": 57.117043, "lon": 65.549433, "tags": {"amenity": "fast_food", "name": "JuiceMaster"}}, {"type": "node", "id": 6945351929, "lat": 57.1173267, "lon": 65.5502642, "tags": {"addr:city": "\u0422\u044e\u043c\u0435\u043d\u044c", "addr:housenumber": "1", "addr:street": "\u0443\u043b\u0438\u0446\u0430 \u0414\u043c\u0438\u0442\u0440\u0438\u044f \u041c\u0435\u043d\u0434\u0435\u043b\u0435\u0435\u0432\u0430", "amenity": "fast_food", "brand": "Subway", "brand:wikidata": "Q244457", "brand:wikipedia": "en:Subway (restaurant)", "cuisine": "sandwich", "name": "Subway", "takeaway": "yes"}}]}