{"version": 0.6, "generator": "Overpass API 0.7.62.1 084b4234", "osm3s": {"timestamp_osm_base": "2024-05-03T08:52:23Z", "copyright": "The data included in this document is from www.openstreetmap.org. The data is made available under ODbL."}, "elements": [{"type": "node", "id": 517358383, "lat": 54.9642005, "lon": 82.9356623, "tags": {"amenity": "fast_food", "brand": "\u041c\u0430\u043a\u0434\u043e\u043d\u0430\u043b\u0434\u0441", "brand:en": "McDonald's", "brand:ru": "\u041c\u0430\u043a\u0434\u043e\u043d\u0430\u043b\u0434\u0441", "brand:wikidata": "Q38076", "brand:wikipedia": "en:McDonald's", "contact:vk": "vkusno_itochka", "cuisine": "burger", "name": "\u0412\u043a\u0443\u0441\u043d\u043e - \u0418 \u0422\u043e\u0447\u043a\u0430", "name:en": "Vkusno - I Tochka", "name:ru": "\u041c\u0430\u043a\u0434\u043e\u043d\u0430\u043b\u0434\u0441", "takeaway": "yes"}}, {"type": "node", "id": 4111432305, "lat": 54.9643255, "lon": 82.9358128, "tags": {"alt_name": "Kentucky Fried Chicken", "amenity": "fast_food", "brand": "KFC", "brand:wikidata": "Q524757", "brand:wikipedia": "en:KFC", "cuisine": "chicken", "name": "KFC", "takeaway": "yes"}}, {"type": "node", "id": 4111497491, "lat": 54.964136, "lon": 82.9354561, "tags": {"amenity": "fast_food", "brand": "New York Pizza", "brand:wikidata": "Q2639128", "brand:wikipedia": "nl:New York Pizza", "cuisine": "pizza", "name": "New York Pizza", "phone": "+7 383 2092172", "takeaway": "yes", "website": "https://nypizza.ru"}}, {"type": "node", "id": 5151926934, "lat": 54.9644089, "lon": 82.9359607, "tags": {"amenity": "fast_food", "brand": "\u0411\u0443\u0440\u0433\u0435\u0440 \u041a\u0438\u043d\u0433", "brand:en": "Burger King", "brand:ru": "\u0411\u0443\u0440\u0433\u0435\u0440 \u041a\u0438\u043d\u0433", "brand:wikidata": "Q177054", "brand:wikipedia": "en:Burger King", "contact:email": "info@burgerkingrus.ru", "contact:phone": "+7 495 5445000", "contact:website": "https://burgerkingrus.ru/", "cuisine": "burger", "internet_access": "wlan", "internet_access:fee": "no", "name": "\u0411\u0443\u0440\u0433\u0435\u0440 \u041a\u0438\u043d\u0433", "name:en": "Burger King", "name:ru": "\u0411\u0443\u0440\u0433\u0435\u0440 \u041a\u0438\u043d\u0433", "opening_hours": "Fr 10:00-21:50; Mo-Th 10:00-21:55; Sa-Su 10:00-21:45", "ref": "413", "takeaway": "yes"}}, {"type": "node", "id": 11007217734, "lat": 54.9647922, "lon": 82.9369282, "tags": {"amenity": "fast_food", "contact:phone": "+7 800 2509203;+7 913 7316450", "contact:website": "https://www.vitajuice.ru/", "cuisine": "juice", "name": "Vita Juice", "opening_hours": "Mo-Sa 10:00-22:00; Su 10:00-21:30"}}, {"type": "node", "id": 11067248456, "lat": 54.9644471, "lon": 82.9360512, "tags": {"amenity": "fast_food", "contact:email": "support@vitajuice.ru", "contact:phone": "+7 908 6320078", "contact:website": "https://\u043f\u043b\u043e\u0432-\u0431\u0435\u0440\u0438.\u0440\u0444", "name": "\u041f\u043b\u043e\u0432\u0411\u0435\u0440\u0438", "opening_hours": "Mo-Su 10:00-21:00"}}, {"type": "node", "id": 11414511440, "lat": 54.9648384, "lon": 82.9370301, "tags": {"amenity": "fast_food", "contact:email": "help@\u0441\u0443\u0448\u0438-\u043c\u0430\u043a\u0435.\u0440\u0444", "contact:phone": "+7 383 3885005", "contact:website": "https://\u0441\u0443\u0448\u0438-\u043c\u0430\u043a\u0435.\u0440\u0444", "cuisine": "sushi", "name": "\u0421\u0443\u0448\u0438 \u043c\u0430\u043a\u0435", "opening_hours": "Mo-Su 10:00-22:00"}}]}