{"version": 0.6, "generator": "Overpass API 0.7.62.1 084b4234", "osm3s": {"timestamp_osm_base": "2024-05-04T01:38:28Z", "copyright": "The data included in this document is from www.openstreetmap.org. The data is made available under ODbL."}, "elements": [{"type": "node", "id": 420541313, "lat": 55.1629718, "lon": 61.4318982}, {"type": "node", "id": 420541316, "lat": 55.1638224, "lon": 61.4320764}, {"type": "node", "id": 420541319, "lat": 55.1638599, "lon": 61.4315226}, {"type": "node", "id": 420541322, "lat": 55.165385, "lon": 61.4317824}, {"type": "node", "id": 420541323, "lat": 55.1654541, "lon": 61.4305994}, {"type": "node", "id": 420541326, "lat": 55.1639417, "lon": 61.4302409}, {"type": "node", "id": 420541328, "lat": 55.1639705, "lon": 61.4298208}, {"type": "node", "id": 420541330, "lat": 55.1631033, "lon": 61.4296507}, {"type": "node", "id": 3585358502, "lat": 55.1642857, "lon": 61.4303965}, {"type": "node", "id": 3585358504, "lat": 55.1651127, "lon": 61.4306972}, {"type": "node", "id": 3585358505, "lat": 55.1647599, "lon": 61.430634}, {"type": "node", "id": 3585358512, "lat": 55.1651219, "lon": 61.4305398}, {"type": "node", "id": 3585358514, "lat": 55.1647687, "lon": 61.430483}, {"type": "node", "id": 3585358515, "lat": 55.164292, "lon": 61.4302891}, {"type": "way", "id": 35979778, "nodes": [420541313, 420541316, 420541319, 420541322, 420541323, 3585358512, 3585358504, 3585358505, 3585358514, 3585358502, 3585358515, 420541326, 420541328, 420541330, 420541313], "tags": {"addr:city": "\u0427\u0435\u043b\u044f\u0431\u0438\u043d\u0441\u043a", "addr:country": "RU", "addr:housenumber": "136", "addr:postcode": "454007", "addr:street": "\u0410\u0440\u0442\u0438\u043b\u043b\u0435\u0440\u0438\u0439\u0441\u043a\u0430\u044f \u0443\u043b\u0438\u0446\u0430", "building": "commercial", "building:levels": "4", "contact:email": "info@gorky74.ru", "contact:facebook": "https://www.facebook.com/gorky74", "contact:instagram": "https://www.instagram.com/trk_gorky/", "contact:ok": "https://ok.ru/gorky74", "contact:phone": "+7 351 2471717", "contact:vk": "https://vk.com/trk_gorky", "contact:website": "http://www.gorky74.ru", "contact:youtube": "https://www.youtube.com/user/gorky74tv", "int_name": "Gorki", "name": "\u0422\u0420\u041a \u00ab\u0413\u043e\u0440\u043a\u0438\u00bb", "name:en": "Gorki", "opening_hours": "Mo-Su 10:00-22:00", "shop": "mall", "toilets": "yes", "wheelchair": "yes"}}]}