{"version": 0.6, "generator": "Overpass API 0.7.62.1 084b4234", "osm3s": {"timestamp_osm_base": "2024-05-03T18:19:17Z", "copyright": "The data included in this document is from www.openstreetmap.org. The data is made available under ODbL."}, "elements": [{"type": "node", "id": 667738511, "lat": 59.9577052, "lon": 30.2983584}, {"type": "node", "id": 667738514, "lat": 59.9576258, "lon": 30.2985564}, {"type": "node", "id": 667738576, "lat": 59.9579374, "lon": 30.2983713}, {"type": "node", "id": 667738577, "lat": 59.9578345, "lon": 30.2982066}, {"type": "node", "id": 667738600, "lat": 59.9577703, "lon": 30.2987877}, {"type": "node", "id": 667738609, "lat": 59.9577469, "lon": 30.298425}, {"type": "node", "id": 11209448953, "lat": 59.9576931, "lon": 30.2986641, "tags": {"entrance": "yes"}}, {"type": "node", "id": 11209448954, "lat": 59.9576343, "lon": 30.2985699, "tags": {"access": "private", "entrance": "staircase"}}, {"type": "node", "id": 11209448955, "lat": 59.9578243, "lon": 30.2986531, "tags": {"entrance": "yes"}}, {"type": "node", "id": 11209448956, "lat": 59.9578781, "lon": 30.298519, "tags": {"entrance": "yes"}}, {"type": "way", "id": 52560492, "nodes": [667738576, 11209448956, 11209448955, 667738600, 11209448953, 11209448954, 667738514, 667738511, 667738609, 667738577, 667738576], "tags": {"addr:city": "\u0421\u0430\u043d\u043a\u0442-\u041f\u0435\u0442\u0435\u0440\u0431\u0443\u0440\u0433", "addr:country": "RU", "addr:housenumber": "32", "addr:street": "\u0411\u043e\u043b\u044c\u0448\u043e\u0439 \u043f\u0440\u043e\u0441\u043f\u0435\u043a\u0442 \u041f.\u0421.", "building": "commercial", "building:levels": "4", "name": "\u0411\u0426 \u00ab\u0418\u043d\u0430\u0442\u0430\u00bb", "website": "https://inata-spb.ru"}}]}