{"version": 0.6, "generator": "Overpass API 0.7.62.1 084b4234", "osm3s": {"timestamp_osm_base": "2024-05-03T22:02:42Z", "copyright": "The data included in this document is from www.openstreetmap.org. The data is made available under ODbL."}, "elements": [{"type": "node", "id": 3751722498, "lat": 59.9080457, "lon": 30.3070904, "tags": {"amenity": "bar", "level": "0", "name": "Aperitivo", "opening_hours": "Mo-Fr 12:00-22:00; Sa-Su 12:00-24:00"}}, {"type": "node", "id": 3751722500, "lat": 59.9081572, "lon": 30.3070963, "tags": {"amenity": "bar", "level": "0", "name": "Right hops"}}, {"type": "node", "id": 3751722502, "lat": 59.9080687, "lon": 30.3070897, "tags": {"amenity": "bar", "level": "1", "name": "Barrister"}}, {"type": "node", "id": 3751722503, "lat": 59.9080488, "lon": 30.3076865, "tags": {"amenity": "bar", "level": "0", "name": "Sibbitter", "takeaway": "yes"}}, {"type": "node", "id": 3751722504, "lat": 59.9081471, "lon": 30.3076786, "tags": {"amenity": "bar", "cuisine": "cider", "level": "0", "name": "\u0421\u0438\u0434\u043e\u0440\u043e\u0432 \u043f\u0440\u043e\u043b\u0438\u0432", "takeaway": "yes", "website": "https://ontapbar.ru/"}}, {"type": "node", "id": 3751722505, "lat": 59.9080071, "lon": 30.3076868, "tags": {"amenity": "bar", "level": "0", "name": "\u0411\u043e\u043b\u044c\u0448\u043e\u0435 \u0440\u0443\u0441\u0441\u043a\u043e\u0435 \u0432\u0438\u043d\u043e", "takeaway": "yes"}}]}