{"version": 0.6, "generator": "Overpass API 0.7.62.1 084b4234", "osm3s": {"timestamp_osm_base": "2024-05-04T01:48:30Z", "copyright": "The data included in this document is from www.openstreetmap.org. The data is made available under ODbL."}, "elements": [{"type": "node", "id": 1901668045, "lat": 61.0807135, "lon": 72.6186209}, {"type": "node", "id": 1901668046, "lat": 61.0807099, "lon": 72.6178303}, {"type": "node", "id": 1901668054, "lat": 61.0810014, "lon": 72.6178236}, {"type": "node", "id": 1901668056, "lat": 61.0809997, "lon": 72.6186147}, {"type": "node", "id": 1901668057, "lat": 61.081059, "lon": 72.6179206}, {"type": "node", "id": 3903907471, "lat": 61.0810523, "lon": 72.61815}, {"type": "node", "id": 3903907472, "lat": 61.0810517, "lon": 72.6182976}, {"type": "node", "id": 3903907473, "lat": 61.0810597, "lon": 72.6185238}, {"type": "node", "id": 4135442600, "lat": 61.081052, "lon": 72.6182223, "tags": {"entrance": "main"}}, {"type": "way", "id": 179733377, "nodes": [1901668046, 1901668054, 1901668057, 3903907471, 4135442600, 3903907472, 3903907473, 1901668056, 1901668045, 1901668046], "tags": {"addr:city": "\u041d\u0435\u0444\u0442\u0435\u044e\u0433\u0430\u043d\u0441\u043a", "addr:country": "RU", "addr:housenumber": "50", "addr:place": "\u043c\u0438\u043a\u0440\u043e\u0440\u0430\u0439\u043e\u043d 16\u0410", "addr:quarter": "\u043c\u0438\u043a\u0440\u043e\u0440\u0430\u0439\u043e\u043d 16\u0410", "amenity": "bank", "bic": "SABRRUMM", "brand": "\u0421\u0431\u0435\u0440\u0431\u0430\u043d\u043a", "brand:wikidata": "Q205012", "brand:wikipedia": "ru:\u0421\u0431\u0435\u0440\u0431\u0430\u043d\u043a \u0420\u043e\u0441\u0441\u0438\u0438", "building": "commercial", "building:levels": "5", "contact:facebook": "https://www.facebook.com/sberbank", "contact:instagram": "https://www.instagram.com/sberbank", "contact:ok": "https://ok.ru/sberbank", "contact:phone": "+7 800 5555550", "contact:twitter": "https://twitter.com/sberbank", "contact:vk": "https://vk.com/sberbank", "contact:website": "https://www.sberbank.ru", "contact:youtube": "https://www.youtube.com/sberbank", "name": "\u0421\u0431\u0435\u0440\u0431\u0430\u043d\u043a", "name:en": "Sberbank", "name:ru": "\u0421\u0431\u0435\u0440\u0431\u0430\u043d\u043a", "opening_hours": "Mo-Fr 09:00-19:00; Sa 09:00-16:00", "operator:wikidata": "Q205012", "operator:wikipedia": "ru:\u0421\u0431\u0435\u0440\u0431\u0430\u043d\u043a \u0420\u043e\u0441\u0441\u0438\u0438", "ref": "5940/0100"}}]}