{"version": 0.6, "generator": "Overpass API 0.7.62.1 084b4234", "osm3s": {"timestamp_osm_base": "2024-05-03T23:29:05Z", "copyright": "The data included in this document is from www.openstreetmap.org. The data is made available under ODbL."}, "elements": [{"type": "node", "id": 425538725, "lat": 55.6565823, "lon": 37.5700019}, {"type": "node", "id": 425538727, "lat": 55.6568028, "lon": 37.5693691}, {"type": "node", "id": 425538729, "lat": 55.6562582, "lon": 37.568872}, {"type": "node", "id": 425538731, "lat": 55.6558975, "lon": 37.5696574}, {"type": "node", "id": 1668718560, "lat": 55.6560031, "lon": 37.5693542}, {"type": "node", "id": 1668718562, "lat": 55.6560661, "lon": 37.5694232}, {"type": "node", "id": 1668718568, "lat": 55.6566012, "lon": 37.5692476}, {"type": "node", "id": 1668718570, "lat": 55.6566262, "lon": 37.5691758}, {"type": "node", "id": 9228627051, "lat": 55.6564465, "lon": 37.5700209}, {"type": "node", "id": 9228627052, "lat": 55.6563829, "lon": 37.5700852}, {"type": "node", "id": 9228627053, "lat": 55.6564858, "lon": 37.5698975}, {"type": "node", "id": 9228627054, "lat": 55.6562984, "lon": 37.5700965}, {"type": "way", "id": 154326182, "nodes": [1668718560, 1668718562, 425538729, 1668718568, 1668718570, 425538727, 425538725, 9228627053, 9228627051, 9228627052, 9228627054, 425538731, 1668718560], "tags": {"addr:city": "\u041c\u043e\u0441\u043a\u0432\u0430", "addr:housenumber": "29\u0410", "addr:street": "\u0443\u043b\u0438\u0446\u0430 \u041a\u0430\u0445\u043e\u0432\u043a\u0430", "building": "retail", "building:levels": "5", "check_date": "2023-08-15", "name": "Prime Plaza", "opening_hours": "Mo-Su 10:00-22:00", "operator": "\u0424\u0430\u0441\u0442", "phone": "+7 495 3317655", "shop": "mall", "toilets": "yes", "website": "https://primeplaza.ru"}}]}