{"version": 0.6, "generator": "Overpass API 0.7.62.1 084b4234", "osm3s": {"timestamp_osm_base": "2024-05-03T22:17:03Z", "copyright": "The data included in this document is from www.openstreetmap.org. The data is made available under ODbL."}, "elements": [{"type": "node", "id": 1196728912, "lat": 59.8773234, "lon": 30.441788, "tags": {"amenity": "atm", "brand": "\u041f\u0440\u043e\u043c\u0441\u0432\u044f\u0437\u044c\u0431\u0430\u043d\u043a", "brand:en": "Promsvyazbank", "brand:wikidata": "Q649100", "brand:wikipedia": "en:Promsvyazbank", "contact:email": "info@psbank.ru", "contact:phone": "+7 495 7873333;+7 800 3330303", "contact:website": "https://psbank.ru/", "indoor": "yes", "name": "\u041f\u0440\u043e\u043c\u0441\u0432\u044f\u0437\u044c\u0431\u0430\u043d\u043a", "name:en": "Promsvyazbank", "opening_hours": "Mo-Su 07:00-23:00", "operator": "\u041f\u0440\u043e\u043c\u0441\u0432\u044f\u0437\u044c\u0431\u0430\u043d\u043a", "operator:wikidata": "Q649100", "operator:wikipedia": "en:Promsvyazbank"}}, {"type": "node", "id": 2650095638, "lat": 59.8774156, "lon": 30.4420911, "tags": {"amenity": "atm", "indoor": "yes", "opening_hours": "00:00-00:27,05:33-24:00", "operator": "\u041f\u0410\u041e \u0421\u0431\u0435\u0440\u0431\u0430\u043d\u043a"}}, {"type": "node", "id": 2650095644, "lat": 59.8780945, "lon": 30.4422498, "tags": {"amenity": "atm", "brand": "\u0421\u0431\u0435\u0440\u0431\u0430\u043d\u043a", "brand:en": "Sberbank", "brand:ru": "\u0421\u0431\u0435\u0440\u0431\u0430\u043d\u043a", "brand:wikidata": "Q205012", "brand:wikipedia": "en:Sberbank", "name": "\u0421\u0431\u0435\u0440\u0431\u0430\u043d\u043a", "name:en": "Sberbank", "name:ru": "\u0421\u0431\u0435\u0440\u0431\u0430\u043d\u043a", "operator": "\u041f\u0410\u041e \u0421\u0431\u0435\u0440\u0431\u0430\u043d\u043a", "operator:wikidata": "Q205012", "operator:wikipedia": "en:Sberbank"}}, {"type": "node", "id": 4221182330, "lat": 59.8772686, "lon": 30.4415928, "tags": {"amenity": "atm", "brand": "\u0412\u0422\u0411", "brand:en": "VTB Bank", "brand:wikidata": "Q1549389", "brand:wikipedia": "en:VTB Bank", "indoor": "yes", "name": "\u0412\u0422\u0411", "name:en": "VTB Bank", "opening_hours": "00:00-00:45,05:33-24:00", "operator": "\u0411\u0430\u043d\u043a \u0412\u0422\u0411 (\u041f\u0410\u041e)", "operator:wikidata": "Q1549389", "operator:wikipedia": "en:VTB Bank"}}, {"type": "node", "id": 4221182334, "lat": 59.8773722, "lon": 30.4421509, "tags": {"amenity": "atm", "brand": "\u0412\u0422\u0411", "indoor": "yes", "opening_hours": "00:00-00:27,05:33-24:00", "operator": "\u0411\u0430\u043d\u043a \u0412\u0422\u0411 (\u041f\u0410\u041e)"}}, {"type": "node", "id": 4221182336, "lat": 59.8773809, "lon": 30.4421389, "tags": {"amenity": "atm", "brand": "\u0412\u0422\u0411", "indoor": "yes", "opening_hours": "00:00-00:27,05:33-24:00", "operator": "\u0411\u0430\u043d\u043a \u0412\u0422\u0411 (\u041f\u0410\u041e)"}}, {"type": "node", "id": 4221182345, "lat": 59.8773998, "lon": 30.4419145, "tags": {"amenity": "atm", "brand": "\u0421\u0430\u043d\u043a\u0442-\u041f\u0435\u0442\u0435\u0440\u0431\u0443\u0440\u0433", "contact:email": "info@bspb.ru", "contact:ok": "https://ok.ru/bspb", "contact:phone": "+7 812 3295050", "contact:twitter": "https://twitter.com/bank_spb", "contact:vk": "https://vk.com/bspb", "contact:website": "https://www.bspb.ru/", "currency:RUB": "yes", "indoor": "yes", "opening_hours": "Mo-Su 05:35-24:00", "operator": "\u041f\u0410\u041e \u0411\u0430\u043d\u043a \u0421\u0430\u043d\u043a\u0442-\u041f\u0435\u0442\u0435\u0440\u0431\u0443\u0440\u0433", "telegram": "https://t.me/mybspb"}}, {"type": "node", "id": 4540031389, "lat": 59.8773982, "lon": 30.442115, "tags": {"amenity": "atm", "operator": "\u0410\u041e \"\u0410\u043b\u044c\u0444\u0430-\u0411\u0430\u043d\u043a\""}}, {"type": "node", "id": 4946000111, "lat": 59.8773896, "lon": 30.4421269, "tags": {"amenity": "atm", "indoor": "yes", "opening_hours": "00:00-00:27,05:33-24:00", "operator": "\u041f\u0410\u041e \u0421\u0431\u0435\u0440\u0431\u0430\u043d\u043a"}}, {"type": "node", "id": 4946000112, "lat": 59.8774069, "lon": 30.442103, "tags": {"amenity": "atm", "indoor": "yes", "opening_hours": "00:00-00:27,05:33-24:00", "operator": "\u041f\u0410\u041e \u0421\u0431\u0435\u0440\u0431\u0430\u043d\u043a"}}]}