{"version": 0.6, "generator": "Overpass API 0.7.62.1 084b4234", "osm3s": {"timestamp_osm_base": "2024-05-03T01:24:52Z", "copyright": "The data included in this document is from www.openstreetmap.org. The data is made available under ODbL."}, "elements": [{"type": "node", "id": 982891782, "lat": 46.964029, "lon": 142.7258111}, {"type": "node", "id": 982891794, "lat": 46.964202, "lon": 142.7257755}, {"type": "node", "id": 982891799, "lat": 46.9639906, "lon": 142.7254098}, {"type": "node", "id": 982891802, "lat": 46.9641636, "lon": 142.7253743}, {"type": "node", "id": 5444724054, "lat": 46.964034, "lon": 142.7254009}, {"type": "way", "id": 84605754, "nodes": [982891802, 982891794, 982891782, 982891799, 5444724054, 982891802], "tags": {"addr:city": "\u042e\u0436\u043d\u043e-\u0421\u0430\u0445\u0430\u043b\u0438\u043d\u0441\u043a", "addr:country": "RU", "addr:housenumber": "68", "addr:street": "\u0421\u0430\u0445\u0430\u043b\u0438\u043d\u0441\u043a\u0430\u044f \u0443\u043b\u0438\u0446\u0430", "building": "commercial", "building:levels": "4", "name": "\u0420\u0435\u043c\u0431\u044b\u0442\u0442\u0435\u0445\u043d\u0438\u043a\u0430", "shop": "mall"}}]}