{"version": 0.6, "generator": "Overpass API 0.7.62.1 084b4234", "osm3s": {"timestamp_osm_base": "2024-05-03T13:22:06Z", "copyright": "The data included in this document is from www.openstreetmap.org. The data is made available under ODbL."}, "elements": [{"type": "node", "id": 2911795974, "lat": 59.2078051, "lon": 39.8973223}, {"type": "node", "id": 2911795978, "lat": 59.2082229, "lon": 39.8966427}, {"type": "node", "id": 2911795982, "lat": 59.2084164, "lon": 39.8987564}, {"type": "node", "id": 2911795987, "lat": 59.2085625, "lon": 39.8990991}, {"type": "node", "id": 2911795988, "lat": 59.2085654, "lon": 39.8981531}, {"type": "node", "id": 2911795990, "lat": 59.2086562, "lon": 39.8983662}, {"type": "node", "id": 2911795991, "lat": 59.2087433, "lon": 39.8978636}, {"type": "node", "id": 2911795992, "lat": 59.2088023, "lon": 39.8987089}, {"type": "way", "id": 287573057, "nodes": [2911795990, 2911795992, 2911795987, 2911795982, 2911795990], "tags": {"addr:city": "\u0412\u043e\u043b\u043e\u0433\u0434\u0430", "addr:country": "RU", "addr:housenumber": "64", "addr:street": "\u0443\u043b\u0438\u0446\u0430 \u0413\u0435\u0440\u0446\u0435\u043d\u0430", "amenity": "hospital", "contact:phone": "+7 8172 754147", "contact:website": "http://roddom1.volmed.org.ru/", "emergency": "no", "name": "\u0416\u0435\u043d\u0441\u043a\u0430\u044f \u043a\u043e\u043d\u0441\u0443\u043b\u044c\u0442\u0430\u0446\u0438\u044f"}}, {"type": "way", "id": 287573059, "nodes": [2911795978, 2911795991, 2911795988, 2911795990, 2911795982, 2911795974, 2911795978], "tags": {"addr:city": "\u0412\u043e\u043b\u043e\u0433\u0434\u0430", "addr:country": "RU", "addr:housenumber": "24", "addr:street": "\u0443\u043b\u0438\u0446\u0430 \u041f\u0438\u0440\u043e\u0433\u043e\u0432\u0430", "amenity": "hospital", "contact:phone": "+7 8172 754547", "contact:website": "http://roddom1.volmed.org.ru/", "emergency": "yes", "name": "\u0420\u043e\u0434\u0438\u043b\u044c\u043d\u044b\u0439 \u0434\u043e\u043c \u21161"}}]}