{"version": 0.6, "generator": "Overpass API 0.7.62.1 084b4234", "osm3s": {"timestamp_osm_base": "2024-05-03T15:47:24Z", "copyright": "The data included in this document is from www.openstreetmap.org. The data is made available under ODbL."}, "elements": [{"type": "node", "id": 653661249, "lat": 54.9431715, "lon": 82.9054112}, {"type": "node", "id": 653661271, "lat": 54.9430745, "lon": 82.9069269}, {"type": "node", "id": 653661290, "lat": 54.9448824, "lon": 82.9057428}, {"type": "node", "id": 653661291, "lat": 54.9447855, "lon": 82.9072585}, {"type": "node", "id": 2381300486, "lat": 54.9431546, "lon": 82.9056752}, {"type": "node", "id": 2381300487, "lat": 54.9431611, "lon": 82.9055738}, {"type": "node", "id": 2381300511, "lat": 54.9448656, "lon": 82.9057395}, {"type": "way", "id": 51220509, "nodes": [653661271, 2381300486, 2381300487, 653661249, 2381300511, 653661290, 653661291, 653661271], "tags": {"addr:city": "\u041d\u043e\u0432\u043e\u0441\u0438\u0431\u0438\u0440\u0441\u043a", "addr:housenumber": "69 \u043a1", "addr:street": "\u0443\u043b\u0438\u0446\u0430 \u041f\u0435\u0442\u0443\u0445\u043e\u0432\u0430", "building": "industrial", "building:levels": "2", "name": "Rich Family", "phone": "+7 383 3280708", "shop": "toys", "website": "https://www.rf-54.ru/"}}]}