{"version": 0.6, "generator": "Overpass API 0.7.62.1 084b4234", "osm3s": {"timestamp_osm_base": "2024-05-03T23:29:05Z", "copyright": "The data included in this document is from www.openstreetmap.org. The data is made available under ODbL."}, "elements": [{"type": "node", "id": 9279780710, "lat": 55.6562936, "lon": 37.5694603, "tags": {"amenity": "fast_food", "check_date": "2023-08-15", "contact:email": "FeedBack@burgerking.ru", "contact:phone": "+7 495 5445000", "contact:website": "https://burgerkingrus.ru/", "cuisine": "burger", "name": "\u0411\u0443\u0440\u0433\u0435\u0440 \u041a\u0438\u043d\u0433", "name:en": "Burger King", "name:ru": "\u0411\u0443\u0440\u0433\u0435\u0440 \u041a\u0438\u043d\u0433", "opening_hours": "Mo-Su 10:00-21:30"}}, {"type": "node", "id": 9321955310, "lat": 55.6562997, "lon": 37.5696051, "tags": {"amenity": "fast_food", "check_date": "2023-08-15", "contact:email": "info@qsrsystem.ru", "contact:phone": "+7 800 7074499", "contact:website": "https://vkusnoitochka.ru/", "cuisine": "burger", "diet:vegetarian": "no", "name": "\u0412\u043a\u0443\u0441\u043d\u043e \u2014 \u0438 \u0442\u043e\u0447\u043a\u0430", "name:ru": "\u0412\u043a\u0443\u0441\u043d\u043e \u2014 \u0438 \u0442\u043e\u0447\u043a\u0430", "old_name": "\u041c\u0430\u043a\u0434\u043e\u043d\u0430\u043b\u0434\u0441", "old_name:en": "McDonald\u2019s", "opening_hours": "Mo-Su 10:00-22:00", "outdoor_seating": "no", "takeaway": "yes"}}, {"type": "node", "id": 9447072871, "lat": 55.656357, "lon": 37.56936, "tags": {"amenity": "fast_food", "contact:email": "b2b@onepricecoffee.com", "contact:phone": "+7 495 0153150", "contact:website": "https://onepricecoffee.com/", "cuisine": "coffee_shop", "name": "One Price Coffee", "opening_hours": "Mo-Su 10:00-22:00"}}, {"type": "node", "id": 9504229025, "lat": 55.6562891, "lon": 37.5692752, "tags": {"amenity": "fast_food", "check_date:opening_hours": "2023-08-15", "contact:email": "ask@farshburger.ru", "contact:phone": "+7 499 5037324", "contact:website": "https://farshburger.ru/", "cuisine": "burger", "name": "Farsh", "opening_hours": "Mo-Su 10:00-23:00"}}, {"type": "node", "id": 9899555549, "lat": 55.6563799, "lon": 37.5692537, "tags": {"amenity": "fast_food", "check_date:opening_hours": "2023-08-15", "contact:phone": "+7 985 5733710", "contact:website": "https://www.kartoshka.com/", "cuisine": "potato", "name": "\u041a\u0440\u043e\u0448\u043a\u0430 \u041a\u0430\u0440\u0442\u043e\u0448\u043a\u0430", "opening_hours": "Mo-Su 10:00-22:00"}}, {"type": "node", "id": 10054793473, "lat": 55.65621, "lon": 37.569567, "tags": {"amenity": "fast_food", "check_date": "2023-08-15", "contact:phone": "+7 968 6016003", "contact:website": "https://www.stardogs.ru/", "cuisine": "hot_dog", "name": "Stardogs", "opening_hours": "Mo-Su 10:00-22:00"}}]}