{"version": 0.6, "generator": "Overpass API 0.7.62.1 084b4234", "osm3s": {"timestamp_osm_base": "2024-05-03T01:13:38Z", "copyright": "The data included in this document is from www.openstreetmap.org. The data is made available under ODbL."}, "elements": [{"type": "node", "id": 1380329433, "lat": 56.010071, "lon": 92.8350734}, {"type": "node", "id": 1380329446, "lat": 56.0093657, "lon": 92.8365524}, {"type": "node", "id": 1380329453, "lat": 56.009238, "lon": 92.8359842}, {"type": "node", "id": 1380329456, "lat": 56.0096794, "lon": 92.8360319}, {"type": "node", "id": 1380329468, "lat": 56.0096295, "lon": 92.8351471}, {"type": "node", "id": 1380329471, "lat": 56.0101419, "lon": 92.8364627}, {"type": "node", "id": 1380344244, "lat": 56.009781, "lon": 92.8351173}, {"type": "node", "id": 6514718169, "lat": 56.0092622, "lon": 92.8364052}, {"type": "node", "id": 7598347264, "lat": 56.0094066, "lon": 92.8359616}, {"type": "node", "id": 7598347265, "lat": 56.0094108, "lon": 92.8360726}, {"type": "way", "id": 123906567, "nodes": [1380329433, 1380329471, 1380329446, 6514718169, 1380329453, 7598347264, 7598347265, 1380329456, 1380329468, 1380344244, 1380329433], "tags": {"addr:housenumber": "129", "addr:postcode": "660021", "addr:street": "\u043f\u0440\u043e\u0441\u043f\u0435\u043a\u0442 \u041c\u0438\u0440\u0430", "amenity": "theatre", "building": "public", "building:levels": "4", "email": "pr@muztk.ru", "int_name": "Musical Comedy Theatre", "name": "\u041a\u0440\u0430\u0441\u043d\u043e\u044f\u0440\u0441\u043a\u0438\u0439 \u043c\u0443\u0437\u044b\u043a\u0430\u043b\u044c\u043d\u044b\u0439 \u0442\u0435\u0430\u0442\u0440", "opening_hours": "Mo-Su 10:00-20:00", "operator": "\u041a\u0413\u0410\u0423 \u00ab\u041a\u0440\u0430\u0441\u043d\u043e\u044f\u0440\u0441\u043a\u0438\u0439 \u043c\u0443\u0437\u044b\u043a\u0430\u043b\u044c\u043d\u044b\u0439 \u0442\u0435\u0430\u0442\u0440\u00bb", "phone": "+7 391 2215242", "ref:mkrf_theaters": "13632", "website": "https://www.muztk.ru/"}}]}