{"version": 0.6, "generator": "Overpass API 0.7.62.1 084b4234", "osm3s": {"timestamp_osm_base": "2024-05-03T19:34:30Z", "copyright": "The data included in this document is from www.openstreetmap.org. The data is made available under ODbL."}, "elements": [{"type": "node", "id": 1324159681, "lat": 56.8347883, "lon": 53.2181265, "tags": {"amenity": "bank", "atm": "yes", "bic": "VTBRRUMM", "brand": "\u0412\u0422\u0411", "contact:email": "info@vtb.ru", "contact:facebook": "https://www.facebook.com/vtbgroup", "contact:phone": "+7 800 2007799", "contact:twitter": "https://twitter.com/vtb", "contact:vk": "https://vk.com/vtb24", "contact:website": "https://www.vtb.ru", "contact:youtube": "https://www.youtube.com/user/vtbgroup", "name": "\u0412\u0422\u0411", "name:en": "VTB", "name:ru": "\u0412\u0422\u0411", "operator": "\u0411\u0430\u043d\u043a \u0412\u0422\u0411 (\u043f\u0443\u0431\u043b\u0438\u0447\u043d\u043e\u0435 \u0430\u043a\u0446\u0438\u043e\u043d\u0435\u0440\u043d\u043e\u0435 \u043e\u0431\u0449\u0435\u0441\u0442\u0432\u043e)", "operator:wikidata": "Q1549389", "operator:wikipedia": "ru:\u0411\u0430\u043d\u043a \u0412\u0422\u0411"}}, {"type": "node", "id": 4283937324, "lat": 56.8351374, "lon": 53.2168051}, {"type": "node", "id": 4283937325, "lat": 56.8351264, "lon": 53.2166918}, {"type": "node", "id": 5885380495, "lat": 56.8354478, "lon": 53.2167934}, {"type": "node", "id": 5885380496, "lat": 56.835145, "lon": 53.2168903}, {"type": "node", "id": 5885380507, "lat": 56.8354286, "lon": 53.2165935}, {"type": "way", "id": 623165911, "nodes": [5885380507, 5885380495, 5885380496, 4283937324, 4283937325, 5885380507], "tags": {"amenity": "bank", "bic": "SABRRUMM", "branch": "\u0417\u0430\u043f\u0430\u0434\u043d\u043e-\u0423\u0440\u0430\u043b\u044c\u0441\u043a\u0438\u0439 \u0431\u0430\u043d\u043a", "brand": "\u0421\u0431\u0435\u0440\u0431\u0430\u043d\u043a", "brand:wikidata": "Q205012", "brand:wikipedia": "ru:\u0421\u0431\u0435\u0440\u0431\u0430\u043d\u043a \u0420\u043e\u0441\u0441\u0438\u0438", "building": "yes", "contact:facebook": "https://www.facebook.com/sberbank", "contact:instagram": "https://www.instagram.com/sberbank", "contact:ok": "https://ok.ru/sberbank", "contact:phone": "+7 800 5555550", "contact:twitter": "https://twitter.com/sberbank", "contact:vk": "https://vk.com/sberbank", "contact:website": "https://www.sberbank.ru", "contact:youtube": "https://www.youtube.com/sberbank", "name": "\u0421\u0431\u0435\u0440\u0431\u0430\u043d\u043a", "name:en": "Sberbank", "name:ru": "\u0421\u0431\u0435\u0440\u0431\u0430\u043d\u043a", "opening_hours": "Mo-Fr 09:00-19:00; Sa 10:00-15:00", "operator": "\u041f\u0410\u041e \u0421\u0431\u0435\u0440\u0431\u0430\u043d\u043a", "phone": "+7 495 5005550", "ref": "8618/0138", "website": "https://www.sberbank.ru/"}}]}