{"version": 0.6, "generator": "Overpass API 0.7.62.1 084b4234", "osm3s": {"timestamp_osm_base": "2024-05-03T21:09:45Z", "copyright": "The data included in this document is from www.openstreetmap.org. The data is made available under ODbL."}, "elements": [{"type": "node", "id": 2848807085, "lat": 55.5753819, "lon": 39.5349296, "tags": {"amenity": "cafe", "name": "\u042e\u043d\u043e\u0441\u0442\u044c"}}, {"type": "node", "id": 3081647491, "lat": 55.5747886, "lon": 39.5348374}, {"type": "node", "id": 3081647492, "lat": 55.5747838, "lon": 39.5350351}, {"type": "node", "id": 3081647493, "lat": 55.5746606, "lon": 39.5350279}, {"type": "node", "id": 3081647494, "lat": 55.5746684, "lon": 39.5348226}, {"type": "way", "id": 303766094, "nodes": [3081647491, 3081647492, 3081647493, 3081647494, 3081647491], "tags": {"addr:city": "\u0428\u0430\u0442\u0443\u0440\u0430", "addr:country": "RU", "addr:housenumber": "34\u0410", "addr:postcode": "140700", "addr:street": "\u0421\u043e\u0432\u0435\u0442\u0441\u043a\u0430\u044f \u0443\u043b\u0438\u0446\u0430", "amenity": "cafe", "building": "yes", "name": "\u041c\u0435\u0442\u0435\u043b\u0438\u0446\u0430"}}]}