{"version": 0.6, "generator": "Overpass API 0.7.62.1 084b4234", "osm3s": {"timestamp_osm_base": "2024-05-03T21:54:17Z", "copyright": "The data included in this document is from www.openstreetmap.org. The data is made available under ODbL."}, "elements": [{"type": "node", "id": 6431342532, "lat": 54.9968289, "lon": 73.3565837, "tags": {"amenity": "cafe", "contact:vk": "55coffeeanytime", "cuisine": "coffee_shop", "internet_access": "no", "internet_access:fee": "no", "level": "1", "name": "Coffee anytime", "opening_hours": "Mo-Su 08:00-22:00", "outdoor_seating": "no", "payment:credit_cards": "yes", "payment:debit_cards": "yes", "phone": "+7 3812 63 32 28", "power_supply": "yes", "smoking": "no", "toilets": "no", "website": "https://www.coffee-anytime.ru/", "wheelchair": "yes"}}, {"type": "node", "id": 11204997375, "lat": 54.9970405, "lon": 73.3563537, "tags": {"contact:email": "info@goodvape.ru", "contact:phone": "+7 800 505-36-85", "contact:website": "https://www.good-vape.ru", "name": "Good Vape", "opening_hours": "Mo-Su 09:00-21:00", "shop": "e-cigarette", "wheelchair": "yes"}}, {"type": "node", "id": 11210739737, "lat": 54.997066, "lon": 73.3563257}, {"type": "node", "id": 11210739741, "lat": 54.9969283, "lon": 73.3563961}, {"type": "node", "id": 11210739746, "lat": 54.9970113, "lon": 73.3563862, "tags": {"level": "1", "name": "New Tobacco", "opening_hours": "09:00-20:00", "shop": "e-cigarette", "wheelchair": "yes"}}, {"type": "node", "id": 11210739758, "lat": 54.9968125, "lon": 73.3566018}, {"type": "node", "id": 11210739768, "lat": 54.9967936, "lon": 73.3565501}, {"type": "node", "id": 11210739770, "lat": 54.9969214, "lon": 73.3564083}, {"type": "node", "id": 11210739774, "lat": 54.997045, "lon": 73.3562678}, {"type": "node", "id": 11210739776, "lat": 54.9969403, "lon": 73.3564601}, {"type": "node", "id": 11210739778, "lat": 54.9969497, "lon": 73.3564553}, {"type": "way", "id": 1210115472, "nodes": [11210739758, 6431342532, 11210739776, 11210739770, 11210739768, 11210739758], "tags": {"addr:housenumber": "65/2", "addr:street": "\u0443\u043b\u0438\u0446\u0430 \u041a\u0440\u0430\u0441\u043d\u044b\u0439 \u041f\u0443\u0442\u044c", "building": "kiosk", "building:levels": "1", "window": "no"}}, {"type": "way", "id": 1210115473, "nodes": [11210739778, 11210739746, 11204997375, 11210739737, 11210739774, 11210739741, 11210739778], "tags": {"building": "kiosk", "building:levels": "1", "window": "no"}}]}