{"version": 0.6, "generator": "Overpass API 0.7.62.1 084b4234", "osm3s": {"timestamp_osm_base": "2024-05-03T15:36:02Z", "copyright": "The data included in this document is from www.openstreetmap.org. The data is made available under ODbL."}, "elements": [{"type": "node", "id": 1658831562, "lat": 56.8538155, "lon": 53.2095858}, {"type": "node", "id": 1658831563, "lat": 56.853924, "lon": 53.2107329}, {"type": "node", "id": 1658831564, "lat": 56.8539309, "lon": 53.2095625}, {"type": "node", "id": 1658831567, "lat": 56.854026, "lon": 53.2104944}, {"type": "node", "id": 1658831572, "lat": 56.8548152, "lon": 53.2099463}, {"type": "node", "id": 1658831574, "lat": 56.8548504, "lon": 53.2102569}, {"type": "node", "id": 1658831577, "lat": 56.8549147, "lon": 53.2099196}, {"type": "node", "id": 1658831580, "lat": 56.8549741, "lon": 53.210409}, {"type": "way", "id": 153166650, "nodes": [1658831567, 1658831564, 1658831562, 1658831563, 1658831580, 1658831577, 1658831572, 1658831574, 1658831567], "tags": {"addr:city": "\u0418\u0436\u0435\u0432\u0441\u043a", "addr:housenumber": "223", "addr:postcode": "426008", "addr:street": "\u041f\u0443\u0448\u043a\u0438\u043d\u0441\u043a\u0430\u044f \u0443\u043b\u0438\u0446\u0430", "building": "hotel", "building:levels": "6", "contact:email": "izhevsk@amaks-hotels.ru", "contact:phone": "+7 341 2693000", "contact:vk": "amaksizhevsk", "contact:website": "https://izhevsk.amaks-hotels.ru/", "name": "\u0410\u043c\u0430\u043a\u0441", "name:en": "AMAKS - Central", "name:udm": "AMAKS - \u0426\u0435\u043d\u0442\u0440\u0430\u043b\u044c\u043d\u043e\u0439", "opening_hours": "24/7", "tourism": "hotel"}}]}