{"version": 0.6, "generator": "Overpass API 0.7.62.1 084b4234", "osm3s": {"timestamp_osm_base": "2024-05-03T21:41:59Z", "copyright": "The data included in this document is from www.openstreetmap.org. The data is made available under ODbL."}, "elements": [{"type": "node", "id": 5151924535, "lat": 56.1750308, "lon": 36.9993246, "tags": {"amenity": "fast_food", "brand": "\u0411\u0443\u0440\u0433\u0435\u0440 \u041a\u0438\u043d\u0433", "brand:en": "Burger King", "brand:ru": "\u0411\u0443\u0440\u0433\u0435\u0440 \u041a\u0438\u043d\u0433", "brand:wikidata": "Q177054", "brand:wikipedia": "ru:Burger King", "contact:email": "FeedBack@burgerking.ru", "contact:phone": "+7 495 5445000", "contact:website": "https://burgerkingrus.ru/", "cuisine": "burger", "drive_through": "no", "internet_access": "wlan", "internet_access:fee": "no", "level": "2", "name": "\u0411\u0443\u0440\u0433\u0435\u0440 \u041a\u0438\u043d\u0433", "name:en": "Burger King", "opening_hours": "Mo-Su 10:00-22:00", "outdoor_seating": "no", "ref": "76", "takeaway": "yes"}}, {"type": "node", "id": 5813818054, "lat": 56.1750225, "lon": 36.9992494, "tags": {"amenity": "fast_food", "drive_through": "no", "level": "2", "name": "Wow pizza", "outdoor_seating": "no"}}, {"type": "node", "id": 5813852953, "lat": 56.1750944, "lon": 36.9992549, "tags": {"amenity": "fast_food", "drive_through": "no", "level": "2", "name": "\u041a\u0443\u043b\u0438\u043d\u0430\u0440\u0438\u044f No1", "outdoor_seating": "no"}}, {"type": "node", "id": 5813852954, "lat": 56.1750574, "lon": 36.9992932, "tags": {"amenity": "fast_food", "brand": "\u041a\u0440\u043e\u0448\u043a\u0430 \u041a\u0430\u0440\u0442\u043e\u0448\u043a\u0430", "brand:en": "Kroshka Kartoshka", "brand:ru": "\u041a\u0440\u043e\u0448\u043a\u0430 \u041a\u0430\u0440\u0442\u043e\u0448\u043a\u0430", "brand:wikidata": "Q4241838", "contact:phone": "+7 926 0956560", "contact:website": "https://www.kartoshka.com/", "cuisine": "potato", "drive_through": "no", "level": "2", "name": "\u041a\u0440\u043e\u0448\u043a\u0430 \u041a\u0430\u0440\u0442\u043e\u0448\u043a\u0430", "name:en": "Kroshka Kartoshka", "opening_hours": "Mo-Su 10:00-22:00", "outdoor_seating": "no", "takeaway": "yes"}}, {"type": "node", "id": 6040173530, "lat": 56.1750447, "lon": 36.9994427, "tags": {"amenity": "fast_food", "name": "\u041c\u0430\u043b\u0435\u043d\u044c\u043a\u0438\u0439 \u0422\u043e\u043a\u0438\u043e"}}]}