{"version": 0.6, "generator": "Overpass API 0.7.62.1 084b4234", "osm3s": {"timestamp_osm_base": "2024-05-03T06:07:57Z", "copyright": "The data included in this document is from www.openstreetmap.org. The data is made available under ODbL."}, "elements": [{"type": "node", "id": 1405927446, "lat": 58.6102442, "lon": 49.667583}, {"type": "node", "id": 1405927448, "lat": 58.6102473, "lon": 49.6677814}, {"type": "node", "id": 1405927494, "lat": 58.6104858, "lon": 49.6675694}, {"type": "node", "id": 1405927496, "lat": 58.6104889, "lon": 49.6677677}, {"type": "node", "id": 11834806709, "lat": 58.6102456, "lon": 49.6676762}, {"type": "node", "id": 11834806712, "lat": 58.6102446, "lon": 49.6676074}, {"type": "way", "id": 126905468, "nodes": [1405927494, 1405927446, 11834806712, 11834806709, 1405927448, 1405927496, 1405927494], "tags": {"addr:city": "\u041a\u0438\u0440\u043e\u0432", "addr:country": "RU", "addr:housenumber": "32", "addr:province": "\u041a\u0438\u0440\u043e\u0432\u0441\u043a\u0430\u044f \u043e\u0431\u043b\u0430\u0441\u0442\u044c", "addr:street": "\u0443\u043b\u0438\u0446\u0430 \u041a\u0430\u0440\u043b\u0430 \u041c\u0430\u0440\u043a\u0441\u0430", "building": "commercial", "building:levels": "2"}}]}