{"version": 0.6, "generator": "Overpass API 0.7.62.1 084b4234", "osm3s": {"timestamp_osm_base": "2024-05-02T19:39:02Z", "copyright": "The data included in this document is from www.openstreetmap.org. The data is made available under ODbL."}, "elements": [{"type": "node", "id": 1077336496, "lat": 55.7489802, "lon": 49.208807}, {"type": "node", "id": 1277148602, "lat": 55.7491101, "lon": 49.209041}, {"type": "node", "id": 1277148605, "lat": 55.7488798, "lon": 49.2089828}, {"type": "node", "id": 1277148608, "lat": 55.7490096, "lon": 49.2092169}, {"type": "node", "id": 9992530638, "lat": 55.749395, "lon": 49.208477, "tags": {"amenity": "fast_food", "contact:phone": "+7 341 2908292;+7 800 3334130", "contact:website": "https://coffee-like.com/", "cuisine": "coffee_shop", "name": "Coffee Like", "opening_hours": "Mo-Su 07:00-19:30"}}, {"type": "node", "id": 11607538869, "lat": 55.7487202, "lon": 49.2080808, "tags": {"amenity": "fast_food", "name": "\u0427\u0435\u0431\u0443\u0440\u0435\u043a\u043c\u0438", "opening_hours": "Mo-Su 09:00-21:00"}}, {"type": "way", "id": 112338052, "nodes": [1277148602, 1077336496, 1277148605, 1277148608, 1277148602], "tags": {"addr:city": "\u041a\u0430\u0437\u0430\u043d\u044c", "addr:country": "RU", "addr:housenumber": "66\u0410", "addr:street": "\u0443\u043b\u0438\u0446\u0430 \u0420\u0438\u0445\u0430\u0440\u0434\u0430 \u0417\u043e\u0440\u0433\u0435", "amenity": "fast_food", "brand": "\u0412\u043a\u0443\u0441\u043d\u043e \u2014 \u0438 \u0442\u043e\u0447\u043a\u0430", "brand:en": "Vkusno i tochka", "brand:ru": "\u0412\u043a\u0443\u0441\u043d\u043e \u2014 \u0438 \u0442\u043e\u0447\u043a\u0430", "brand:wikidata": "Q112406961", "building": "retail", "check_date": "2022-09-30", "contact:phone": "+7 843 2085325", "contact:website": "https://vkusnoitochka.ru/", "cuisine": "burger", "name": "\u0412\u043a\u0443\u0441\u043d\u043e \u2014 \u0438 \u0442\u043e\u0447\u043a\u0430", "name:en": "Vkusno i tochka", "name:ru": "\u0412\u043a\u0443\u0441\u043d\u043e \u2014 \u0438 \u0442\u043e\u0447\u043a\u0430", "opening_hours": "00:00-05:00,06:00-24:00", "operator": "\u041e\u041e\u041e \"\u0421\u041f\u041f\"", "smoking": "no", "takeaway": "yes", "toilets:wheelchair": "yes", "wheelchair": "yes", "wheelchair:description": "\u043e\u0442\u0441\u0443\u0442\u0441\u0442\u0432\u0443\u0435\u0442 \u043f\u0430\u0440\u043a\u043e\u0432\u043a\u0430, \u043e\u0447\u0435\u043d\u044c \u043c\u0430\u043b\u043e \u043c\u0435\u0441\u0442\u043e \u0434\u043b\u044f \u0430\u0432\u0442\u043e"}}]}