{"version": 0.6, "generator": "Overpass API 0.7.62.1 084b4234", "osm3s": {"timestamp_osm_base": "2024-05-03T04:25:29Z", "copyright": "The data included in this document is from www.openstreetmap.org. The data is made available under ODbL."}, "elements": [{"type": "node", "id": 566132539, "lat": 43.5860908, "lon": 39.7231104}, {"type": "node", "id": 566132540, "lat": 43.5861329, "lon": 39.7231442}, {"type": "node", "id": 566132542, "lat": 43.5860829, "lon": 39.7233582}, {"type": "node", "id": 566132545, "lat": 43.5860112, "lon": 39.723303}, {"type": "node", "id": 566132549, "lat": 43.5857654, "lon": 39.7235902}, {"type": "node", "id": 566132555, "lat": 43.5858579, "lon": 39.7236632}, {"type": "node", "id": 652631821, "lat": 43.586136, "lon": 39.7229984}, {"type": "node", "id": 653909361, "lat": 43.5860465, "lon": 39.7229219}, {"type": "node", "id": 1149825582, "lat": 43.5859076, "lon": 39.7235464}, {"type": "node", "id": 1149825586, "lat": 43.5859582, "lon": 39.7234275}, {"type": "node", "id": 1149825633, "lat": 43.5859069, "lon": 39.7232537}, {"type": "way", "id": 44573582, "nodes": [566132549, 566132555, 1149825582, 1149825586, 566132545, 566132542, 566132540, 566132539, 652631821, 653909361, 1149825633, 566132549], "tags": {"addr:city": "\u0421\u043e\u0447\u0438", "addr:country": "RU", "addr:housenumber": "26\u0410", "addr:street": "\u0421\u043e\u0432\u0435\u0442\u0441\u043a\u0430\u044f \u0443\u043b\u0438\u0446\u0430", "amenity": "university", "building": "university", "building:levels": "1", "name:de": "Staatliche Universit\u00e4t Sotschi", "name:en": "Sochi State University", "name:ru": "\u0421\u043e\u0447\u0438\u043d\u0441\u043a\u0438\u0439 \u0433\u043e\u0441\u0443\u0434\u0430\u0440\u0441\u0442\u0432\u0435\u043d\u043d\u044b\u0439 \u0443\u043d\u0438\u0432\u0435\u0440\u0441\u0438\u0442\u0435\u0442", "name:uk": "\u0421\u043e\u0447\u0438\u043d\u0441\u044c\u043a\u0438\u0439 \u0434\u0435\u0440\u0436\u0430\u0432\u043d\u0438\u0439 \u0443\u043d\u0456\u0432\u0435\u0440\u0441\u0438\u0442\u0435\u0442", "short_name": "\u0421\u0413\u0423", "wikidata": "Q2695574", "wikipedia": "ru:\u0421\u043e\u0447\u0438\u043d\u0441\u043a\u0438\u0439 \u0433\u043e\u0441\u0443\u0434\u0430\u0440\u0441\u0442\u0432\u0435\u043d\u043d\u044b\u0439 \u0443\u043d\u0438\u0432\u0435\u0440\u0441\u0438\u0442\u0435\u0442"}}]}