{"version": 0.6, "generator": "Overpass API 0.7.62.1 084b4234", "osm3s": {"timestamp_osm_base": "2024-05-02T20:07:20Z", "copyright": "The data included in this document is from www.openstreetmap.org. The data is made available under ODbL."}, "elements": [{"type": "node", "id": 3229185905, "lat": 52.9789331, "lon": 49.7080879, "tags": {"amenity": "atm", "brand": "\u0410\u043b\u044c\u0444\u0430-\u0411\u0430\u043d\u043a", "brand:en": "Alfa-Bank", "brand:ru": "\u0410\u043b\u044c\u0444\u0430-\u0411\u0430\u043d\u043a", "brand:wikidata": "Q1377835", "drive_through": "no", "opening_hours": "Mo-Su 00:00-01:00,07:30-24:00", "operator": "\u0410\u043b\u044c\u0444\u0430-\u0411\u0430\u043d\u043a", "operator:wikidata": "Q1377835", "website": "https://alfabank.ru/"}}, {"type": "node", "id": 3229185906, "lat": 52.9789192, "lon": 49.7081253, "tags": {"amenity": "atm", "brand": "\u0413\u0430\u0437\u043f\u0440\u043e\u043c\u0431\u0430\u043d\u043a", "brand:en": "Gazprombank", "brand:wikidata": "Q1924338", "drive_through": "no", "opening_hours": "Mo-Su 00:00-01:00,07:30-24:00", "operator": "\u0413\u0430\u0437\u043f\u0440\u043e\u043c\u0431\u0430\u043d\u043a", "operator:wikidata": "Q1924338", "website": "https://www.gazprombank.ru/"}}, {"type": "node", "id": 3229185907, "lat": 52.9789052, "lon": 49.7081627, "tags": {"amenity": "atm", "brand": "\u0421\u0431\u0435\u0440\u0431\u0430\u043d\u043a", "brand:en": "Sberbank", "brand:ru": "\u0421\u0431\u0435\u0440\u0431\u0430\u043d\u043a", "brand:wikidata": "Q205012", "drive_through": "no", "opening_hours": "Mo-Su 00:00-01:00,07:30-24:00", "operator": "\u0421\u0431\u0435\u0440\u0431\u0430\u043d\u043a", "operator:wikidata": "Q205012", "website": "https://www.sberbank.ru/"}}, {"type": "node", "id": 6768958853, "lat": 52.9788774, "lon": 49.7082374, "tags": {"amenity": "atm", "brand": "\u0412\u0422\u0411", "brand:en": "VTB Bank", "brand:wikidata": "Q1549389", "drive_through": "no", "opening_hours": "Mo-Su 00:00-01:00,07:30-24:00", "operator": "\u0412\u0422\u0411", "operator:wikidata": "Q1549389"}}, {"type": "node", "id": 6777061174, "lat": 52.978947, "lon": 49.7080505, "tags": {"amenity": "atm", "brand": "\u041f\u0440\u043e\u043c\u0441\u0432\u044f\u0437\u044c\u0431\u0430\u043d\u043a", "brand:en": "Promsvyazbank", "brand:wikidata": "Q649100", "contact:email": "info@psbank.ru", "contact:phone": "+7 495 7873333;+7 800 3330303", "contact:website": "https://psbank.ru/", "name:en": "Promsvyazbank", "opening_hours": "Mo-Su 09:00-20:00", "operator": "\u041f\u0440\u043e\u043c\u0441\u0432\u044f\u0437\u044c\u0431\u0430\u043d\u043a", "operator:wikidata": "Q649100"}}, {"type": "node", "id": 6784407309, "lat": 52.9788913, "lon": 49.7082, "tags": {"amenity": "atm", "brand": "\u0412\u0441\u0435\u0440\u043e\u0441\u0441\u0438\u0439\u0441\u043a\u0438\u0439 \u0431\u0430\u043d\u043a \u0440\u0430\u0437\u0432\u0438\u0442\u0438\u044f \u0440\u0435\u0433\u0438\u043e\u043d\u043e\u0432", "contact:website": "https://www.vbrr.ru/", "drive_through": "no", "opening_hours": "Mo-Su 00:00-01:00,07:30-24:00"}}, {"type": "node", "id": 6784407310, "lat": 52.9788635, "lon": 49.7082748, "tags": {"amenity": "atm", "brand": "\u0421\u0431\u0435\u0440\u0431\u0430\u043d\u043a", "brand:en": "Sberbank", "brand:ru": "\u0421\u0431\u0435\u0440\u0431\u0430\u043d\u043a", "brand:wikidata": "Q205012", "drive_through": "no", "opening_hours": "Mo-Su 00:00-01:00,07:30-24:00", "operator": "\u0421\u0431\u0435\u0440\u0431\u0430\u043d\u043a", "operator:wikidata": "Q205012", "website": "https://www.sberbank.ru/"}}, {"type": "node", "id": 9221097036, "lat": 52.978732, "lon": 49.707845, "tags": {"addr:full": "\u0433. \u0427\u0430\u043f\u0430\u0435\u0432\u0441\u043a, \u0443\u043b. \u041a\u0443\u0439\u0431\u044b\u0448\u0435\u0432\u0430, \u0434. 25", "amenity": "atm", "brand": "\u0412\u0411\u0420\u0420", "opening_hours": "9:00-23:00", "operator": "\u0412\u0411\u0420\u0420"}}]}