{"version": 0.6, "generator": "Overpass API 0.7.62.1 084b4234", "osm3s": {"timestamp_osm_base": "2024-05-03T01:24:52Z", "copyright": "The data included in this document is from www.openstreetmap.org. The data is made available under ODbL."}, "elements": [{"type": "node", "id": 2159393496, "lat": 53.0571454, "lon": 158.6351814, "tags": {"amenity": "cafe", "name": "\u0421\u0438\u043d\u043d\u0430\u0431\u043e\u043d", "name:en": "Cinnabon"}}, {"type": "node", "id": 4459844490, "lat": 53.055804, "lon": 158.6370034, "tags": {"amenity": "cafe", "cuisine": "chicken", "name": "Smike chicken", "opening_hours": "Mo-Su 10:00-21:00"}}, {"type": "node", "id": 4459844491, "lat": 53.0557666, "lon": 158.6369632, "tags": {"amenity": "cafe", "cuisine": "burger", "name": "Burger club", "opening_hours": "Mo-Su 10:00-21:00"}}, {"type": "node", "id": 4459850889, "lat": 53.0557281, "lon": 158.6369009, "tags": {"amenity": "cafe", "cuisine": "asian", "name": "\u0412\u041e\u041a\u041a\u0415\u0420", "opening_hours": "Mo-Su 10:00-21:00"}}, {"type": "node", "id": 6690633292, "lat": 53.0564355, "lon": 158.6362749, "tags": {"amenity": "cafe", "contact:email": "horeca@33pingvina.ru", "contact:phone": "+7 800 1005033", "contact:website": "https://33pingvina.ru/", "cuisine": "ice_cream", "name": "33 \u043f\u0438\u043d\u0433\u0432\u0438\u043d\u0430", "opening_hours": "Mo-Su 10:00-19:00", "operator": "\u0418\u043d\u0442\u0435\u0440\u043e\u043f\u0442", "shop": "ice_cream"}}]}