{"version": 0.6, "generator": "Overpass API 0.7.62.1 084b4234", "osm3s": {"timestamp_osm_base": "2024-05-02T19:30:01Z", "copyright": "The data included in this document is from www.openstreetmap.org. The data is made available under ODbL."}, "elements": [{"type": "node", "id": 3280380347, "lat": 59.1976176, "lon": 39.8609149}, {"type": "node", "id": 3280380348, "lat": 59.1977107, "lon": 39.8606752}, {"type": "node", "id": 3280380349, "lat": 59.1978316, "lon": 39.8612317}, {"type": "node", "id": 3280380350, "lat": 59.1978752, "lon": 39.8609511}, {"type": "node", "id": 3434880848, "lat": 59.1978832, "lon": 39.8609305}, {"type": "node", "id": 3434880849, "lat": 59.1979167, "lon": 39.8610125}, {"type": "node", "id": 10135996622, "lat": 59.1976739, "lon": 39.8607698, "tags": {"access": "yes", "entrance": "main", "wheelchair": "limited"}}, {"type": "way", "id": 321294840, "nodes": [3280380348, 3434880848, 3280380350, 3434880849, 3280380349, 3280380347, 10135996622, 3280380348], "tags": {"addr:city": "\u0412\u043e\u043b\u043e\u0433\u0434\u0430", "addr:country": "RU", "addr:housenumber": "20", "addr:street": "\u041f\u043e\u0448\u0435\u0445\u043e\u043d\u0441\u043a\u043e\u0435 \u0448\u043e\u0441\u0441\u0435", "amenity": "fast_food", "building": "retail", "building:levels": "1", "contact:phone": "+7 495 1809999", "contact:vk": "https://vk.com/vkusno_itochka", "contact:website": "https://vkusnoitochka.ru", "cuisine": "burger", "diet:vegetarian": "no", "name": "\u0412\u043a\u0443\u0441\u043d\u043e - \u0438 \u0442\u043e\u0447\u043a\u0430", "name:ru": "\u0412\u043a\u0443\u0441\u043d\u043e - \u0438 \u0442\u043e\u0447\u043a\u0430", "old_name": "\u041c\u0430\u043a\u0434\u043e\u043d\u0430\u043b\u0434\u0441", "old_name:en": "McDonald's", "opening_hours": "Mo-Su 07:00-23:00", "takeaway": "yes"}}]}