{"version": 0.6, "generator": "Overpass API 0.7.62.1 084b4234", "osm3s": {"timestamp_osm_base": "2024-05-03T12:43:56Z", "copyright": "The data included in this document is from www.openstreetmap.org. The data is made available under ODbL."}, "elements": [{"type": "node", "id": 1479223765, "lat": 57.9781079, "lon": 56.187695}, {"type": "node", "id": 1479223770, "lat": 57.9782214, "lon": 56.1875761}, {"type": "node", "id": 1479223772, "lat": 57.9782352, "lon": 56.1881272}, {"type": "node", "id": 1479223777, "lat": 57.9783487, "lon": 56.1880083}, {"type": "node", "id": 11155848031, "lat": 57.9779194, "lon": 56.1895214, "tags": {"amenity": "fast_food", "contact:email": "info@alendvic.ru", "contact:phone": "+7 342 2065222;+7 342 2233340-753", "contact:website": "http://sfc-chicken.ru", "name": "Southern Fried Chicken", "opening_hours": "Mo-Su 10:00-22:00"}}, {"type": "node", "id": 11183935189, "lat": 57.9780091, "lon": 56.1894694, "tags": {"addr:city": "\u041f\u0435\u0440\u043c\u044c", "addr:housenumber": "41/1", "addr:postcode": "614095", "addr:street": "\u0443\u043b\u0438\u0446\u0430 \u041c\u0438\u0440\u0430", "amenity": "fast_food", "contact:phone": "+7 342 221-89-51", "cuisine": "dumpling", "name": "\u041f\u0435\u043b\u044c\u043c\u0435\u0448\u043a\u0438 \u0434\u0430 \u0412\u0430\u0440\u0435\u043d\u0438\u043a\u0438 \u042d\u043a\u0441\u043f\u0440\u0435\u0441\u0441", "opening_hours": "Mo-Su 10:00-22:00", "website": "https://dostavka-alendvic.ru/"}}, {"type": "node", "id": 11304186377, "lat": 57.9780431, "lon": 56.1894168, "tags": {"amenity": "fast_food", "contact:email": "info@alendvic.ru", "contact:phone": "+7 342 2077504;+7 342 2218508;+7 342 2218951", "contact:website": "https://alendvic.ru", "name": "\u041f\u043e\u043a\u0435-maN", "opening_hours": "Mo-Su 10:00-22:00"}}, {"type": "node", "id": 11563984182, "lat": 57.9776928, "lon": 56.1889946, "tags": {"amenity": "fast_food", "contact:email": "info@alendvic.ru", "contact:phone": "+7 342 2233340", "contact:website": "https://alendvic.ru", "name": "\u041a\u0440\u0435\u043f & \u0421\u0443\u043f", "opening_hours": "Mo-Su 10:00-22:00"}}, {"type": "node", "id": 11792817461, "lat": 57.9775728, "lon": 56.1898987, "tags": {"amenity": "fast_food", "contact:email": "info@alendvic.ru", "contact:phone": "+7 342 2218508", "contact:website": "https://alendvic.ru", "name": "Viva la Pizza", "opening_hours": "Mo-Su 10:00-22:00"}}, {"type": "way", "id": 134556871, "nodes": [1479223770, 1479223777, 1479223772, 1479223765, 1479223770], "tags": {"addr:country": "RU", "addr:housenumber": "37\u0410", "addr:street": "\u0443\u043b\u0438\u0446\u0430 \u041c\u0438\u0440\u0430", "air_conditioning": "yes", "alt_name": "\u0412\u043a\u0443\u0441\u043d\u043e \u0438 \u0442\u043e\u0447\u043a\u0430", "amenity": "fast_food", "brand": "\u0412\u043a\u0443\u0441\u043d\u043e \u2014 \u0438 \u0442\u043e\u0447\u043a\u0430", "brand:en": "Vkusno i tochka", "brand:ru": "\u0412\u043a\u0443\u0441\u043d\u043e \u2014 \u0438 \u0442\u043e\u0447\u043a\u0430", "brand:wikidata": "Q112406961", "brand:wikipedia": "en:McDonald\u2019s", "building": "retail", "building:levels": "1", "contact:facebook": "https://www.facebook.com/mcdonaldsrussia", "contact:phone": "+7 342 255-31-38", "contact:website": "https://mcdonalds.ru", "cuisine": "burger", "indoor_seating": "yes", "int_name": "McDonald's", "name": "\u0412\u043a\u0443\u0441\u043d\u043e \u2014 \u0438 \u0442\u043e\u0447\u043a\u0430", "name:de": "McDonald's", "name:en": "Vkusno i tochka", "name:ru": "\u0412\u043a\u0443\u0441\u043d\u043e \u2014 \u0438 \u0442\u043e\u0447\u043a\u0430", "opening_hours": "07:00-24:00", "operator": "\u041c\u0430\u043a\u0434\u043e\u043d\u0430\u043b\u0434\u0441", "operator:en": "McDonald's", "operator:ru": "\u041c\u0430\u043a\u0434\u043e\u043d\u0430\u043b\u0434\u0441", "outdoor_seating": "yes", "roof:shape": "flat", "smoking": "no", "start_date": "2011-12-29", "takeaway": "yes"}}]}