{"version": 0.6, "generator": "Overpass API 0.7.62.1 084b4234", "osm3s": {"timestamp_osm_base": "2024-05-02T23:51:54Z", "copyright": "The data included in this document is from www.openstreetmap.org. The data is made available under ODbL."}, "elements": [{"type": "node", "id": 4646377580, "lat": 43.1683985, "lon": 131.9365214}, {"type": "node", "id": 4646377922, "lat": 43.1686467, "lon": 131.9354435}, {"type": "node", "id": 6862445836, "lat": 43.1688219, "lon": 131.9355192}, {"type": "node", "id": 7607253121, "lat": 43.168458, "lon": 131.9365471}, {"type": "node", "id": 7607253122, "lat": 43.1685739, "lon": 131.9365972}, {"type": "way", "id": 470448972, "nodes": [4646377922, 6862445836, 7607253122, 7607253121, 4646377580, 4646377922], "tags": {"addr:city": "\u0412\u043b\u0430\u0434\u0438\u0432\u043e\u0441\u0442\u043e\u043a", "addr:country": "RU", "addr:housenumber": "87\u0412", "addr:postcode": "690105", "addr:street": "\u0420\u0443\u0441\u0441\u043a\u0430\u044f \u0443\u043b\u0438\u0446\u0430", "building": "commercial", "building:levels": "2", "name": "\u0422\u0426 \u0411\u0430\u0433\u0440\u0430\u0442\u0438\u043e\u043d", "smoking": "outside", "source": "yahoo;knowledge"}}]}