{"version": 0.6, "generator": "Overpass API 0.7.62.1 084b4234", "osm3s": {"timestamp_osm_base": "2024-05-03T00:04:56Z", "copyright": "The data included in this document is from www.openstreetmap.org. The data is made available under ODbL."}, "elements": [{"type": "node", "id": 2563143435, "lat": 53.8726479, "lon": 86.6353272}, {"type": "node", "id": 2563143436, "lat": 53.8726519, "lon": 86.6354081}, {"type": "node", "id": 2563143437, "lat": 53.872699, "lon": 86.63532}, {"type": "node", "id": 2563143438, "lat": 53.872703, "lon": 86.6354008}, {"type": "node", "id": 4702679689, "lat": 53.8727619, "lon": 86.6353415, "tags": {"amenity": "fast_food", "name": "\u0421\u043d\u0435\u0436\u043d\u044b\u0439 \u0433\u043e\u0440\u043e\u0434\u043e\u043a", "name:ru": "\u0421\u043d\u0435\u0436\u043d\u044b\u0439 \u0433\u043e\u0440\u043e\u0434\u043e\u043a"}}, {"type": "node", "id": 10937834354, "lat": 53.8723588, "lon": 86.637513, "tags": {"amenity": "fast_food", "contact:phone": "+7 923 6045777", "contact:website": "https://prkp.grill1.org/", "name": "\u0413\u0440\u0438\u043b\u044c \u21161", "opening_hours": "Mo-Su 10:00-23:00"}}, {"type": "way", "id": 249752091, "nodes": [2563143437, 2563143438, 2563143436, 2563143435, 2563143437], "tags": {"addr:city": "\u041f\u0440\u043e\u043a\u043e\u043f\u044c\u0435\u0432\u0441\u043a", "addr:country": "RU", "addr:housenumber": "34/1", "addr:street": "\u043f\u0440\u043e\u0441\u043f\u0435\u043a\u0442 \u0413\u0430\u0433\u0430\u0440\u0438\u043d\u0430", "amenity": "fast_food", "building": "public", "building:levels": "1", "cuisine": "burger", "internet_access": "no", "internet_access:fee": "no", "name": "\u041f\u043e\u0434\u043e\u0440\u043e\u0436\u043d\u0438\u043a", "opening_hours": "24/7", "operator": "\u041e\u041e\u041e \u00ab\u041c\u0430\u0440\u043a\u0430 \u041f\u043e\u0434\u043e\u0440\u043e\u0436\u043d\u0438\u043a\u00bb", "phone": "+7 800 2000735", "smoking": "no", "website": "https://www.podorognik.ru/"}}]}