{"version": 0.6, "generator": "Overpass API 0.7.62.1 084b4234", "osm3s": {"timestamp_osm_base": "2024-05-02T22:43:13Z", "copyright": "The data included in this document is from www.openstreetmap.org. The data is made available under ODbL."}, "elements": [{"type": "node", "id": 1396583007, "lat": 56.4606229, "lon": 84.972465}, {"type": "node", "id": 3417460545, "lat": 56.4606858, "lon": 84.9726358}, {"type": "node", "id": 3417460546, "lat": 56.460716, "lon": 84.9725994}, {"type": "node", "id": 3417460547, "lat": 56.4607219, "lon": 84.9726529}, {"type": "node", "id": 3417460548, "lat": 56.4607314, "lon": 84.9726414}, {"type": "node", "id": 3417460549, "lat": 56.4607461, "lon": 84.9727189}, {"type": "node", "id": 3417460550, "lat": 56.4607597, "lon": 84.9727025}, {"type": "node", "id": 5967766633, "lat": 56.4612175, "lon": 84.9721506}, {"type": "node", "id": 5967766635, "lat": 56.4611755, "lon": 84.9720365}, {"type": "node", "id": 5967766636, "lat": 56.461115, "lon": 84.9718719}, {"type": "way", "id": 125833461, "nodes": [5967766633, 3417460550, 3417460549, 3417460547, 3417460548, 3417460546, 3417460545, 1396583007, 5967766636, 5967766635, 5967766633], "tags": {"addr:city": "\u0422\u043e\u043c\u0441\u043a", "addr:country": "RU", "addr:housenumber": "122\u0413", "addr:postcode": "634034", "addr:street": "\u041a\u0440\u0430\u0441\u043d\u043e\u0430\u0440\u043c\u0435\u0439\u0441\u043a\u0430\u044f \u0443\u043b\u0438\u0446\u0430", "building": "retail", "building:levels": "2", "height": "5.5", "source": "Bing"}}]}