{"version": 0.6, "generator": "Overpass API 0.7.62.1 084b4234", "osm3s": {"timestamp_osm_base": "2024-05-04T00:09:18Z", "copyright": "The data included in this document is from www.openstreetmap.org. The data is made available under ODbL."}, "elements": [{"type": "node", "id": 442025096, "lat": 53.3427428, "lon": 83.6842556}, {"type": "node", "id": 442025097, "lat": 53.3424087, "lon": 83.6841603}, {"type": "node", "id": 442025099, "lat": 53.3422117, "lon": 83.6853377}, {"type": "node", "id": 442025100, "lat": 53.342621, "lon": 83.6854544}, {"type": "node", "id": 4750876566, "lat": 53.3422989, "lon": 83.6844798}, {"type": "node", "id": 4750876567, "lat": 53.342374, "lon": 83.6845012}, {"type": "way", "id": 37695557, "nodes": [442025096, 442025097, 4750876567, 4750876566, 442025099, 442025100, 442025096], "tags": {"addr:city": "\u0411\u0430\u0440\u043d\u0430\u0443\u043b", "addr:country": "RU", "addr:housenumber": "251\u0414", "addr:region": "\u0410\u043b\u0442\u0430\u0439\u0441\u043a\u0438\u0439 \u043a\u0440\u0430\u0439", "addr:street": "\u041f\u0430\u0432\u043b\u043e\u0432\u0441\u043a\u0438\u0439 \u0442\u0440\u0430\u043a\u0442", "building": "office", "building:levels": "2", "name": "\u0410\u041d\u0422", "shop": "car"}}]}