{"version": 0.6, "generator": "Overpass API 0.7.62.1 084b4234", "osm3s": {"timestamp_osm_base": "2024-05-03T01:02:31Z", "copyright": "The data included in this document is from www.openstreetmap.org. The data is made available under ODbL."}, "elements": [{"type": "node", "id": 2533561909, "lat": 59.8494757, "lon": 30.1449283, "tags": {"amenity": "cafe", "cuisine": "regional", "internet_access": "yes", "level": "1", "name": "Batista", "opening_hours": "Mo-Su 10:00-22:00", "smoking": "outside"}}, {"type": "node", "id": 8039532837, "lat": 59.8491402, "lon": 30.1430015, "tags": {"amenity": "cafe", "brand": "\u0411\u0440\u0438\u0442\u0430\u043d\u0441\u043a\u0438\u0435 \u043f\u0435\u043a\u0430\u0440\u043d\u0438", "brand:en": "British bakery", "brand:wikidata": "Q110236478", "contact:facebook": "https://www.facebook.com/British-Bakery-545013345603637/", "contact:instagram": "https://www.instagram.com/britishbakery/", "contact:phone": "+78123634383", "contact:vk": "https://vk.com/club46155943", "contact:website": "https://british-bakery.ru", "cuisine": "cake;breakfast;coffee_shop;tea", "level": "1", "name": "\u0411\u0440\u0438\u0442\u0430\u043d\u0441\u043a\u0438\u0435 \u043f\u0435\u043a\u0430\u0440\u043d\u0438", "name:en": "British bakery", "name:ru": "\u0411\u0440\u0438\u0442\u0430\u043d\u0441\u043a\u0438\u0435 \u043f\u0435\u043a\u0430\u0440\u043d\u0438", "opening_hours": "10:00-22:00", "shop": "bakery", "takeaway": "yes", "wheelchair": "no"}}, {"type": "node", "id": 8839206210, "lat": 59.8495344, "lon": 30.1444647, "tags": {"amenity": "cafe", "contact:email": "chaihana@pahvala.ru", "contact:phone": "+7 812 3398878", "contact:website": "https://pahvala.ru/", "level": "3", "name": "\u041f\u0430\u0445\u0432\u0430\u043b\u0430", "opening_hours": "Fr-Sa 12:00-03:00; Mo-Th,Su 12:00-23:00"}}, {"type": "node", "id": 9254716011, "lat": 59.8485326, "lon": 30.1458484}, {"type": "node", "id": 9254716012, "lat": 59.8485328, "lon": 30.1459685}, {"type": "node", "id": 9254716013, "lat": 59.8485631, "lon": 30.1459684}, {"type": "node", "id": 9254716014, "lat": 59.848563, "lon": 30.1458483}, {"type": "node", "id": 10699183492, "lat": 59.8495358, "lon": 30.1425254, "tags": {"addr:postcode": "196158", "air_conditioning": "yes", "amenity": "cafe", "bar": "no", "brand": "\u0411\u0443\u0448\u0435", "brand:wikidata": "Q110044050", "contact:facebook": "bushe.bakery", "contact:instagram": "bushe.bakery", "contact:ok": "bushe.bakery", "contact:vk": "bushe.bakery", "contact:website": "https://bushe.ru", "contact:youtube": "BusheBakery", "cuisine": "coffee_shop;dessert;sandwich", "email": "info@bushe.ru", "name": "\u0411\u0443\u0448\u0435", "name:en": "Bushe", "name:fr": "Bouch\u00e9e", "name:ru": "\u0411\u0443\u0448\u0435", "opening_hours": "09:00-22:00", "payment:cash": "yes", "payment:maestro": "yes", "payment:mastercard": "yes", "payment:visa": "yes", "payment:visa_electron": "yes", "phone": "+7 812 6406006", "shop": "bakery", "takeaway": "yes"}}, {"type": "way", "id": 1002818254, "nodes": [9254716011, 9254716012, 9254716013, 9254716014, 9254716011], "tags": {"amenity": "cafe", "building": "yes", "check_date": "2022-07-15", "indoor_seating": "yes", "name": "Coffee SOS", "opening_hours": "Mo-Fr 09:00-22:00; Sa,Su 10:00-22:00", "outdoor_seating": "yes", "payment:credit_cards": "yes", "payment:debit_cards": "yes", "payment:mastercard": "yes", "payment:visa": "yes", "wheelchair": "yes"}}]}