{"version": 0.6, "generator": "Overpass API 0.7.62.1 084b4234", "osm3s": {"timestamp_osm_base": "2024-05-02T22:16:48Z", "copyright": "The data included in this document is from www.openstreetmap.org. The data is made available under ODbL."}, "elements": [{"type": "node", "id": 1306684853, "lat": 55.7697562, "lon": 38.4339433}, {"type": "node", "id": 1306684854, "lat": 55.7695921, "lon": 38.4339769}, {"type": "node", "id": 1306684855, "lat": 55.7696218, "lon": 38.4344342}, {"type": "node", "id": 1306684856, "lat": 55.7697859, "lon": 38.4344005}, {"type": "node", "id": 1794639064, "lat": 55.7696143, "lon": 38.4343187}, {"type": "node", "id": 10992547961, "lat": 55.7710529, "lon": 38.4340271, "tags": {"amenity": "fast_food", "brand": "\u0414\u043e\u0434\u043e \u041f\u0438\u0446\u0446\u0430", "brand:en": "Dodo Pizza", "brand:ru": "\u0414\u043e\u0434\u043e \u041f\u0438\u0446\u0446\u0430", "brand:wikidata": "Q61949318", "cuisine": "pizza", "name": "\u0414\u043e\u0434\u043e \u041f\u0438\u0446\u0446\u0430", "name:en": "Dodo Pizza", "takeaway": "yes", "website": "https://dodopizza.ru"}}, {"type": "way", "id": 115726529, "nodes": [1306684856, 1306684855, 1794639064, 1306684854, 1306684853, 1306684856], "tags": {"addr:country": "RU", "addr:housenumber": "6", "addr:street": "\u0443\u043b\u0438\u0446\u0430 \u042f\u043b\u0430\u0433\u0438\u043d\u0430", "amenity": "fast_food", "building": "yes", "contact:email": "info@qsrsystem.ru", "contact:phone": "+7 496 5733691", "contact:website": "https://vkusnoitochka.ru/", "cuisine": "burger", "diet:vegetarian": "no", "name": "\u0412\u043a\u0443\u0441\u043d\u043e \u2014 \u0438 \u0442\u043e\u0447\u043a\u0430", "old_name": "\u041c\u0430\u043a\u0434\u043e\u043d\u0430\u043b\u0434\u0441", "old_name:en": "McDonald\u2019s", "smoking": "no", "takeaway": "yes"}}]}