{"version": 0.6, "generator": "Overpass API 0.7.62.1 084b4234", "osm3s": {"timestamp_osm_base": "2024-05-03T10:20:15Z", "copyright": "The data included in this document is from www.openstreetmap.org. The data is made available under ODbL."}, "elements": [{"type": "node", "id": 1419878382, "lat": 52.2604393, "lon": 104.3118499}, {"type": "node", "id": 1419878387, "lat": 52.260724, "lon": 104.311807}, {"type": "node", "id": 1419878440, "lat": 52.2605565, "lon": 104.3113647}, {"type": "node", "id": 1419878512, "lat": 52.2607991, "lon": 104.3116022}, {"type": "node", "id": 1419878561, "lat": 52.260564, "lon": 104.3119718}, {"type": "node", "id": 1419878784, "lat": 52.2606507, "lon": 104.3117352}, {"type": "node", "id": 8013473789, "lat": 52.2604727, "lon": 104.3117589}, {"type": "node", "id": 8013473790, "lat": 52.260428, "lon": 104.3117151}, {"type": "node", "id": 10957427092, "lat": 52.260773, "lon": 104.3116732}, {"type": "node", "id": 10957427093, "lat": 52.2605969, "lon": 104.311882}, {"type": "way", "id": 128489316, "nodes": [1419878440, 8013473790, 8013473789, 1419878382, 1419878561, 10957427093, 1419878784, 1419878387, 10957427092, 1419878512, 1419878440], "tags": {"addr:city": "\u0418\u0440\u043a\u0443\u0442\u0441\u043a", "addr:country": "RU", "addr:housenumber": "130\u0410", "addr:region": "\u0418\u0440\u043a\u0443\u0442\u0441\u043a\u0430\u044f \u043e\u0431\u043b\u0430\u0441\u0442\u044c", "addr:street": "\u0411\u0430\u0439\u043a\u0430\u043b\u044c\u0441\u043a\u0430\u044f \u0443\u043b\u0438\u0446\u0430", "building": "industrial", "height": "15", "name": "\u042d\u043b\u0435\u043a\u0442\u0440\u043e\u043a\u043e\u0442\u0435\u043b\u044c\u043d\u0430\u044f \u041b\u0438\u0441\u0438\u0445\u0430", "pipeline": "substation"}}]}