{"version": 0.6, "generator": "Overpass API 0.7.62.1 084b4234", "osm3s": {"timestamp_osm_base": "2024-05-03T00:54:28Z", "copyright": "The data included in this document is from www.openstreetmap.org. The data is made available under ODbL."}, "elements": [{"type": "node", "id": 1025902798, "lat": 54.5102828, "lon": 36.2624733}, {"type": "node", "id": 1025902799, "lat": 54.5099468, "lon": 36.2619813}, {"type": "node", "id": 1025902801, "lat": 54.5102985, "lon": 36.2620171}, {"type": "node", "id": 1025902802, "lat": 54.5099311, "lon": 36.2624375}, {"type": "node", "id": 2550693783, "lat": 54.5100815, "lon": 36.2624528, "tags": {"description": "\u0417\u0434\u0435\u0441\u044c \u0432\u044b\u0441\u0442\u0443\u043f\u0430\u043b \u0441 \u043b\u0435\u043a\u0446\u0438\u0435\u0439 \u0421\u043e\u043b\u0436\u0435\u043d\u0438\u0446\u044b\u043d", "historic": "memorial", "memorial": "plaque", "openplaques:id": "29890"}}, {"type": "node", "id": 2550693784, "lat": 54.5101169, "lon": 36.2624564, "tags": {"entrance": "main"}}, {"type": "node", "id": 2550693785, "lat": 54.5102572, "lon": 36.2624707, "tags": {"description": "\u0423\u043b\u0438\u0446\u0430 \u041b\u0443\u043d\u0430\u0447\u0430\u0440\u0441\u043a\u043e\u0433\u043e \u043d\u0430\u0437\u0432\u0430\u043d\u0430 \u0432 \u0447\u0435\u0441\u0442\u044c \u041b\u0443\u043d\u0430\u0447\u0430\u0440\u0441\u043a\u043e\u0433\u043e", "historic": "memorial", "memorial": "plaque", "openplaques:id": "28295"}}, {"type": "way", "id": 88320477, "nodes": [1025902799, 1025902801, 1025902798, 2550693785, 2550693784, 2550693783, 1025902802, 1025902799], "tags": {"addr:city": "\u041a\u0430\u043b\u0443\u0433\u0430", "addr:country": "RU", "addr:housenumber": "6", "addr:postcode": "248019", "addr:street": "\u0443\u043b\u0438\u0446\u0430 \u041b\u0443\u043d\u0430\u0447\u0430\u0440\u0441\u043a\u043e\u0433\u043e", "amenity": "library", "building": "yes", "name": "\u041e\u0431\u043b\u0430\u0441\u0442\u043d\u0430\u044f \u043d\u0430\u0443\u0447\u043d\u0430\u044f \u0431\u0438\u0431\u043b\u0438\u043e\u0442\u0435\u043a\u0430 \u0438\u043c\u0435\u043d\u0438 \u0411\u0435\u043b\u0438\u043d\u0441\u043a\u043e\u0433\u043e", "official_name": "\u041a\u0430\u043b\u0443\u0436\u0441\u043a\u0430\u044f \u043e\u0431\u043b\u0430\u0441\u0442\u043d\u0430\u044f \u043d\u0430\u0443\u0447\u043d\u0430\u044f \u0431\u0438\u0431\u043b\u0438\u043e\u0442\u0435\u043a\u0430 \u0438\u043c. \u0412. \u0413. \u0411\u0435\u043b\u0438\u043d\u0441\u043a\u043e\u0433\u043e"}}]}