{"version": 0.6, "generator": "Overpass API 0.7.62.1 084b4234", "osm3s": {"timestamp_osm_base": "2024-05-03T03:56:55Z", "copyright": "The data included in this document is from www.openstreetmap.org. The data is made available under ODbL."}, "elements": [{"type": "node", "id": 10832168364, "lat": 57.1071911, "lon": 65.5591115, "tags": {"amenity": "atm", "brand": "\u0421\u0431\u0435\u0440\u0431\u0430\u043d\u043a", "brand:en": "Sberbank", "brand:ru": "\u0421\u0431\u0435\u0440\u0431\u0430\u043d\u043a", "brand:wikidata": "Q205012", "name:en": "Sberbank", "name:ru": "\u0421\u0431\u0435\u0440\u0431\u0430\u043d\u043a", "operator": "\u041f\u0410\u041e \u0421\u0431\u0435\u0440\u0431\u0430\u043d\u043a", "operator:wikidata": "Q205012"}}, {"type": "node", "id": 10832168365, "lat": 57.1072042, "lon": 65.5591214, "tags": {"amenity": "atm", "brand": "\u0412\u0422\u0411", "brand:en": "VTB Bank", "brand:wikidata": "Q1549389", "name:en": "VTB Bank", "operator": "\u0411\u0430\u043d\u043a \u0412\u0422\u0411 (\u041f\u0410\u041e)", "operator:wikidata": "Q1549389"}}, {"type": "node", "id": 10832168366, "lat": 57.1071809, "lon": 65.5591029, "tags": {"amenity": "atm", "brand": "\u0410\u043b\u044c\u0444\u0430-\u0411\u0430\u043d\u043a", "brand:en": "Alfa-Bank", "brand:ru": "\u0410\u043b\u044c\u0444\u0430-\u0411\u0430\u043d\u043a", "brand:wikidata": "Q1377835", "name:en": "Alfa-Bank", "name:ru": "\u0410\u043b\u044c\u0444\u0430-\u0411\u0430\u043d\u043a", "operator": "\u0410\u041e \"\u0410\u043b\u044c\u0444\u0430-\u0411\u0430\u043d\u043a\"", "operator:wikidata": "Q1377835"}}, {"type": "node", "id": 10832168367, "lat": 57.1071977, "lon": 65.5591167, "tags": {"amenity": "atm", "brand": "\u041e\u0442\u043a\u0440\u044b\u0442\u0438\u0435", "brand:wikidata": "Q4327204", "contact:phone": "+7 800 4444400", "contact:website": "https://open.ru/", "operator": "\u041f\u0410\u041e \u0411\u0430\u043d\u043a \"\u0424\u041a \u041e\u0442\u043a\u0440\u044b\u0442\u0438\u0435\"", "operator:wikidata": "Q4327204"}}, {"type": "node", "id": 10832168368, "lat": 57.107186, "lon": 65.5591063, "tags": {"amenity": "atm", "brand": "\u0413\u0430\u0437\u043f\u0440\u043e\u043c\u0431\u0430\u043d\u043a", "brand:en": "Gazprombank", "brand:wikidata": "Q1924338", "name:en": "Gazprombank", "operator": "\u0411\u0430\u043d\u043a \u0413\u041f\u0411 (\u0410\u041e)", "operator:wikidata": "Q1924338"}}]}