{"version": 0.6, "generator": "Overpass API 0.7.62.1 084b4234", "osm3s": {"timestamp_osm_base": "2024-05-03T11:41:00Z", "copyright": "The data included in this document is from www.openstreetmap.org. The data is made available under ODbL."}, "elements": [{"type": "node", "id": 1415729340, "lat": 54.7210395, "lon": 20.4990527}, {"type": "node", "id": 1415729397, "lat": 54.7210239, "lon": 20.4992398}, {"type": "node", "id": 1415729408, "lat": 54.7212231, "lon": 20.4992894}, {"type": "node", "id": 1415729410, "lat": 54.7212386, "lon": 20.4991022}, {"type": "node", "id": 1829447017, "lat": 54.7218103, "lon": 20.4998063}, {"type": "node", "id": 1829447018, "lat": 54.7218453, "lon": 20.4994379}, {"type": "node", "id": 1829447019, "lat": 54.7219611, "lon": 20.4998544}, {"type": "node", "id": 1829447020, "lat": 54.7219979, "lon": 20.4994921}, {"type": "node", "id": 7282308987, "lat": 54.7206635, "lon": 20.5002177, "tags": {"addr:postcode": "236022", "alt_name": "Kentucky Fried Chicken", "amenity": "fast_food", "brand": "KFC", "brand:wikidata": "Q524757", "brand:wikipedia": "en:KFC", "cuisine": "chicken", "name": "KFC", "opening_hours": "Mo-Su 08:00-22:00", "takeaway": "yes", "website": "https://www.kfc.ru/"}}, {"type": "node", "id": 9801641213, "lat": 54.7208079, "lon": 20.4995871, "tags": {"amenity": "fast_food", "contact:email": "feedback@rosterhit.ru", "contact:phone": "+7 401 2398939", "contact:website": "https://rosterhit.ru/", "name": "\u0420\u043e\u0441\u0442\u0435\u0440\u0445\u0438\u0442", "opening_hours": "Mo-Su 09:00-20:30,21:00-08:30"}}, {"type": "way", "id": 128027855, "nodes": [1415729410, 1415729408, 1415729397, 1415729340, 1415729410], "tags": {"amenity": "fast_food", "building": "yes", "building:levels": "1", "name": "\u041f\u0430\u0442\u0438\u0441\u0441\u043e\u043d markt"}}, {"type": "way", "id": 171988364, "nodes": [1829447020, 1829447019, 1829447017, 1829447018, 1829447020], "tags": {"addr:country": "RU", "alt_name": "\u041c\u0430\u043a\u0434\u043e\u043d\u0430\u043b\u044c\u0434\u0441", "amenity": "fast_food", "brand": "\u0412\u043a\u0443\u0441\u043d\u043e \u2014 \u0438 \u0442\u043e\u0447\u043a\u0430", "brand:en": "Vkusno i tochka", "brand:ru": "\u0412\u043a\u0443\u0441\u043d\u043e \u2014 \u0438 \u0442\u043e\u0447\u043a\u0430", "brand:wikidata": "Q112406961", "brand:wikipedia": "en:McDonald\u2019s", "building": "yes", "contact:email": "info@ru.mcd.com", "contact:facebook": "https://www.facebook.com/mcdonaldsrussia", "contact:instagram": "https://www.instagram.com/mcdonalds_rus/", "contact:phone": "+7 401 2311037", "contact:vk": "https://vk.com/mcdonaldsrussia", "contact:website": "https://mcdonalds.ru", "contact:youtube": "https://www.youtube.com/user/McDonaldsRussia", "cuisine": "burger;american;sandwich", "diet:vegetarian": "no", "drive_through": "yes", "int_name": "McDonald's", "internet_access": "wlan", "name": "\u0412\u043a\u0443\u0441\u043d\u043e \u2014 \u0438 \u0442\u043e\u0447\u043a\u0430", "name:de": "McDonald's", "name:en": "Vkusno i tochka", "name:ru": "\u0412\u043a\u0443\u0441\u043d\u043e \u2014 \u0438 \u0442\u043e\u0447\u043a\u0430", "opening_hours": "Mo-Su 06:00-05:00", "operator": "\u041c\u0430\u043a\u0434\u043e\u043d\u0430\u043b\u0434\u0441", "operator:en": "McDonald's", "operator:ru": "\u041c\u0430\u043a\u0434\u043e\u043d\u0430\u043b\u0434\u0441", "smoking": "no", "takeaway": "yes"}}]}