{"version": 0.6, "generator": "Overpass API 0.7.62.1 084b4234", "osm3s": {"timestamp_osm_base": "2024-05-02T22:23:55Z", "copyright": "The data included in this document is from www.openstreetmap.org. The data is made available under ODbL."}, "elements": [{"type": "node", "id": 501902768, "lat": 53.3457038, "lon": 83.7771067}, {"type": "node", "id": 501902769, "lat": 53.3459864, "lon": 83.7778634}, {"type": "node", "id": 501902771, "lat": 53.3459169, "lon": 83.7781824}, {"type": "node", "id": 5274591142, "lat": 53.3460958, "lon": 83.7777962, "tags": {"entrance": "main"}}, {"type": "node", "id": 8578969888, "lat": 53.3458003, "lon": 83.7770055}, {"type": "node", "id": 8578969889, "lat": 53.3458508, "lon": 83.7780056}, {"type": "node", "id": 8578969890, "lat": 53.3461491, "lon": 83.777939}, {"type": "way", "id": 41128507, "nodes": [8578969888, 501902768, 501902769, 8578969889, 501902771, 8578969890, 5274591142, 8578969888], "tags": {"addr:city": "\u0411\u0430\u0440\u043d\u0430\u0443\u043b", "addr:country": "RU", "addr:housenumber": "57", "addr:region": "\u0410\u043b\u0442\u0430\u0439\u0441\u043a\u0438\u0439 \u043a\u0440\u0430\u0439", "addr:street": "\u043f\u0440\u043e\u0441\u043f\u0435\u043a\u0442 \u041b\u0435\u043d\u0438\u043d\u0430", "building": "hotel", "building:levels": "5"}}]}