{"version": 0.6, "generator": "Overpass API 0.7.62.1 084b4234", "osm3s": {"timestamp_osm_base": "2024-05-03T20:26:26Z", "copyright": "The data included in this document is from www.openstreetmap.org. The data is made available under ODbL."}, "elements": [{"type": "node", "id": 1024923014, "lat": 54.7268382, "lon": 20.5091248}, {"type": "node", "id": 1024923119, "lat": 54.727453, "lon": 20.5094797}, {"type": "node", "id": 1024923885, "lat": 54.7268247, "lon": 20.5093795}, {"type": "node", "id": 1024924194, "lat": 54.7274666, "lon": 20.5092249}, {"type": "node", "id": 3416469480, "lat": 54.7271761, "lon": 20.5091786}, {"type": "way", "id": 88215410, "nodes": [1024924194, 3416469480, 1024923014, 1024923885, 1024923119, 1024924194], "tags": {"addr:city": "\u041a\u0430\u043b\u0438\u043d\u0438\u043d\u0433\u0440\u0430\u0434", "addr:country": "RU", "addr:housenumber": "25", "addr:postcode": "236029", "addr:street": "\u0443\u043b\u0438\u0446\u0430 \u0413\u043e\u0440\u044c\u043a\u043e\u0433\u043e", "amenity": "university", "building": "yes", "building:levels": "5", "name": "\u0411\u0430\u043b\u0442\u0438\u0439\u0441\u043a\u0430\u044f \u0433\u043e\u0441\u0443\u0434\u0430\u0440\u0441\u0442\u0432\u0435\u043d\u043d\u0430\u044f \u0430\u043a\u0430\u0434\u0435\u043c\u0438\u044f \u0440\u044b\u0431\u043e\u043f\u0440\u043e\u043c\u044b\u0441\u043b\u043e\u0432\u043e\u0433\u043e \u0444\u043b\u043e\u0442\u0430. \u041a\u043e\u0440\u043f\u0443\u0441 4"}}]}