{"version": 0.6, "generator": "Overpass API 0.7.62.1 084b4234", "osm3s": {"timestamp_osm_base": "2024-05-03T22:00:40Z", "copyright": "The data included in this document is from www.openstreetmap.org. The data is made available under ODbL."}, "elements": [{"type": "node", "id": 2450632718, "lat": 45.0391096, "lon": 41.9471296}, {"type": "node", "id": 2450632720, "lat": 45.0384756, "lon": 41.9473066}, {"type": "node", "id": 2450632722, "lat": 45.038652, "lon": 41.9487107}, {"type": "node", "id": 2450632724, "lat": 45.0391823, "lon": 41.9482916}, {"type": "node", "id": 2450632727, "lat": 45.0391032, "lon": 41.9485715}, {"type": "node", "id": 2450632729, "lat": 45.039271, "lon": 41.9482538}, {"type": "node", "id": 2450632731, "lat": 45.0391684, "lon": 41.94834, "tags": {"barrier": "gate"}}, {"type": "way", "id": 237115192, "nodes": [2450632718, 2450632720, 2450632722, 2450632727, 2450632731, 2450632724, 2450632729, 2450632718], "tags": {"addr:city": "\u0421\u0442\u0430\u0432\u0440\u043e\u043f\u043e\u043b\u044c", "addr:country": "RU", "addr:housenumber": "98", "addr:postcode": "355003", "addr:street": "\u0443\u043b\u0438\u0446\u0430 \u041c\u0438\u0445\u0430\u0438\u043b\u0430 \u041c\u043e\u0440\u043e\u0437\u043e\u0432\u0430", "amenity": "kindergarten", "building": "no", "website": "http://mbdoy8stav.edusite.ru"}}]}