{"version": 0.6, "generator": "Overpass API 0.7.62.1 084b4234", "osm3s": {"timestamp_osm_base": "2024-05-03T22:11:59Z", "copyright": "The data included in this document is from www.openstreetmap.org. The data is made available under ODbL."}, "elements": [{"type": "node", "id": 471359381, "lat": 55.7114181, "lon": 37.6544393}, {"type": "node", "id": 471359382, "lat": 55.711562, "lon": 37.6549668}, {"type": "node", "id": 471359383, "lat": 55.711422, "lon": 37.6551468}, {"type": "node", "id": 471359385, "lat": 55.7109561, "lon": 37.6548233}, {"type": "node", "id": 471359386, "lat": 55.7110373, "lon": 37.6551311}, {"type": "node", "id": 471359388, "lat": 55.7113441, "lon": 37.6548762}, {"type": "way", "id": 39344997, "nodes": [471359382, 471359383, 471359388, 471359386, 471359385, 471359381, 471359382], "tags": {"addr:city": "\u041c\u043e\u0441\u043a\u0432\u0430", "addr:country": "RU", "addr:housenumber": "26 \u044135", "addr:postcode": "115280", "addr:street": "\u0443\u043b\u0438\u0446\u0430 \u041b\u0435\u043d\u0438\u043d\u0441\u043a\u0430\u044f \u0421\u043b\u043e\u0431\u043e\u0434\u0430", "building": "industrial", "building:colour": "red;white", "building:levels": "2", "building:material": "brick", "building:use": "commercial", "name": "\u041f\u0435\u0440\u0435\u0441\u0432\u0435\u0442\u0441\u043a\u0438\u0439", "roof:angle": "10", "roof:colour": "grey", "roof:material": "tar_paper", "roof:shape": "skillion"}}]}