{"version": 0.6, "generator": "Overpass API 0.7.62.1 084b4234", "osm3s": {"timestamp_osm_base": "2024-05-03T12:42:54Z", "copyright": "The data included in this document is from www.openstreetmap.org. The data is made available under ODbL."}, "elements": [{"type": "node", "id": 1623014572, "lat": 56.6552216, "lon": 124.7083066}, {"type": "node", "id": 1623014577, "lat": 56.6552601, "lon": 124.7083068}, {"type": "node", "id": 1623014579, "lat": 56.6552603, "lon": 124.7082294}, {"type": "node", "id": 1623014589, "lat": 56.6553333, "lon": 124.7083048}, {"type": "node", "id": 1623014590, "lat": 56.6553334, "lon": 124.70823}, {"type": "node", "id": 1623014597, "lat": 56.655342, "lon": 124.7083048}, {"type": "node", "id": 5578298281, "lat": 56.6552203, "lon": 124.708939}, {"type": "node", "id": 5578298282, "lat": 56.6553406, "lon": 124.7089399}, {"type": "node", "id": 7491893558, "lat": 56.6552213, "lon": 124.7084364, "tags": {"entrance": "main"}}, {"type": "way", "id": 149302952, "nodes": [1623014590, 1623014589, 1623014597, 5578298282, 5578298281, 7491893558, 1623014572, 1623014577, 1623014579, 1623014590], "tags": {"addr:city": "\u041d\u0435\u0440\u044e\u043d\u0433\u0440\u0438", "addr:country": "RU", "addr:housenumber": "14/2", "addr:postcode": "678960", "addr:street": "\u0443\u043b\u0438\u0446\u0430 \u041b\u0435\u043d\u0438\u043d\u0430", "amenity": "hospital", "building": "yes", "contact:phone": "+7 41147 61832", "height": "15", "name": "\u0421\u043e\u043c\u0430\u0442\u0438\u0447\u0435\u0441\u043a\u0438\u0439 \u043a\u043e\u0440\u043f\u0443\u0441 \u0426\u0420\u0411"}}]}