{"version": 0.6, "generator": "Overpass API 0.7.62.1 084b4234", "osm3s": {"timestamp_osm_base": "2024-05-03T08:46:15Z", "copyright": "The data included in this document is from www.openstreetmap.org. The data is made available under ODbL."}, "elements": [{"type": "node", "id": 1201384847, "lat": 55.763952, "lon": 49.1742039}, {"type": "node", "id": 1237086699, "lat": 55.7639424, "lon": 49.174622}, {"type": "node", "id": 1237086779, "lat": 55.764271, "lon": 49.1746343}, {"type": "node", "id": 3054805838, "lat": 55.7646436, "lon": 49.1742929}, {"type": "node", "id": 3054805839, "lat": 55.7644545, "lon": 49.1741984}, {"type": "node", "id": 3054805840, "lat": 55.7644411, "lon": 49.1748173}, {"type": "node", "id": 3054805841, "lat": 55.7646319, "lon": 49.1748303}, {"type": "node", "id": 4183146583, "lat": 55.7646047, "lon": 49.1742903}, {"type": "node", "id": 4183288209, "lat": 55.7646064, "lon": 49.1742087}, {"type": "node", "id": 4183291222, "lat": 55.7642759, "lon": 49.1742451}, {"type": "way", "id": 104114615, "nodes": [1201384847, 1237086699, 1237086779, 4183291222, 1201384847], "tags": {"addr:city": "\u041a\u0430\u0437\u0430\u043d\u044c", "addr:country": "RU", "addr:housenumber": "38", "addr:street": "\u0414\u0430\u0443\u0440\u0441\u043a\u0430\u044f \u0443\u043b\u0438\u0446\u0430", "building": "retail"}}, {"type": "way", "id": 301428214, "nodes": [3054805838, 4183146583, 4183288209, 3054805839, 3054805840, 3054805841, 3054805838], "tags": {"addr:city": "\u041a\u0430\u0437\u0430\u043d\u044c", "addr:country": "RU", "addr:housenumber": "38\u0410", "addr:postcode": "420087", "addr:street": "\u0414\u0430\u0443\u0440\u0441\u043a\u0430\u044f \u0443\u043b\u0438\u0446\u0430", "building": "retail"}}]}