{"version": 0.6, "generator": "Overpass API 0.7.62.1 084b4234", "osm3s": {"timestamp_osm_base": "2024-05-02T22:09:46Z", "copyright": "The data included in this document is from www.openstreetmap.org. The data is made available under ODbL."}, "elements": [{"type": "node", "id": 3372651202, "lat": 53.4883598, "lon": 49.4755303}, {"type": "node", "id": 3372651203, "lat": 53.4883529, "lon": 49.4759997}, {"type": "node", "id": 3372651204, "lat": 53.4884003, "lon": 49.4760017}, {"type": "node", "id": 3372651207, "lat": 53.4883757, "lon": 49.4776659}, {"type": "node", "id": 3372651208, "lat": 53.4878846, "lon": 49.4776454}, {"type": "node", "id": 3372651209, "lat": 53.4879161, "lon": 49.4755118}, {"type": "way", "id": 330304020, "nodes": [3372651202, 3372651203, 3372651204, 3372651207, 3372651208, 3372651209, 3372651202], "tags": {"addr:city": "\u0422\u043e\u043b\u044c\u044f\u0442\u0442\u0438", "addr:housenumber": "25", "addr:street": "\u0443\u043b\u0438\u0446\u0430 \u0413\u0440\u043e\u043c\u043e\u0432\u043e\u0439", "brand": "\u041b\u0435\u043d\u0442\u0430", "brand:en": "Lenta", "brand:wikidata": "Q4258608", "brand:wikipedia": "ru:\u041b\u0435\u043d\u0442\u0430 (\u0441\u0435\u0442\u044c \u043c\u0430\u0433\u0430\u0437\u0438\u043d\u043e\u0432)", "building": "retail", "contact:email": "info@lenta.com", "contact:facebook": "https://www.facebook.com/lentacom", "contact:instagram": "https://www.instagram.com/lenta_com", "contact:ok": "https://ok.ru/group/53286834208943", "contact:phone": "+7 800 7004111", "contact:vk": "https://vk.com/lentacom", "contact:website": "https://www.lenta.com", "delivery": "no", "internet_access": "no", "name": "\u041b\u0435\u043d\u0442\u0430", "name:en": "Lenta", "opening_hours": "08:00-23:00", "operator": "\u041e\u041e\u041e \"\u041b\u0435\u043d\u0442\u0430\"", "shop": "supermarket", "toilets": "yes", "wheelchair": "yes", "wheelchair:description:ru": "\u0434\u0430\u043d\u043d\u044b\u0435 \u041b\u0435\u043d\u0442\u044b"}}]}