{"version": 0.6, "generator": "Overpass API 0.7.62.1 084b4234", "osm3s": {"timestamp_osm_base": "2024-05-03T17:41:25Z", "copyright": "The data included in this document is from www.openstreetmap.org. The data is made available under ODbL."}, "elements": [{"type": "node", "id": 598558483, "lat": 55.4623737, "lon": 65.2664366}, {"type": "node", "id": 598558486, "lat": 55.462707, "lon": 65.2661105}, {"type": "node", "id": 598558487, "lat": 55.4628362, "lon": 65.2665212}, {"type": "node", "id": 598558488, "lat": 55.4627852, "lon": 65.266571}, {"type": "node", "id": 598558489, "lat": 55.4628662, "lon": 65.2668285}, {"type": "node", "id": 598558490, "lat": 55.4629677, "lon": 65.2667292}, {"type": "node", "id": 598558493, "lat": 55.4628728, "lon": 65.2672793}, {"type": "node", "id": 598558494, "lat": 55.4628191, "lon": 65.2671085}, {"type": "node", "id": 598558495, "lat": 55.4627401, "lon": 65.2671857}, {"type": "node", "id": 598558496, "lat": 55.4627633, "lon": 65.2672595}, {"type": "node", "id": 598558499, "lat": 55.4626632, "lon": 65.2673574}, {"type": "node", "id": 598558503, "lat": 55.4630776, "lon": 65.2670789}, {"type": "way", "id": 46881194, "nodes": [598558486, 598558487, 598558488, 598558489, 598558490, 598558503, 598558493, 598558494, 598558495, 598558496, 598558499, 598558483, 598558486], "tags": {"addr:city": "\u041a\u0443\u0440\u0433\u0430\u043d", "addr:country": "RU", "addr:housenumber": "30", "addr:place": "3-\u0439 \u043c\u0438\u043a\u0440\u043e\u0440\u0430\u0439\u043e\u043d", "addr:postcode": "640023", "building": "retail", "building:levels": "2", "name": "\u041c\u0435\u0442\u0440\u043e\u043f\u043e\u043b\u0438\u0441", "opening_hours": "Mo-Su 08:00-23:00", "shop": "supermarket"}}]}