{"version": 0.6, "generator": "Overpass API 0.7.62.1 084b4234", "osm3s": {"timestamp_osm_base": "2024-05-02T21:07:04Z", "copyright": "The data included in this document is from www.openstreetmap.org. The data is made available under ODbL."}, "elements": [{"type": "node", "id": 443452008, "lat": 55.8103778, "lon": 37.4021599}, {"type": "node", "id": 443452009, "lat": 55.8102436, "lon": 37.4023852}, {"type": "node", "id": 443452010, "lat": 55.8101215, "lon": 37.4021277}, {"type": "node", "id": 443452011, "lat": 55.8102542, "lon": 37.4019105}, {"type": "node", "id": 618281734, "lat": 55.8104817, "lon": 37.4040864}, {"type": "node", "id": 618281735, "lat": 55.8105594, "lon": 37.4042594}, {"type": "node", "id": 618281736, "lat": 55.8099766, "lon": 37.4050887}, {"type": "node", "id": 618281737, "lat": 55.8098988, "lon": 37.4049157}, {"type": "way", "id": 37807608, "nodes": [443452008, 443452009, 443452010, 443452011, 443452008], "tags": {"addr:city": "\u041c\u043e\u0441\u043a\u0432\u0430", "addr:housenumber": "6", "addr:postcode": "123592", "addr:street": "\u0443\u043b\u0438\u0446\u0430 \u041c\u0430\u0440\u0448\u0430\u043b\u0430 \u041a\u0430\u0442\u0443\u043a\u043e\u0432\u0430", "building": "retail", "building:colour": "white", "building:levels": "2", "building:material": "concrete", "roof:colour": "grey", "roof:material": "tar_paper", "roof:shape": "flat"}}, {"type": "way", "id": 48702007, "nodes": [618281734, 618281735, 618281736, 618281737, 618281734], "tags": {"addr:country": "RU", "addr:housenumber": "11 \u043a1 \u04412", "addr:street": "\u0443\u043b\u0438\u0446\u0430 \u041c\u0430\u0440\u0448\u0430\u043b\u0430 \u041a\u0430\u0442\u0443\u043a\u043e\u0432\u0430", "building": "retail", "building:colour": "white", "building:levels": "1", "building:material": "metal_plates", "roof:colour": "grey", "roof:material": "tar_paper", "roof:shape": "flat"}}]}