{"version": 0.6, "generator": "Overpass API 0.7.62.1 084b4234", "osm3s": {"timestamp_osm_base": "2024-05-03T18:46:12Z", "copyright": "The data included in this document is from www.openstreetmap.org. The data is made available under ODbL."}, "elements": [{"type": "node", "id": 2123611618, "lat": 55.7377597, "lon": 52.4194151}, {"type": "node", "id": 2123611619, "lat": 55.7378545, "lon": 52.4195847}, {"type": "node", "id": 2123611620, "lat": 55.7379372, "lon": 52.4191018}, {"type": "node", "id": 2123611621, "lat": 55.7380386, "lon": 52.4192597}, {"type": "node", "id": 8750192238, "lat": 55.7379975, "lon": 52.4191863}, {"type": "node", "id": 8750192239, "lat": 55.7379909, "lon": 52.4191979}, {"type": "way", "id": 202388142, "nodes": [2123611619, 2123611618, 2123611620, 8750192239, 8750192238, 2123611621, 2123611619], "tags": {"addr:city": "\u041d\u0430\u0431\u0435\u0440\u0435\u0436\u043d\u044b\u0435 \u0427\u0435\u043b\u043d\u044b", "addr:housenumber": "2/01\u0412", "addr:place": "\u041d\u043e\u0432\u044b\u0439 \u0433\u043e\u0440\u043e\u0434", "addr:postcode": "423810", "addr:suburb": "\u041d\u043e\u0432\u044b\u0439 \u0433\u043e\u0440\u043e\u0434", "building": "retail", "building:levels": "2"}}]}