{"version": 0.6, "generator": "Overpass API 0.7.62.1 084b4234", "osm3s": {"timestamp_osm_base": "2024-05-03T02:45:58Z", "copyright": "The data included in this document is from www.openstreetmap.org. The data is made available under ODbL."}, "elements": [{"type": "node", "id": 9317125492, "lat": 55.7629817, "lon": 37.5573649}, {"type": "node", "id": 9317125493, "lat": 55.76277, "lon": 37.5573501}, {"type": "node", "id": 9317125494, "lat": 55.7627852, "lon": 37.5566647}, {"type": "node", "id": 9317125495, "lat": 55.7629969, "lon": 37.5566795}, {"type": "node", "id": 10944078004, "lat": 55.7627776, "lon": 37.5570042, "tags": {"access": "private", "door": "revolving", "entrance": "yes", "wheelchair": "yes"}}, {"type": "way", "id": 1009809547, "nodes": [9317125495, 9317125492, 9317125493, 10944078004, 9317125494, 9317125495], "tags": {"addr:city": "\u041c\u043e\u0441\u043a\u0432\u0430", "addr:country": "RU", "addr:housenumber": "28", "addr:street": "2-\u044f \u0417\u0432\u0435\u043d\u0438\u0433\u043e\u0440\u043e\u0434\u0441\u043a\u0430\u044f", "building": "commercial", "name": "\u041e\u041e\u041e \"\u041e\u0431\u043b\u0430\u0447\u043d\u044b\u0435 \u0442\u0435\u0445\u043d\u043e\u043b\u043e\u0433\u0438\u0438\"", "office": "it", "opening_hours": "Mo-Fr 09:00-18:00", "website": "https://cloud.ru", "wheelchair": "yes"}}]}