{"version": 0.6, "generator": "Overpass API 0.7.62.1 084b4234", "osm3s": {"timestamp_osm_base": "2024-05-02T22:04:44Z", "copyright": "The data included in this document is from www.openstreetmap.org. The data is made available under ODbL."}, "elements": [{"type": "node", "id": 4368165996, "lat": 57.0165452, "lon": 40.9752426}, {"type": "node", "id": 4368165997, "lat": 57.0166385, "lon": 40.9720654}, {"type": "node", "id": 4368166000, "lat": 57.0170348, "lon": 40.975291}, {"type": "node", "id": 4368166002, "lat": 57.017128, "lon": 40.9721138}, {"type": "node", "id": 4686660865, "lat": 57.0162767, "lon": 40.9718916}, {"type": "node", "id": 4686660866, "lat": 57.0162148, "lon": 40.9721852}, {"type": "node", "id": 4686660867, "lat": 57.0163365, "lon": 40.9721739}, {"type": "node", "id": 4686660868, "lat": 57.0163286, "lon": 40.9718867}, {"type": "node", "id": 7702653546, "lat": 57.0162776, "lon": 40.9719256}, {"type": "node", "id": 7702653547, "lat": 57.0162078, "lon": 40.9719321}, {"type": "way", "id": 439192862, "nodes": [4368166002, 4368166000, 4368165996, 4368165997, 4368166002], "tags": {"addr:city": "\u0418\u0432\u0430\u043d\u043e\u0432\u043e", "addr:housenumber": "3", "addr:street": "\u0443\u043b\u0438\u0446\u0430 \u041a\u0430\u0440\u043b\u0430 \u041c\u0430\u0440\u043a\u0441\u0430", "brand": "\u041b\u0435\u043d\u0442\u0430", "brand:wikidata": "Q4258608", "brand:wikipedia": "ru:\u041b\u0435\u043d\u0442\u0430 (\u0441\u0435\u0442\u044c \u043c\u0430\u0433\u0430\u0437\u0438\u043d\u043e\u0432)", "building": "retail", "contact:email": "info@lenta.com", "contact:facebook": "https://www.facebook.com/lentacom", "contact:instagram": "https://www.instagram.com/lenta_com", "contact:ok": "https://ok.ru/group/53286834208943", "contact:vk": "https://vk.com/lentacom", "delivery": "no", "internet_access": "no", "name": "\u041b\u0435\u043d\u0442\u0430", "name:en": "Lenta", "opening_hours": "24/7", "operator": "\u041e\u041e\u041e \"\u041b\u0435\u043d\u0442\u0430\"", "phone": "+7 800 7004111", "shop": "supermarket", "toilets": "yes", "website": "https://www.lenta.com", "wheelchair": "yes", "wheelchair:description:ru": "\u0434\u0430\u043d\u043d\u044b\u0435 \u041b\u0435\u043d\u0442\u044b"}}, {"type": "way", "id": 474791027, "nodes": [4686660866, 7702653547, 7702653546, 4686660865, 4686660868, 4686660867]}, {"type": "way", "id": 980149669, "nodes": [4686660867, 4686660866]}, {"type": "relation", "id": 13170808, "members": [{"type": "way", "ref": 980149669, "role": "outer"}, {"type": "way", "ref": 474791027, "role": "outer"}], "tags": {"addr:city": "\u0418\u0432\u0430\u043d\u043e\u0432\u043e", "addr:housenumber": "6", "addr:postcode": "153002", "addr:street": "\u0443\u043b\u0438\u0446\u0430 \u041a\u0430\u0440\u043b\u0430 \u041c\u0430\u0440\u043a\u0441\u0430", "building": "retail", "building:levels": "2", "building:levels:underground": "1", "old_name": "\u0420\u0435\u043c\u0438\u0437\u043e-\u0431\u0435\u0440\u0434\u043e\u0447\u043d\u044b\u0439 \u0437\u0430\u0432\u043e\u0434 \u041d.\u041d.\u0414\u044c\u044f\u043a\u043e\u043d\u043e\u0432\u0430", "type": "multipolygon"}}]}