{"version": 0.6, "generator": "Overpass API 0.7.62.1 084b4234", "osm3s": {"timestamp_osm_base": "2024-05-03T14:22:11Z", "copyright": "The data included in this document is from www.openstreetmap.org. The data is made available under ODbL."}, "elements": [{"type": "node", "id": 1440226128, "lat": 55.8272748, "lon": 37.3685623}, {"type": "node", "id": 1440226140, "lat": 55.8276109, "lon": 37.3692432}, {"type": "node", "id": 1440226141, "lat": 55.8276398, "lon": 37.3684716}, {"type": "node", "id": 1440226143, "lat": 55.8278452, "lon": 37.3693283}, {"type": "node", "id": 3031892538, "lat": 55.8274592, "lon": 37.3693552}, {"type": "node", "id": 3031892539, "lat": 55.8276625, "lon": 37.3694645}, {"type": "way", "id": 130860953, "nodes": [3031892539, 1440226143, 1440226141, 1440226128, 3031892538, 1440226140, 3031892539], "tags": {"addr:city": "\u041a\u0440\u0430\u0441\u043d\u043e\u0433\u043e\u0440\u0441\u043a", "addr:country": "RU", "addr:housenumber": "1\u0410", "addr:postcode": "143405", "addr:street": "\u0421\u043f\u0430\u0441\u0441\u043a\u0430\u044f \u0443\u043b\u0438\u0446\u0430", "building": "retail", "building:levels": "2"}}]}