{"version": 0.6, "generator": "Overpass API 0.7.62.1 084b4234", "osm3s": {"timestamp_osm_base": "2024-05-13T16:13:55Z", "copyright": "The data included in this document is from www.openstreetmap.org. The data is made available under ODbL."}, "elements": [{"type": "node", "id": 634873879, "lat": 54.992615, "lon": 73.3719317, "tags": {"name": "\u0412\u0438\u0434\u0435\u0440\u0437\u044d\u0435\u043d", "shop": "optician"}}, {"type": "node", "id": 634873880, "lat": 54.992772, "lon": 73.3708127}, {"type": "node", "id": 634873881, "lat": 54.9926443, "lon": 73.3707996}, {"type": "node", "id": 634873882, "lat": 54.9927137, "lon": 73.3717687}, {"type": "node", "id": 634873893, "lat": 54.9929483, "lon": 73.3714355}, {"type": "node", "id": 634873894, "lat": 54.9930764, "lon": 73.3714486}, {"type": "node", "id": 634873895, "lat": 54.9930579, "lon": 73.3719967}, {"type": "node", "id": 634873896, "lat": 54.9929553, "lon": 73.3717935}, {"type": "node", "id": 3257789330, "lat": 54.9927267, "lon": 73.3713818}, {"type": "node", "id": 3257789331, "lat": 54.9927527, "lon": 73.3713845}, {"type": "node", "id": 3257789334, "lat": 54.9929408, "lon": 73.3716567}, {"type": "node", "id": 3257789335, "lat": 54.9929599, "lon": 73.3716587}, {"type": "node", "id": 4020087648, "lat": 54.9926141, "lon": 73.3716961, "tags": {"name": "\u0425\u043b\u0435\u0431\u043e\u0434\u0430\u0440", "shop": "bakery"}}, {"type": "node", "id": 4020087658, "lat": 54.9930625, "lon": 73.3718601, "tags": {"amenity": "pharmacy", "contact:phone": "+7 800 5500033", "contact:website": "https://apteka-ot-sklada.ru/", "entrance": "shop", "healthcare": "pharmacy", "name": "\u0410\u043f\u0442\u0435\u043a\u0430 \u043e\u0442 \u0441\u043a\u043b\u0430\u0434\u0430", "name:ru": "\u0410\u043f\u0442\u0435\u043a\u0430 \u043e\u0442 \u0441\u043a\u043b\u0430\u0434\u0430", "opening_hours": "Mo-Fr 09:00-20:00; Sa-Su 10:00-20:00"}}, {"type": "node", "id": 4020087665, "lat": 54.9926849, "lon": 73.3719584, "tags": {"name": "\u041a\u0430\u043d\u0446\u041f\u0430\u0440\u043a", "shop": "stationery"}}, {"type": "node", "id": 4020087666, "lat": 54.9930707, "lon": 73.3716194, "tags": {"brand": "\u041a\u0440\u0430\u0441\u043d\u043e\u0435&\u0411\u0435\u043b\u043e\u0435", "brand:wikidata": "Q24933790", "check_date:opening_hours": "2023-01-20", "entrance": "shop", "name": "\u041a\u0440\u0430\u0441\u043d\u043e\u0435 & \u0411\u0435\u043b\u043e\u0435", "opening_hours": "09:00-22:05", "shop": "alcohol", "website": "https://krasnoeibeloe.ru/"}}, {"type": "node", "id": 4020087671, "lat": 54.9928648, "lon": 73.3719769, "tags": {"name": "\u0426\u0435\u043d\u0442\u0440 \u043a\u043d\u0438\u0433\u0430", "shop": "books"}}, {"type": "node", "id": 4020096213, "lat": 54.9926074, "lon": 73.3718933}, {"type": "node", "id": 4020096214, "lat": 54.9926199, "lon": 73.3715219, "tags": {"office": "notary"}}, {"type": "node", "id": 4020096215, "lat": 54.9926279, "lon": 73.3719526}, {"type": "node", "id": 6402326441, "lat": 54.9926286, "lon": 73.3712655, "tags": {"amenity": "doctors", "contact:phone": "+7 381 2906040", "contact:vk": "https://vk.com/kdllab", "contact:website": "https://kdl.ru/", "health_facility:type": "laboratory", "health_specialty:biochemistry": "yes", "health_specialty:microbiology": "yes", "healthcare": "laboratory", "name": "KDL", "name:en": "KDL", "name:ru": "KDL", "opening_hours": "Mo-Fr 07:00-17:00; Sa 08:00-15:00; Su 08:00-13:00", "operator": "\u041a\u0414\u041b \u0414\u041e\u041c\u041e\u0414\u0415\u0414\u041e\u0412\u041e-\u0422\u0415\u0421\u0422"}}, {"type": "node", "id": 7101281287, "lat": 54.9926372, "lon": 73.3710094, "tags": {"name": "\u0422\u0443\u0440\u043d\u0430\u0434\u043e", "shop": "travel_agency"}}, {"type": "node", "id": 7101281288, "lat": 54.9926424, "lon": 73.3708542, "tags": {"amenity": "dentist", "name": "\u0410\u043a\u0446\u0435\u043d\u0442"}}, {"type": "way", "id": 49970720, "nodes": [4020096215, 4020087665, 4020087671, 634873895, 4020087658, 4020087666, 634873894, 634873893, 3257789334, 3257789335, 634873896, 634873882, 3257789330, 3257789331, 634873880, 634873881, 7101281288, 7101281287, 6402326441, 4020096214, 4020087648, 4020096213, 634873879, 4020096215], "tags": {"addr:housenumber": "13", "addr:postcode": "644099", "addr:street": "\u0443\u043b\u0438\u0446\u0430 \u0413\u0435\u0440\u0446\u0435\u043d\u0430", "building": "apartments", "building:levels": "4"}}]}