{"version": 0.6, "generator": "Overpass API 0.7.62.1 084b4234", "osm3s": {"timestamp_osm_base": "2024-05-04T00:29:06Z", "copyright": "The data included in this document is from www.openstreetmap.org. The data is made available under ODbL."}, "elements": [{"type": "node", "id": 739222400, "lat": 45.0642782, "lon": 39.021658}, {"type": "node", "id": 739222402, "lat": 45.0640473, "lon": 39.0218388}, {"type": "node", "id": 739222403, "lat": 45.0640412, "lon": 39.0216759}, {"type": "node", "id": 739222405, "lat": 45.0642844, "lon": 39.0218209}, {"type": "node", "id": 1615904644, "lat": 45.0641664, "lon": 39.0216664}, {"type": "node", "id": 1615904646, "lat": 45.0641725, "lon": 39.0218294}, {"type": "way", "id": 59588232, "nodes": [1615904646, 739222405, 739222400, 1615904644, 1615904646], "tags": {"addr:city": "\u041a\u0440\u0430\u0441\u043d\u043e\u0434\u0430\u0440", "addr:housenumber": "189", "addr:postcode": "350901", "addr:street": "\u0443\u043b\u0438\u0446\u0430 1 \u041c\u0430\u044f", "brand": "\u041c\u0430\u0433\u043d\u0438\u0442", "brand:en": "Magnit", "brand:wikidata": "Q940518", "brand:wikipedia": "ru:\u041c\u0430\u0433\u043d\u0438\u0442 (\u0441\u0435\u0442\u044c \u043c\u0430\u0433\u0430\u0437\u0438\u043d\u043e\u0432)", "building": "retail", "building:levels": "1", "contact:email": "info@magnit.ru", "contact:phone": "+7 800 2009002", "contact:twitter": "https://twitter.com/magnit_info", "contact:website": "http://magnit-info.ru", "int_name": "Magnit", "name": "\u041c\u0430\u0433\u043d\u0438\u0442", "name:en": "Magnit", "name:ru": "\u041c\u0430\u0433\u043d\u0438\u0442", "operator": "\u0410\u041e \"\u0422\u0430\u043d\u0434\u0435\u0440\"", "shop": "supermarket", "source": "PG Mapping Project"}}, {"type": "way", "id": 148495830, "nodes": [1615904646, 1615904644, 739222403, 739222402, 1615904646], "tags": {"addr:housenumber": "187/1", "addr:postcode": "350901", "addr:street": "\u0443\u043b\u0438\u0446\u0430 1 \u041c\u0430\u044f", "brand": "\u041c\u0430\u0433\u043d\u0438\u0442", "brand:en": "Magnit", "brand:wikidata": "Q940518", "brand:wikipedia": "ru:\u041c\u0430\u0433\u043d\u0438\u0442 (\u0441\u0435\u0442\u044c \u043c\u0430\u0433\u0430\u0437\u0438\u043d\u043e\u0432)", "building": "retail", "building:levels": "1", "contact:email": "info@magnit.ru", "contact:phone": "+7 800 2009002", "contact:twitter": "https://twitter.com/magnit_info", "contact:website": "http://magnit-info.ru", "int_name": "Magnit", "name": "\u041c\u0430\u0433\u043d\u0438\u0442", "name:en": "Magnit", "name:ru": "\u041c\u0430\u0433\u043d\u0438\u0442", "operator": "\u0410\u041e \"\u0422\u0430\u043d\u0434\u0435\u0440\"", "shop": "supermarket", "source": "PG Mapping Project"}}]}