{"version": 0.6, "generator": "Overpass API 0.7.62.1 084b4234", "osm3s": {"timestamp_osm_base": "2024-05-03T12:19:01Z", "copyright": "The data included in this document is from www.openstreetmap.org. The data is made available under ODbL."}, "elements": [{"type": "node", "id": 4301548571, "lat": 56.063685, "lon": 92.9477077}, {"type": "node", "id": 4301548572, "lat": 56.0636131, "lon": 92.9475637}, {"type": "node", "id": 4301548576, "lat": 56.0642907, "lon": 92.9467365}, {"type": "node", "id": 4301548577, "lat": 56.0648197, "lon": 92.9477948}, {"type": "node", "id": 4301548581, "lat": 56.0638964, "lon": 92.9492757}, {"type": "node", "id": 4301548585, "lat": 56.0632953, "lon": 92.9480734}, {"type": "way", "id": 430893027, "nodes": [4301548571, 4301548572, 4301548585, 4301548581, 4301548577, 4301548576, 4301548571], "tags": {"addr:housenumber": "19\u0414", "addr:street": "\u042f\u0441\u0442\u044b\u043d\u0441\u043a\u0430\u044f \u0443\u043b\u0438\u0446\u0430", "brand": "\u041b\u0435\u043d\u0442\u0430", "brand:en": "Lenta", "brand:wikidata": "Q4258608", "brand:wikipedia": "ru:\u041b\u0435\u043d\u0442\u0430 (\u0441\u0435\u0442\u044c \u043c\u0430\u0433\u0430\u0437\u0438\u043d\u043e\u0432)", "building": "retail", "building:levels": "1", "contact:email": "info@lenta.com", "contact:facebook": "https://www.facebook.com/lentacom", "contact:instagram": "https://www.instagram.com/lenta_com", "contact:ok": "https://ok.ru/group/53286834208943", "contact:phone": "+7 800 7004111", "contact:vk": "https://vk.com/lentacom", "contact:website": "https://www.lenta.com", "delivery": "no", "diet:halal": "yes", "diet:kosher": "yes", "internet_access": "no", "name": "\u041b\u0435\u043d\u0442\u0430", "name:en": "Lenta", "opening_hours": "24/7", "operator": "\u041e\u041e\u041e \"\u041b\u0435\u043d\u0442\u0430\"", "roof:shape": "flat", "shop": "supermarket", "toilets": "yes", "toilets:wheelchair": "yes", "wheelchair": "yes", "wheelchair:description:ru": "\u0434\u0430\u043d\u043d\u044b\u0435 \u041b\u0435\u043d\u0442\u044b"}}]}